[{"id": "gp-m82018", "type": "gp", "name": "Beeches Medical Practice", "address": "1 Beeches Road, Shrewsbury", "postcode": "SY3 0PF", "lat": 52.673832, "lng": -2.772327, "districtCode": "E06000051"}, {"id": "gp-m82048", "type": "gp", "name": "Belvidere Medical Pract.", "address": "23 Belvidere Road, Shrewsbury", "postcode": "SY2 5LS", "lat": 52.707355, "lng": -2.729862, "districtCode": "E06000051"}, {"id": "gp-m82033", "type": "gp", "name": "Bishops Castle Medical Practice", "address": "School House Lane, Bishops Castle", "postcode": "SY9 5ER", "lat": 52.494716, "lng": -2.994912, "districtCode": "E06000051"}, {"id": "gp-m82026", "type": "gp", "name": "Cambrian Medical Practice", "address": "Thomas Savin Road, Oswestry", "postcode": "SY11 1GA", "lat": 52.862824, "lng": -3.047787, "districtCode": "E06000051"}, {"id": "gp-m82008", "type": "gp", "name": "Church Stretton Medical Centre", "address": "Easthope Road, Church Stretton", "postcode": "SY6 6BL", "lat": 52.537301, "lng": -2.806168, "districtCode": "E06000051"}, {"id": "gp-m82025", "type": "gp", "name": "Churchmere Medical Group", "address": "Trimpley Street, Ellesmere", "postcode": "SY12 0DB", "lat": 52.907861, "lng": -2.896493, "districtCode": "E06000051"}, {"id": "gp-m82034", "type": "gp", "name": "Claremont Bank Surgery", "address": "Claremont Bank, Shrewsbury", "postcode": "SY1 1RL", "lat": 52.708199, "lng": -2.75862, "districtCode": "E06000051"}, {"id": "gp-m82017", "type": "gp", "name": "Clive Medical Practice", "address": "High Street, Shrewsbury", "postcode": "SY4 5PS", "lat": 52.814232, "lng": -2.718401, "districtCode": "E06000051"}, {"id": "gp-m82046", "type": "gp", "name": "Craven Arms Surgery", "address": "20 Shrewsbury Road, Craven Arms", "postcode": "SY7 9PY", "lat": 52.442323, "lng": -2.835416, "districtCode": "E06000051"}, {"id": "gp-m82020", "type": "gp", "name": "Knockin Medical Centre", "address": "Knockin, Oswestry", "postcode": "SY10 8HL", "lat": 52.793444, "lng": -2.99304, "districtCode": "E06000051"}, {"id": "gp-m82043", "type": "gp", "name": "Ludlow - Portcullis", "address": "Portcullis Lane, Ludlow", "postcode": "SY8 1GT", "lat": 52.368918, "lng": -2.715957, "districtCode": "E06000051"}, {"id": "gp-m82047", "type": "gp", "name": "Marden Medical Practice", "address": "25 Sutton Road, Shrewsbury", "postcode": "SY2 6DL", "lat": 52.698125, "lng": -2.730833, "districtCode": "E06000051"}, {"id": "gp-m82040", "type": "gp", "name": "Marysville Medical Pract", "address": "Brook Street, Shrewsbury", "postcode": "SY3 7QR", "lat": 52.696905, "lng": -2.749131, "districtCode": "E06000051"}, {"id": "gp-m82002", "type": "gp", "name": "Mytton Oak Medical Pract.", "address": "Racecourse Lane, Shrewsbury", "postcode": "SY3 5LZ", "lat": 52.707682, "lng": -2.79776, "districtCode": "E06000051"}, {"id": "gp-m82005", "type": "gp", "name": "Plas Ffynnon Medical Ctre", "address": "Middleton Road, Oswestry", "postcode": "SY11 2RB", "lat": 52.857508, "lng": -3.050214, "districtCode": "E06000051"}, {"id": "gp-m82030", "type": "gp", "name": "Pontesbury & Worthen Medical Practice", "address": "Hall Bank, Shrewsbury", "postcode": "SY5 0RF", "lat": 52.650564, "lng": -2.888159, "districtCode": "E06000051"}, {"id": "gp-m82023", "type": "gp", "name": "Prescott Surgery", "address": "Prescott Road, Shrewsbury", "postcode": "SY4 2DR", "lat": 52.78436, "lng": -2.852687, "districtCode": "E06000051"}, {"id": "gp-m82016", "type": "gp", "name": "Radbrook Green Surgery", "address": "Bank Farm Road, Shrewsbury", "postcode": "SY3 6DU", "lat": 52.69643, "lng": -2.775507, "districtCode": "E06000051"}, {"id": "gp-m82006", "type": "gp", "name": "Riverside Med Practice", "address": "The Tannery, Shrewsbury", "postcode": "SY1 1QJ", "lat": 52.708314, "lng": -2.757468, "districtCode": "E06000051"}, {"id": "gp-m82032", "type": "gp", "name": "Severn Fields Medical Practice", "address": "Severn Fields Hth Village, Shrewsbury", "postcode": "SY1 4RQ", "lat": 52.728046, "lng": -2.721619, "districtCode": "E06000051"}, {"id": "gp-m82011", "type": "gp", "name": "Shawbury Medical Practice", "address": "Poynton Road, Shrewsbury", "postcode": "SY4 4JS", "lat": 52.782995, "lng": -2.65437, "districtCode": "E06000051"}, {"id": "gp-m82060", "type": "gp", "name": "South Hermitage Surgery", "address": "Medical Centre, Shrewsbury", "postcode": "SY3 7JS", "lat": 52.699743, "lng": -2.752495, "districtCode": "E06000051"}, {"id": "gp-m82014", "type": "gp", "name": "Station Drive Surgery", "address": "Station Drive, Ludlow", "postcode": "SY8 2AB", "lat": 52.370146, "lng": -2.71514, "districtCode": "E06000051"}, {"id": "gp-m82022", "type": "gp", "name": "The Caxton Surgery", "address": "Oswald Road, Oswestry", "postcode": "SY11 1RD", "lat": 52.861445, "lng": -3.051274, "districtCode": "E06000051"}, {"id": "gp-m82620", "type": "gp", "name": "The Meadows Medical Practice", "address": "Turnpike Meadow, Craven Arms", "postcode": "SY7 8HZ", "lat": 52.421763, "lng": -3.02393, "districtCode": "E06000051"}, {"id": "gp-m82035", "type": "gp", "name": "Wem And Prees Medical Practice", "address": "New Street, Shrewsbury", "postcode": "SY4 5AF", "lat": 52.859352, "lng": -2.722563, "districtCode": "E06000051"}, {"id": "gp-m82013", "type": "gp", "name": "Westbury Medical Centre", "address": "Westbury, Shrewsbury", "postcode": "SY5 9QX", "lat": 52.678755, "lng": -2.955351, "districtCode": "E06000051"}, {"id": "gp-n81038", "type": "gp", "name": "Laurel Bank Surgery", "address": "Old Hall Street, Malpas", "postcode": "SY14 8PS", "lat": 53.017569, "lng": -2.762637, "districtCode": "E06000050"}, {"id": "gp-w95633", "type": "gp", "name": "74 Monk Street", "address": "73-74 Monk Street, Aberdare", "postcode": "CF44 7PA", "lat": 51.71162, "lng": -3.447168, "districtCode": "W06000016"}, {"id": "gp-w00005", "type": "gp", "name": "Aber Medical Centre", "address": "Meddygfa Tridwr, Caerphilly", "postcode": "CF83 4AU", "lat": 51.595941, "lng": -3.270527, "districtCode": "W06000018"}, {"id": "gp-w95087", "type": "gp", "name": "Abercwmboi Medical Practice", "address": "Abercwmboi Medical Centre, Aberdare", "postcode": "CF44 6BL", "lat": 51.689657, "lng": -3.41069, "districtCode": "W06000016"}, {"id": "gp-w95042", "type": "gp", "name": "Abercynon Medical Centre", "address": "Ynysmeurig Road, Mountain Ash", "postcode": "CF45 4YB", "lat": 51.645814, "lng": -3.32725, "districtCode": "W06000016"}, {"id": "gp-w98608", "type": "gp", "name": "Abertawe Medical Partners", "address": "151 St. Helens Road, Swansea", "postcode": "SA1 4DF", "lat": 51.618001, "lng": -3.953942, "districtCode": "W06000011"}, {"id": "gp-w93075", "type": "gp", "name": "Abertillery Group", "address": "The Bridge Centre, Abertillery", "postcode": "NP13 1BQ", "lat": 51.732496, "lng": -3.134772, "districtCode": "W06000019"}, {"id": "gp-w97057", "type": "gp", "name": "Albert Road Surgery", "address": "Albert Road, Penarth", "postcode": "CF64 1BX", "lat": 51.441721, "lng": -3.171937, "districtCode": "W06000014"}, {"id": "gp-w91025", "type": "gp", "name": "Alyn Family Doctors", "address": "The Health Centre, Wrexham", "postcode": "LL12 0TR", "lat": 53.096433, "lng": -2.99723, "districtCode": "W06000006"}, {"id": "gp-w00142", "type": "gp", "name": "Amman Tawe Partnership", "address": "1 Graig Road, Ammanford", "postcode": "SA18 1EG", "lat": 51.793167, "lng": -3.885041, "districtCode": "W06000012"}, {"id": "gp-w00143", "type": "gp", "name": "Amman Tawe Partnership", "address": "4 Gwilym Road, Swansea", "postcode": "SA9 2GH", "lat": 51.799724, "lng": -3.81867, "districtCode": "W06000012"}, {"id": "gp-w00067", "type": "gp", "name": "Argyle Medical Group", "address": "Argyle Street, Pembroke Dock", "postcode": "SA72 6HL", "lat": 51.692444, "lng": -4.937523, "districtCode": "W06000009"}, {"id": "gp-w00133", "type": "gp", "name": "Ash Grove Medical Centre", "address": "Thomas Street, Llanelli", "postcode": "SA15 3JH", "lat": 51.684479, "lng": -4.162497, "districtCode": "W06000010"}, {"id": "gp-w92065", "type": "gp", "name": "Ashleigh Surgery", "address": "Napier Street, Cardigan", "postcode": "SA43 1ED", "lat": 52.085124, "lng": -4.657929, "districtCode": "W06000008"}, {"id": "gp-w92037", "type": "gp", "name": "Avenue Villa Surgery", "address": "Brynmor Road, Llanelli", "postcode": "SA15 2TJ", "lat": 51.679575, "lng": -4.166559, "districtCode": "W06000010"}, {"id": "gp-w92008", "type": "gp", "name": "Barlow House Surgery", "address": "Manchester Square Health Centre, Milford Haven", "postcode": "SA73 2JW", "lat": 51.713959, "lng": -5.034392, "districtCode": "W06000009"}, {"id": "gp-w91033", "type": "gp", "name": "Beech House Surgery", "address": "69 Vale Street, Denbigh", "postcode": "LL16 3AY", "lat": 53.185563, "lng": -3.415161, "districtCode": "W06000004"}, {"id": "gp-w93053", "type": "gp", "name": "Beechwood Surgery", "address": "Beechwood Primary Care, Newport", "postcode": "NP19 8HL", "lat": 51.58837, "lng": -2.962534, "districtCode": "W06000022"}, {"id": "gp-w93048", "type": "gp", "name": "Bellevue Surgery", "address": "Belle Vue Terrace, Newport", "postcode": "NP20 2WQ", "lat": 51.57735, "lng": -2.996561, "districtCode": "W06000022"}, {"id": "gp-w91624", "type": "gp", "name": "Berllan Surgery", "address": "24 Abbey Road, Denbigh", "postcode": "LL16 3DL", "lat": 53.187446, "lng": -3.410239, "districtCode": "W06000004"}, {"id": "gp-w97021", "type": "gp", "name": "Birchgrove Surgery", "address": "Caerphilly Road, Cardiff", "postcode": "CF14 4QJ", "lat": 51.516887, "lng": -3.201149, "districtCode": "W06000015"}, {"id": "gp-w97028", "type": "gp", "name": "Bishops Road Medical Centre", "address": "1 Bishops Road, Cardiff", "postcode": "CF14 1LT", "lat": 51.511458, "lng": -3.220186, "districtCode": "W06000015"}, {"id": "gp-w93011", "type": "gp", "name": "Blackwood Medical Group", "address": "Avicenna Medical Centre, Blackwood", "postcode": "NP12 2YU", "lat": 51.656042, "lng": -3.189153, "districtCode": "W06000018"}, {"id": "gp-w93068", "type": "gp", "name": "Blaen-Y-Cwm Group Practice", "address": "Blaenavon Road, Ebbw Vale", "postcode": "NP23 4BR", "lat": 51.795493, "lng": -3.17314, "districtCode": "W06000019"}, {"id": "gp-w93015", "type": "gp", "name": "Blaenavon Medical Practice", "address": "Middle Coedcae Road, Pontypool", "postcode": "NP4 9AW", "lat": 51.773346, "lng": -3.078342, "districtCode": "W06000020"}, {"id": "gp-w93115", "type": "gp", "name": "Blaina Medical Practice", "address": "Rear Of High Street, Abertillery", "postcode": "NP13 3AT", "lat": 51.766713, "lng": -3.161106, "districtCode": "W06000019"}, {"id": "gp-w94010", "type": "gp", "name": "Bodnant Surgery", "address": "Menai Avenue, Bangor", "postcode": "LL57 2HH", "lat": 53.227389, "lng": -4.139272, "districtCode": "W06000002"}, {"id": "gp-w94031", "type": "gp", "name": "Bodreinallt", "address": "Bodreinallt Surgery, Conwy", "postcode": "LL32 8AT", "lat": 53.280777, "lng": -3.826717, "districtCode": "W06000003"}, {"id": "gp-w91054", "type": "gp", "name": "Borras Park Surgery", "address": "Borras Park Road, Wrexham", "postcode": "LL12 7TH", "lat": 53.059684, "lng": -2.971238, "districtCode": "W06000006"}, {"id": "gp-w92006", "type": "gp", "name": "Borth Surgery", "address": "High Street, Borth", "postcode": "SY24 5JE", "lat": 52.486107, "lng": -4.05112, "districtCode": "W06000008"}, {"id": "gp-w00200", "type": "gp", "name": "Brawdy Medical Facility", "address": "Brawdy, Haverfordwest", "postcode": "SA62 6NN", "lat": 51.87872, "lng": -5.129139, "districtCode": "W06000009"}, {"id": "gp-w00199", "type": "gp", "name": "Brecon Medical Facility", "address": "Dering Lines, Brecon", "postcode": "LD3 7RA", "lat": 51.942223, "lng": -3.365062, "districtCode": "W06000023"}, {"id": "gp-w95070", "type": "gp", "name": "Bridgend Group", "address": "Merthyr Mawr Road, Bridgend", "postcode": "CF31 3NW", "lat": 51.502522, "lng": -3.578611, "districtCode": "W06000013"}, {"id": "gp-w92039", "type": "gp", "name": "Bro Pedr Medical Group", "address": "Taliesyn Surgery, Lampeter", "postcode": "SA48 7AA", "lat": 52.111906, "lng": -4.077205, "districtCode": "W06000008"}, {"id": "gp-w94034", "type": "gp", "name": "Bron Derw Medical Centre", "address": "Glynne Road, Bangor", "postcode": "LL57 1AH", "lat": 53.229962, "lng": -4.121076, "districtCode": "W06000002"}, {"id": "gp-w95064", "type": "gp", "name": "Bron-Y-Garn Surgery", "address": "Maesteg General Hospital, Maesteg", "postcode": "CF34 9PW", "lat": 51.611094, "lng": -3.669638, "districtCode": "W06000013"}, {"id": "gp-w94032", "type": "gp", "name": "Bronmeirion", "address": "Castle Street, Penrhyndeudraeth", "postcode": "LL48 6AL", "lat": 52.928809, "lng": -4.069925, "districtCode": "W06000002"}, {"id": "gp-w91027", "type": "gp", "name": "Bronyffynnon Surgery", "address": "24 Bridge Street, Denbigh", "postcode": "LL16 3TF", "lat": 53.183492, "lng": -3.421483, "districtCode": "W06000004"}, {"id": "gp-w95634", "type": "gp", "name": "Brookside Medical Centre", "address": "Heol Afon Taf, Merthyr Tydfil", "postcode": "CF48 4DT", "lat": 51.712047, "lng": -3.347874, "districtCode": "W06000024"}, {"id": "gp-w98024", "type": "gp", "name": "Brunswick Health Centre", "address": "Phillips Parade, Swansea", "postcode": "SA1 4JL", "lat": 51.61726, "lng": -3.957392, "districtCode": "W06000011"}, {"id": "gp-w91016", "type": "gp", "name": "Bryn Darland Surgery", "address": "53 High Street, Wrexham", "postcode": "LL11 3SA", "lat": 53.053486, "lng": -3.071044, "districtCode": "W06000006"}, {"id": "gp-w91042", "type": "gp", "name": "Bryncabanau", "address": "Hightown, Wrexham", "postcode": "LL13 7BS", "lat": 53.038664, "lng": -2.985709, "districtCode": "W06000006"}, {"id": "gp-w97006", "type": "gp", "name": "Brynderwen Surgery", "address": "Crickhowell Road, Cardiff", "postcode": "CF3 0EF", "lat": 51.525407, "lng": -3.101737, "districtCode": "W06000015"}, {"id": "gp-w93046", "type": "gp", "name": "Bryngwyn Surgery", "address": "4-6 Bryngwyn Road, Newport", "postcode": "NP20 4JS", "lat": 51.586243, "lng": -3.007047, "districtCode": "W06000022"}, {"id": "gp-w98004", "type": "gp", "name": "Brynhyfryd Medical Centre", "address": "499 Llangyfelach Road, Swansea", "postcode": "SA5 9EA", "lat": 51.6452, "lng": -3.945485, "districtCode": "W06000011"}, {"id": "gp-w92036", "type": "gp", "name": "Brynteg Surgery", "address": "Brynmawr Avenue, Ammanford", "postcode": "SA18 2DA", "lat": 51.79765, "lng": -3.990012, "districtCode": "W06000010"}, {"id": "gp-w95068", "type": "gp", "name": "Bryntirion Surgery", "address": "West Street, Bargoed", "postcode": "CF81 8SA", "lat": 51.688054, "lng": -3.233451, "districtCode": "W06000018"}, {"id": "gp-w97291", "type": "gp", "name": "Butetown Medical Practice", "address": "Loudoun, Cardiff", "postcode": "CF10 5HW", "lat": 51.470749, "lng": -3.170046, "districtCode": "W06000015"}, {"id": "gp-w91007", "type": "gp", "name": "Cadwgan Surgery", "address": "11 Bodelwyddan Avenue, Colwyn Bay", "postcode": "LL29 9NP", "lat": 53.286644, "lng": -3.694245, "districtCode": "W06000003"}, {"id": "gp-w93029", "type": "gp", "name": "Cae Teg Health Centre", "address": "Nant Dowlais Health Centr, Cwmbran", "postcode": "NP44 4TA", "lat": 51.644667, "lng": -3.047581, "districtCode": "W06000020"}, {"id": "gp-w96009", "type": "gp", "name": "Caereinion Medical Practice", "address": "Llanfair Caereinion, Welshpool", "postcode": "SY21 0RT", "lat": 52.649671, "lng": -3.324518, "districtCode": "W06000023"}, {"id": "gp-w91610", "type": "gp", "name": "Caergwrle Medical Practice", "address": "39-41 High Street, Wrexham", "postcode": "LL12 9LG", "lat": 53.110658, "lng": -3.040868, "districtCode": "W06000005"}, {"id": "gp-w91629", "type": "gp", "name": "Caia Park Surgery", "address": "Prince Charles Road, Wrexham", "postcode": "LL13 8TH", "lat": 53.045703, "lng": -2.97149, "districtCode": "W06000006"}, {"id": "gp-w94028", "type": "gp", "name": "Canolfan Feddygol Yr Hen", "address": "Station Road, Bangor", "postcode": "LL57 3NE", "lat": 53.180917, "lng": -4.067949, "districtCode": "W06000002"}, {"id": "gp-w91010", "type": "gp", "name": "Canolfan Iechyd", "address": "Llangollen Health Centre, Llangollen", "postcode": "LL20 8RZ", "lat": 52.970079, "lng": -3.163894, "districtCode": "W06000004"}, {"id": "gp-w94002", "type": "gp", "name": "Canolfan Iechyd Amlwch", "address": "Parys Road, Amlwch", "postcode": "LL68 9AB", "lat": 53.410718, "lng": -4.34582, "districtCode": "W06000001"}, {"id": "gp-w97044", "type": "gp", "name": "Cardiff Bay Surgery", "address": "45 Cambridge Street, Cardiff", "postcode": "CF11 7DJ", "lat": 51.465174, "lng": -3.180758, "districtCode": "W06000015"}, {"id": "gp-w00100", "type": "gp", "name": "Cardiff Health Access Practice", "address": "Cardiff And Vale His, Cardiff", "postcode": "CF24 0SZ", "lat": 51.485082, "lng": -3.162866, "districtCode": "W06000015"}, {"id": "gp-w92044", "type": "gp", "name": "Cardigan Health Centre", "address": "Cardigan Intergrated Care, Cardigan", "postcode": "SA43 1JX", "lat": 52.088702, "lng": -4.662755, "districtCode": "W06000008"}, {"id": "gp-w00007", "type": "gp", "name": "Caritas Surgery", "address": "The Health Centre Smithy, Wrexham", "postcode": "LL11 3NS", "lat": 53.052675, "lng": -3.066294, "districtCode": "W06000006"}, {"id": "gp-w93036", "type": "gp", "name": "Castle Gate Medical Practice", "address": "Rear Of Monnow Street, Monmouth", "postcode": "NP25 3EQ", "lat": 51.809949, "lng": -2.718628, "districtCode": "W06000021"}, {"id": "gp-w98006", "type": "gp", "name": "Castle Surgery", "address": "1 Prince Of Wales Drive, Neath", "postcode": "SA11 3EW", "lat": 51.665107, "lng": -3.801921, "districtCode": "W06000012"}, {"id": "gp-w97009", "type": "gp", "name": "Cathays Surgery", "address": "137 Cathays Terrace, Cardiff", "postcode": "CF24 4HU", "lat": 51.494915, "lng": -3.182175, "districtCode": "W06000015"}, {"id": "gp-w98612", "type": "gp", "name": "Cheriton Medical Centre", "address": "Cheriton Crescent, Swansea", "postcode": "SA5 5LA", "lat": 51.649517, "lng": -3.971358, "districtCode": "W06000011"}, {"id": "gp-w91024", "type": "gp", "name": "Chirk Surgery", "address": "Castle Health Centre, Wrexham", "postcode": "LL14 5DH", "lat": 52.93278, "lng": -3.05516, "districtCode": "W06000006"}, {"id": "gp-w97299", "type": "gp", "name": "Clare Road Medical Centre", "address": "148-152 Clare Road, Cardiff", "postcode": "CF11 6RW", "lat": 51.471084, "lng": -3.186756, "districtCode": "W06000015"}, {"id": "gp-w91003", "type": "gp", "name": "Clarence Medical Centre", "address": "West Rhyl Primary Care Centre, Rhyl", "postcode": "LL18 1DA", "lat": 53.317065, "lng": -3.492542, "districtCode": "W06000004"}, {"id": "gp-w93028", "type": "gp", "name": "Clark Avenue Surgery", "address": "Clark Avenue, Cwmbran", "postcode": "NP44 1RY", "lat": 51.664228, "lng": -3.026777, "districtCode": "W06000020"}, {"id": "gp-w98039", "type": "gp", "name": "Clase Surgery", "address": "Greenhill Medical Centre, Swansea", "postcode": "SA6 7NZ", "lat": 51.660357, "lng": -3.943055, "districtCode": "W06000011"}, {"id": "gp-w97060", "type": "gp", "name": "Clifton Surgery", "address": "151-153 Newport Road, Cardiff", "postcode": "CF24 1AG", "lat": 51.487912, "lng": -3.159482, "districtCode": "W06000015"}, {"id": "gp-w97007", "type": "gp", "name": "Cloughmore Medical Centre", "address": "19 South Park Road, Cardiff", "postcode": "CF24 2LU", "lat": 51.481769, "lng": -3.145948, "districtCode": "W06000015"}, {"id": "gp-w92007", "type": "gp", "name": "Coach & Horses Surgery", "address": "Pentre Road, Carmarthen", "postcode": "SA33 4AA", "lat": 51.819872, "lng": -4.495747, "districtCode": "W06000010"}, {"id": "gp-w92046", "type": "gp", "name": "Coalbrook Surgery", "address": "Coalbrook Road, Llanelli", "postcode": "SA15 5HU", "lat": 51.778223, "lng": -4.168601, "districtCode": "W06000010"}, {"id": "gp-w94029", "type": "gp", "name": "Coed Y Glyn Surgery", "address": "Coed Y Glyn, Llangefni", "postcode": "LL77 7DU", "lat": 53.256514, "lng": -4.310935, "districtCode": "W06000001"}, {"id": "gp-w94609", "type": "gp", "name": "Corwen House", "address": "Market Place, Caernarfon", "postcode": "LL54 6NN", "lat": 53.052973, "lng": -4.286432, "districtCode": "W06000002"}, {"id": "gp-w95059", "type": "gp", "name": "Court House Medical Centre", "address": "Heol Bro Wen, Caerphilly", "postcode": "CF83 3GH", "lat": 51.584385, "lng": -3.218157, "districtCode": "W06000018"}, {"id": "gp-w97058", "type": "gp", "name": "Court Road Surgery", "address": "29 Court Road, Barry", "postcode": "CF63 4YD", "lat": 51.408896, "lng": -3.26404, "districtCode": "W06000014"}, {"id": "gp-w97038", "type": "gp", "name": "Cowbridge & Vale Medical Practice", "address": "Cowbridge Health Centre, Cowbridge", "postcode": "CF71 7DA", "lat": 51.463998, "lng": -3.453472, "districtCode": "W06000014"}, {"id": "gp-w94019", "type": "gp", "name": "Craig Y Don Medical Practice", "address": "Clarence Road, Llandudno", "postcode": "LL30 1TA", "lat": 53.319817, "lng": -3.812844, "districtCode": "W06000003"}, {"id": "gp-w91614", "type": "gp", "name": "Crane Medical Centre", "address": "Crane Street, Wrexham", "postcode": "LL14 3AB", "lat": 52.972592, "lng": -3.074655, "districtCode": "W06000006"}, {"id": "gp-w97041", "type": "gp", "name": "Crwys Medical Centre", "address": "The Crwys Surgery, Cardiff", "postcode": "CF14 3QX", "lat": 51.503529, "lng": -3.182196, "districtCode": "W06000015"}, {"id": "gp-w93007", "type": "gp", "name": "Cwm Calon", "address": "The Bridge Centre, Abertillery", "postcode": "NP13 1BQ", "lat": 51.732496, "lng": -3.134772, "districtCode": "W06000019"}, {"id": "gp-w95031", "type": "gp", "name": "Cwm Garw Practice", "address": "Victoria Street, Bridgend", "postcode": "CF32 8NN", "lat": 51.61545, "lng": -3.585947, "districtCode": "W06000013"}, {"id": "gp-w95295", "type": "gp", "name": "Cwm Gwyrdd Medical Centre", "address": "High Street, Porth", "postcode": "CF39 8TJ", "lat": 51.591199, "lng": -3.474809, "districtCode": "W06000013"}, {"id": "gp-w93619", "type": "gp", "name": "Cwm Health Centre", "address": "Canning Street, Ebbw Vale", "postcode": "NP23 7RW", "lat": 51.741487, "lng": -3.184111, "districtCode": "W06000019"}, {"id": "gp-w95016", "type": "gp", "name": "Cwmaman Surgery", "address": "6-14 Glanaman Road, Aberdare", "postcode": "CF44 6HY", "lat": 51.685551, "lng": -3.446597, "districtCode": "W06000016"}, {"id": "gp-w98019", "type": "gp", "name": "Cwmavon Health Centre", "address": "Penllyn, Port Talbot", "postcode": "SA12 9PY", "lat": 51.616843, "lng": -3.758192, "districtCode": "W06000012"}, {"id": "gp-w93027", "type": "gp", "name": "Cwmbran Village Surgery", "address": "Victoria Street, Cwmbran", "postcode": "NP44 3JS", "lat": 51.647629, "lng": -3.022702, "districtCode": "W06000020"}, {"id": "gp-w98003", "type": "gp", "name": "Cwmfelin Medical Centre", "address": "298 Carmarthen Road, Swansea", "postcode": "SA1 1HW", "lat": 51.633913, "lng": -3.949352, "districtCode": "W06000011"}, {"id": "gp-w98022", "type": "gp", "name": "Cwmtawe Medical Group", "address": "80 High Street, Swansea", "postcode": "SA6 5LN", "lat": 51.695867, "lng": -3.892468, "districtCode": "W06000011"}, {"id": "gp-w97010", "type": "gp", "name": "Cyncoed Medical Practice", "address": "Dartington Drive, Cardiff", "postcode": "CF23 8SQ", "lat": 51.530496, "lng": -3.150458, "districtCode": "W06000015"}, {"id": "gp-w95027", "type": "gp", "name": "De Winton Field Practice", "address": "Rhondda Cynon Taff, Tonypandy", "postcode": "CF40 2LE", "lat": 51.625164, "lng": -3.455106, "districtCode": "W06000016"}, {"id": "gp-w91026", "type": "gp", "name": "Dee Valley Medical Practice", "address": "15 High Street, Wrexham", "postcode": "LL13 0ED", "lat": 52.969507, "lng": -2.935636, "districtCode": "W06000006"}, {"id": "gp-w97055", "type": "gp", "name": "Dinas Powys Medical Centre", "address": "Murch Road, Dinas Powys", "postcode": "CF64 4RE", "lat": 51.431965, "lng": -3.203883, "districtCode": "W06000014"}, {"id": "gp-w93072", "type": "gp", "name": "Dixton Road Surgery", "address": "New Dixton Road, Monmouth", "postcode": "NP25 3PL", "lat": 51.815001, "lng": -2.711324, "districtCode": "W06000021"}, {"id": "gp-w98007", "type": "gp", "name": "Dr Bensusan & Partners", "address": "Pr2 Fforestfach Medicl Centre, Swansea", "postcode": "SA5 5AA", "lat": 51.644895, "lng": -3.972386, "districtCode": "W06000011"}, {"id": "gp-w98028", "type": "gp", "name": "Dr Powell & Partners", "address": "Pr1 Fforestfach Medical Centre, Swansea", "postcode": "SA5 5AA", "lat": 51.644895, "lng": -3.972386, "districtCode": "W06000011"}, {"id": "gp-w98030", "type": "gp", "name": "Dulais Valley Prim Care Centre", "address": "Dulais Valley Primary Care, Neath", "postcode": "SA10 9EY", "lat": 51.753341, "lng": -3.728194, "districtCode": "W06000012"}, {"id": "gp-w95014", "type": "gp", "name": "Eglwysbach Medical Practi", "address": "Berw Road, Pontypridd", "postcode": "CF37 2AA", "lat": 51.60751, "lng": -3.338116, "districtCode": "W06000016"}, {"id": "gp-w97040", "type": "gp", "name": "Ely Bridge Surgery", "address": "23 Mill Road, Cardiff", "postcode": "CF5 4AD", "lat": 51.483637, "lng": -3.233816, "districtCode": "W06000015"}, {"id": "gp-w97045", "type": "gp", "name": "Eryl Surgery", "address": "Llantwit Major & Coastal, Llantwit Major", "postcode": "CF61 1ST", "lat": 51.409657, "lng": -3.48436, "districtCode": "W06000014"}, {"id": "gp-w98012", "type": "gp", "name": "Estuary Group Practice", "address": "22 Mill Street, Swansea", "postcode": "SA4 3ED", "lat": 51.649183, "lng": -4.041887, "districtCode": "W06000011"}, {"id": "gp-w98032", "type": "gp", "name": "Fairfield Medical Centre", "address": "Fairfield Surgery, Port Talbot", "postcode": "SA12 7BJ", "lat": 51.6061, "lng": -3.809478, "districtCode": "W06000012"}, {"id": "gp-w92021", "type": "gp", "name": "Fairfield Surgery", "address": "1 Park Crescent, Llanelli", "postcode": "SA15 3AE", "lat": 51.681279, "lng": -4.166829, "districtCode": "W06000010"}, {"id": "gp-w97047", "type": "gp", "name": "Fairwater Health Centre", "address": "Plasmawr Road, Cardiff", "postcode": "CF5 3JT", "lat": 51.490958, "lng": -3.241375, "districtCode": "W06000015"}, {"id": "gp-w94027", "type": "gp", "name": "Felinheli&Porthaethwy Su", "address": "Rowen, Y Felinheli", "postcode": "LL56 4RX", "lat": 53.180231, "lng": -4.21705, "districtCode": "W06000002"}, {"id": "gp-w92015", "type": "gp", "name": "Fishguard Health Centre", "address": "Ropewalk, Fishguard", "postcode": "SA65 9BT", "lat": 51.9948, "lng": -4.97934, "districtCode": "W06000009"}, {"id": "gp-w95054", "type": "gp", "name": "Forest View Medical Centre", "address": "Forest View Health, Treorchy", "postcode": "CF42 6DL", "lat": 51.664085, "lng": -3.517299, "districtCode": "W06000016"}, {"id": "gp-w91020", "type": "gp", "name": "Forge Road Surgery", "address": "Forge Road, Wrexham", "postcode": "LL11 5RR", "lat": 53.059264, "lng": -3.038972, "districtCode": "W06000006"}, {"id": "gp-w97048", "type": "gp", "name": "Four Elms Medical Centre", "address": "Sterling Close, Cardiff", "postcode": "CF24 2HB", "lat": 51.490117, "lng": -3.131666, "districtCode": "W06000015"}, {"id": "gp-w92016", "type": "gp", "name": "Furnace House Surgery", "address": "St. Andrews Road, Carmarthen", "postcode": "SA31 1EX", "lat": 51.859614, "lng": -4.304822, "districtCode": "W06000010"}, {"id": "gp-w94023", "type": "gp", "name": "Gerafon Surgery", "address": "Meddygfa Gerafon, Tyn-Y-Gongl", "postcode": "LL74 8TF", "lat": 53.319521, "lng": -4.226368, "districtCode": "W06000001"}, {"id": "gp-w93032", "type": "gp", "name": "Glan Rhyd Surgery", "address": "Riverside, Ebbw Vale", "postcode": "NP23 5NT", "lat": 51.795406, "lng": -3.213566, "districtCode": "W06000019"}, {"id": "gp-w93065", "type": "gp", "name": "Glan Yr Afon Surgery", "address": "Bevan Health & Wellbeing Centre, Tredegar", "postcode": "NP22 3NG", "lat": 51.769506, "lng": -3.247525, "districtCode": "W06000019"}, {"id": "gp-w94040", "type": "gp", "name": "Glanfa", "address": "Orme Road, Bangor", "postcode": "LL57 1AY", "lat": 53.231112, "lng": -4.121087, "districtCode": "W06000002"}, {"id": "gp-w96011", "type": "gp", "name": "Glantwymyn Health Centre", "address": "Iechyd Bro Ddyfi-Dyfi Val, Machynlleth", "postcode": "SY20 8AD", "lat": 52.591763, "lng": -3.845756, "districtCode": "W06000023"}, {"id": "gp-w98045", "type": "gp", "name": "Gower Medical Practice", "address": "Monksland Road, Swansea", "postcode": "SA3 1AY", "lat": 51.567097, "lng": -4.218739, "districtCode": "W06000011"}, {"id": "gp-w97061", "type": "gp", "name": "Grange Medical Practice", "address": "Bishop Street, Cardiff", "postcode": "CF11 6PG", "lat": 51.470752, "lng": -3.189397, "districtCode": "W06000015"}, {"id": "gp-w97616", "type": "gp", "name": "Grangetown Health Centre", "address": "Cambridge Street, Cardiff", "postcode": "CF11 7DJ", "lat": 51.465174, "lng": -3.180758, "districtCode": "W06000015"}, {"id": "gp-w93023", "type": "gp", "name": "Gray Hill Surgery", "address": "Woodstock Way, Caldicot", "postcode": "NP26 5AB", "lat": 51.588917, "lng": -2.753416, "districtCode": "W06000021"}, {"id": "gp-w91038", "type": "gp", "name": "Gwrych Medical Centre", "address": "North Wales Business Park, Abergele", "postcode": "LL22 8LJ", "lat": 53.287976, "lng": -3.597158, "districtCode": "W06000003"}, {"id": "gp-w98056", "type": "gp", "name": "Harbourside Health Centre", "address": "Beacon Centre For Health, Swansea", "postcode": "SA1 8QY", "lat": 51.620582, "lng": -3.924568, "districtCode": "W06000011"}, {"id": "gp-w96017", "type": "gp", "name": "Haygarth Medical Centre", "address": "Hay Road, Brecon", "postcode": "LD3 0AW", "lat": 51.999567, "lng": -3.232381, "districtCode": "W06000023"}, {"id": "gp-w93063", "type": "gp", "name": "Health Centre", "address": "Park Row, Tredegar", "postcode": "NP22 3NG", "lat": 51.769506, "lng": -3.247525, "districtCode": "W06000019"}, {"id": "gp-w98002", "type": "gp", "name": "Health Centre", "address": "Dyfed Road Health Centre, Neath", "postcode": "SA11 3AW", "lat": 51.662448, "lng": -3.79768, "districtCode": "W06000012"}, {"id": "gp-w00208", "type": "gp", "name": "Health Hub Iw", "address": "Ysbyty Cwm Cynon, Mountain Ash", "postcode": "CF45 4BZ", "lat": 51.686921, "lng": -3.392841, "districtCode": "W06000016"}, {"id": "gp-w94004", "type": "gp", "name": "Health Services Centre", "address": "Canolfan Goffa Ffestiniog, Blaenau Ffestiniog", "postcode": "LL41 3DW", "lat": 52.992143, "lng": -3.935915, "districtCode": "W06000002"}, {"id": "gp-w91009", "type": "gp", "name": "Healthy Prestatyn", "address": "Rhuddlan Iach Ty Nant, Prestatyn", "postcode": "LL19 9LG", "lat": 53.334544, "lng": -3.402623, "districtCode": "W06000004"}, {"id": "gp-w95063", "type": "gp", "name": "Heathbridge House", "address": "1A Pisgah Street, Bridgend", "postcode": "CF33 6BY", "lat": 51.530868, "lng": -3.683885, "districtCode": "W06000013"}, {"id": "gp-w93126", "type": "gp", "name": "Hereford Road Surgery", "address": "6 Hereford Road, Abergavenny", "postcode": "NP7 5PR", "lat": 51.823773, "lng": -3.014454, "districtCode": "W06000021"}, {"id": "gp-w91058", "type": "gp", "name": "Hillcrest Medical Centre", "address": "86 Holt Road, Wrexham", "postcode": "LL13 8RG", "lat": 53.049536, "lng": -2.984242, "districtCode": "W06000006"}, {"id": "gp-w95020", "type": "gp", "name": "Hirwaun Medical Centre", "address": "High Street, Aberdare", "postcode": "CF44 9SL", "lat": 51.739932, "lng": -3.512452, "districtCode": "W06000016"}, {"id": "gp-w91013", "type": "gp", "name": "Hope Family Medical Centre", "address": "Hawarden Road, Wrexham", "postcode": "LL12 9NL", "lat": 53.115018, "lng": -3.033622, "districtCode": "W06000005"}, {"id": "gp-w94026", "type": "gp", "name": "Hwb Iechyd Cybi", "address": "Ucheldre Avenue, Holyhead", "postcode": "LL65 1RA", "lat": 53.30984, "lng": -4.636664, "districtCode": "W06000001"}, {"id": "gp-w93018", "type": "gp", "name": "Isca Medical Centre", "address": "Cadoc House, Newport", "postcode": "NP18 1AZ", "lat": 51.610728, "lng": -2.956422, "districtCode": "W06000022"}, {"id": "gp-w91622", "type": "gp", "name": "Kings House Surgery", "address": "Kings Avenue, Rhyl", "postcode": "LL18 1LT", "lat": 53.317534, "lng": -3.493144, "districtCode": "W06000004"}, {"id": "gp-w97067", "type": "gp", "name": "Kings Road (Drs Surgery)", "address": "180 Kings Road, Cardiff", "postcode": "CF11 9DQ", "lat": 51.485972, "lng": -3.199428, "districtCode": "W06000015"}, {"id": "gp-w98055", "type": "gp", "name": "Kings Road Surgery", "address": "2-6 Kings Road, Swansea", "postcode": "SA3 4AJ", "lat": 51.573626, "lng": -4.003357, "districtCode": "W06000011"}, {"id": "gp-w98041", "type": "gp", "name": "Kings Surgery", "address": "Primary Care Resource Centre, Port Talbot", "postcode": "SA12 7BJ", "lat": 51.6061, "lng": -3.809478, "districtCode": "W06000012"}, {"id": "gp-w98027", "type": "gp", "name": "Kingsway Surgery", "address": "37 The Kingsway, Swansea", "postcode": "SA1 5LF", "lat": 51.62097, "lng": -3.945763, "districtCode": "W06000011"}, {"id": "gp-w91014", "type": "gp", "name": "Kinmel Bay Medical Centre", "address": "The Square, Rhyl", "postcode": "LL18 5AU", "lat": 53.31162, "lng": -3.517975, "districtCode": "W06000003"}, {"id": "gp-w91615", "type": "gp", "name": "Lakeside Medical Centre", "address": "203 Wellington Road, Rhyl", "postcode": "LL18 1LR", "lat": 53.314616, "lng": -3.500728, "districtCode": "W06000004"}, {"id": "gp-w94039", "type": "gp", "name": "Liverpool House", "address": "Waunfawr, Caernarfon", "postcode": "LL55 4YY", "lat": 53.111272, "lng": -4.206865, "districtCode": "W06000002"}, {"id": "gp-w97005", "type": "gp", "name": "Llandaff Fields Medical Practice", "address": "Canton Court, Cardiff", "postcode": "CF11 9SH", "lat": 51.48067, "lng": -3.195588, "districtCode": "W06000015"}, {"id": "gp-w97286", "type": "gp", "name": "Llandaff North Medical Ce", "address": "99 Station Road, Cardiff", "postcode": "CF14 2FD", "lat": 51.5059, "lng": -3.228827, "districtCode": "W06000015"}, {"id": "gp-w97619", "type": "gp", "name": "Llandaff Surgery", "address": "19A High Street, Cardiff", "postcode": "CF5 2DY", "lat": 51.493727, "lng": -3.219107, "districtCode": "W06000015"}, {"id": "gp-w96013", "type": "gp", "name": "Llandrindod Wells Medical Practice", "address": "Spa Road East, Llandrindod Wells", "postcode": "LD1 5ES", "lat": 52.238427, "lng": -3.376372, "districtCode": "W06000023"}, {"id": "gp-w97008", "type": "gp", "name": "Llanedeyrn Health Centre", "address": "Llan Healthcare, Cardiff", "postcode": "CF23 9PF", "lat": 51.513946, "lng": -3.150027, "districtCode": "W06000015"}, {"id": "gp-w92055", "type": "gp", "name": "Llanfair Surgery", "address": "Llanfair Road, Llandovery", "postcode": "SA20 0HY", "lat": 51.998418, "lng": -3.796033, "districtCode": "W06000010"}, {"id": "gp-w96012", "type": "gp", "name": "Llanfyllin Group Practice", "address": "High Street, Llanfyllin", "postcode": "SY22 5DG", "lat": 52.767099, "lng": -3.273059, "districtCode": "W06000023"}, {"id": "gp-w92048", "type": "gp", "name": "Llangennech Surgery", "address": "Park Lane, Llanelli", "postcode": "SA14 8TU", "lat": 51.697731, "lng": -4.084086, "districtCode": "W06000010"}, {"id": "gp-w92056", "type": "gp", "name": "Llanilar Health Centre", "address": "Llanilar, Aberystwyth", "postcode": "SY23 4PA", "lat": 52.356741, "lng": -4.021026, "districtCode": "W06000008"}, {"id": "gp-w97013", "type": "gp", "name": "Llanishen Court Surgery", "address": "Llanishen Court, Cardiff", "postcode": "CF14 5YU", "lat": 51.528582, "lng": -3.188309, "districtCode": "W06000015"}, {"id": "gp-w93025", "type": "gp", "name": "Llanyravon Surgery", "address": "Llanyravon Way, Cwmbran", "postcode": "NP44 8HW", "lat": 51.648324, "lng": -3.006862, "districtCode": "W06000020"}, {"id": "gp-w93640", "type": "gp", "name": "Lliswerry Medical Centre", "address": "Fallowfield Drive, Newport", "postcode": "NP19 4TD", "lat": 51.578156, "lng": -2.951423, "districtCode": "W06000022"}, {"id": "gp-w98005", "type": "gp", "name": "Llwyn Brwydrau Surgery", "address": "3 Frederick Place, Swansea", "postcode": "SA7 9RY", "lat": 51.659757, "lng": -3.884427, "districtCode": "W06000011"}, {"id": "gp-w00134", "type": "gp", "name": "Llwynhendy Health Centre", "address": "Llwynhendy Road, Llanelli", "postcode": "SA14 9BN", "lat": 51.681599, "lng": -4.123662, "districtCode": "W06000010"}, {"id": "gp-w95009", "type": "gp", "name": "Llynfi Surgery", "address": "Llynfi Road, Maesteg", "postcode": "CF34 9DT", "lat": 51.610076, "lng": -3.661527, "districtCode": "W06000013"}, {"id": "gp-w92019", "type": "gp", "name": "Llynyfran Surgery", "address": "Meddygfa Llynyfran, Llandysul", "postcode": "SA44 4JX", "lat": 52.047091, "lng": -4.316412, "districtCode": "W06000008"}, {"id": "gp-w94016", "type": "gp", "name": "Llys Meddyg", "address": "Gyffin Surgery, Conwy", "postcode": "LL32 8LT", "lat": 53.277163, "lng": -3.832037, "districtCode": "W06000003"}, {"id": "gp-w91053", "type": "gp", "name": "Madryn House Surgery", "address": "6 Madryn Avenue, Rhyl", "postcode": "LL18 4RS", "lat": 53.316614, "lng": -3.474602, "districtCode": "W06000004"}, {"id": "gp-w96007", "type": "gp", "name": "Maesycoed", "address": "Builth Wells Medical Practice, Builth Wells", "postcode": "LD2 3DZ", "lat": 52.149816, "lng": -3.410865, "districtCode": "W06000023"}, {"id": "gp-w93051", "type": "gp", "name": "Malpas Brook Health Centre", "address": "107 Malpas Road, Newport", "postcode": "NP20 5PJ", "lat": 51.599221, "lng": -3.001458, "districtCode": "W06000022"}, {"id": "gp-w98043", "type": "gp", "name": "Manselton Surgery", "address": "Elgin Street, Swansea", "postcode": "SA5 8QE", "lat": 51.638991, "lng": -3.953862, "districtCode": "W06000011"}, {"id": "gp-w92040", "type": "gp", "name": "Margaret Street Practice", "address": "Margaret Street, Ammanford", "postcode": "SA18 2PJ", "lat": 51.794811, "lng": -3.988799, "districtCode": "W06000010"}, {"id": "gp-w95046", "type": "gp", "name": "Market Street Practice", "address": "Tonyfelin Medical Centre, Caerphilly", "postcode": "CF83 1XP", "lat": 51.578106, "lng": -3.215853, "districtCode": "W06000018"}, {"id": "gp-w93010", "type": "gp", "name": "Markham Medical Centre", "address": "James Street, Blackwood", "postcode": "NP12 0QN", "lat": 51.702037, "lng": -3.205626, "districtCode": "W06000018"}, {"id": "gp-w98015", "type": "gp", "name": "Mayhill Surgery", "address": "Mountain View Health Centre, Swansea", "postcode": "SA1 6TD", "lat": 51.631794, "lng": -3.95244, "districtCode": "W06000011"}, {"id": "gp-w94020", "type": "gp", "name": "Meddyg Care", "address": "Meddyg Care Lonfa, Llandudno Junction", "postcode": "LL31 9NS", "lat": 53.285714, "lng": -3.805355, "districtCode": "W06000003"}, {"id": "gp-w94612", "type": "gp", "name": "Meddyg Care", "address": "Porthmadog Health Centre, Porthmadog", "postcode": "LL49 9NU", "lat": 52.928353, "lng": -4.134773, "districtCode": "W06000002"}, {"id": "gp-w94005", "type": "gp", "name": "Meddygfa", "address": "Meddygfa Betws Y Coed, Betws-Y-Coed", "postcode": "LL24 0BP", "lat": 53.091729, "lng": -3.81928, "districtCode": "W06000003"}, {"id": "gp-w94035", "type": "gp", "name": "Meddygfa", "address": "Hafan Clinic, Bala", "postcode": "LL23 7BA", "lat": 52.91081, "lng": -3.595008, "districtCode": "W06000002"}, {"id": "gp-w97014", "type": "gp", "name": "Meddygfa Albany Surgery", "address": "219 - 221 City Road, Cardiff", "postcode": "CF24 3JD", "lat": 51.491973, "lng": -3.171526, "districtCode": "W06000015"}, {"id": "gp-w97296", "type": "gp", "name": "Meddygfa Canna Surgery", "address": "27 Wyndham Crescent, Cardiff", "postcode": "CF11 9EE", "lat": 51.482582, "lng": -3.197683, "districtCode": "W06000015"}, {"id": "gp-w95080", "type": "gp", "name": "Meddygfa Cwm Rhymni Practice", "address": "White Rose Way Medical Centre, New Tredegar", "postcode": "NP24 6EE", "lat": 51.718893, "lng": -3.240588, "districtCode": "W06000018"}, {"id": "gp-w95081", "type": "gp", "name": "Meddygfa Cwm Rhymni Practice", "address": "R.I.H.S.C.C Lawns Industrial Estate, Tredegar", "postcode": "NP22 5PW", "lat": 51.757964, "lng": -3.283126, "districtCode": "W06000018"}, {"id": "gp-w92018", "type": "gp", "name": "Meddygfa Emlyn", "address": "Lloyds Terrace, Newcastle Emlyn", "postcode": "SA38 9NS", "lat": 52.041451, "lng": -4.468788, "districtCode": "W06000008"}, {"id": "gp-w95050", "type": "gp", "name": "Meddygfa Gelligaer Surgery", "address": "Heol Hen Ysgol, Hengoed", "postcode": "CF82 8FQ", "lat": 51.663706, "lng": -3.250344, "districtCode": "W06000018"}, {"id": "gp-w95029", "type": "gp", "name": "Meddygfa Glan Cynon Surge", "address": "Ty Calon Lan, Mountain Ash", "postcode": "CF45 3HD", "lat": 51.681159, "lng": -3.377433, "districtCode": "W06000016"}, {"id": "gp-w94024", "type": "gp", "name": "Meddygfa Gwydir", "address": "School Bank Road, Llanrwst", "postcode": "LL26 0AR", "lat": 53.139134, "lng": -3.792653, "districtCode": "W06000003"}, {"id": "gp-w94030", "type": "gp", "name": "Meddygfa Hafan", "address": "Doc Fictoria, Caernarfon", "postcode": "LL55 1TH", "lat": 53.14455, "lng": -4.275025}, {"id": "gp-w97031", "type": "gp", "name": "Meddygfa Lansdowne Surgery", "address": "Afon Elai Partnership, Cardiff", "postcode": "CF11 8DG", "lat": 51.480269, "lng": -3.217927, "districtCode": "W06000015"}, {"id": "gp-w92003", "type": "gp", "name": "Meddygfa Minafon", "address": "Hillfield Villas, Kidwelly", "postcode": "SA17 4UL", "lat": 51.736049, "lng": -4.312389, "districtCode": "W06000010"}, {"id": "gp-w92024", "type": "gp", "name": "Meddygfa Padarn Surgery", "address": "Penglais Road, Aberystwyth", "postcode": "SY23 3DU", "lat": 52.417804, "lng": -4.06886, "districtCode": "W06000008"}, {"id": "gp-w92051", "type": "gp", "name": "Meddygfa Penygroes", "address": "Bridge Street, Llanelli", "postcode": "SA14 7RP", "lat": 51.803379, "lng": -4.053273, "districtCode": "W06000010"}, {"id": "gp-w94025", "type": "gp", "name": "Meddygfa Rhydbach", "address": "Botwnnog, Pwllheli", "postcode": "LL53 8RE", "lat": 52.847969, "lng": -4.582481, "districtCode": "W06000002"}, {"id": "gp-w94633", "type": "gp", "name": "Meddygfa Star Surgery", "address": "Star, Gaerwen", "postcode": "LL60 6AH", "lat": 53.223752, "lng": -4.244616, "districtCode": "W06000001"}, {"id": "gp-w92023", "type": "gp", "name": "Meddygfa Taf", "address": "North Road, Whitland", "postcode": "SA34 0AT", "lat": 51.819895, "lng": -4.615048, "districtCode": "W06000010"}, {"id": "gp-w92034", "type": "gp", "name": "Meddygfa Teifi Surgery", "address": "New Road, Llandysul", "postcode": "SA44 4QJ", "lat": 52.040288, "lng": -4.309294, "districtCode": "W06000008"}, {"id": "gp-w92009", "type": "gp", "name": "Meddygfa Teilo", "address": "Crescent Road, Llandeilo", "postcode": "SA19 6HN", "lat": 51.883449, "lng": -3.990371, "districtCode": "W06000010"}, {"id": "gp-w92063", "type": "gp", "name": "Meddygfa Tywi", "address": "Station Road, Carmarthen", "postcode": "SA32 7LG", "lat": 51.869528, "lng": -4.189797, "districtCode": "W06000010"}, {"id": "gp-w92031", "type": "gp", "name": "Meddygfa Tywyn Bach", "address": "Parc Y Minos Street, Burry Port", "postcode": "SA16 0BN", "lat": 51.684895, "lng": -4.248106, "districtCode": "W06000010"}, {"id": "gp-w94038", "type": "gp", "name": "Meddygfa Victoria Surgery", "address": "Victoria Road, Holyhead", "postcode": "LL65 1UD", "lat": 53.311146, "lng": -4.632106, "districtCode": "W06000001"}, {"id": "gp-w92061", "type": "gp", "name": "Meddygfa Wdig", "address": "Main Street, Goodwick", "postcode": "SA64 0BN", "lat": 52.003831, "lng": -4.996668, "districtCode": "W06000009"}, {"id": "gp-w92014", "type": "gp", "name": "Meddygfa'R Llan", "address": "Church Surgery, Aberystwyth", "postcode": "SY23 2DX", "lat": 52.416488, "lng": -4.082828, "districtCode": "W06000008"}, {"id": "gp-w92013", "type": "gp", "name": "Meddygfa'R Sarn", "address": "12 Heol Y Meinciau, Llanelli", "postcode": "SA15 5TR", "lat": 51.75324, "lng": -4.217811, "districtCode": "W06000010"}, {"id": "gp-w92035", "type": "gp", "name": "Meddygfa'R Tymbl", "address": "Amman Tawe Partnership, Llanelli", "postcode": "SA14 6SU", "lat": 51.798856, "lng": -4.090995, "districtCode": "W06000010"}, {"id": "gp-w91057", "type": "gp", "name": "Middle Lane Surgery", "address": "Middle Lane, Denbigh", "postcode": "LL16 3UW", "lat": 53.185865, "lng": -3.416907, "districtCode": "W06000004"}, {"id": "gp-w94008", "type": "gp", "name": "Minfor Surgery", "address": "Park Road, Barmouth", "postcode": "LL42 1PL", "lat": 52.725605, "lng": -4.060092, "districtCode": "W06000002"}, {"id": "gp-w96001", "type": "gp", "name": "Montgomery Medical Practice", "address": "Well Street, Montgomery", "postcode": "SY15 6PF", "lat": 52.559361, "lng": -3.148241, "districtCode": "W06000023"}, {"id": "gp-w92616", "type": "gp", "name": "Morfa Lane Surgery", "address": "Meddygfa Parc, Carmarthen", "postcode": "SA31 3HB", "lat": 51.857747, "lng": -4.332945, "districtCode": "W06000010"}, {"id": "gp-w95086", "type": "gp", "name": "Morlais Medical Practice", "address": "Berry Square, Merthyr Tydfil", "postcode": "CF48 3AL", "lat": 51.762214, "lng": -3.357756, "districtCode": "W06000024"}, {"id": "gp-w94001", "type": "gp", "name": "Mostyn House Medical Practice", "address": "Mostyn Broadway, Llandudno", "postcode": "LL30 1YL", "lat": 53.322218, "lng": -3.82284, "districtCode": "W06000003"}, {"id": "gp-w93021", "type": "gp", "name": "Mount Pleasant Practice", "address": "Chepstow Community Hospital, Chepstow", "postcode": "NP16 5XR", "lat": 51.639296, "lng": -2.68619, "districtCode": "W06000021"}, {"id": "gp-w98031", "type": "gp", "name": "Mount Surgery", "address": "Margam Road, Port Talbot", "postcode": "SA13 2BN", "lat": 51.582124, "lng": -3.767099, "districtCode": "W06000012"}, {"id": "gp-w95049", "type": "gp", "name": "Nantgarw Road Medical Centre", "address": "4 Beddau Way, Caerphilly", "postcode": "CF83 2AX", "lat": 51.570564, "lng": -3.245636, "districtCode": "W06000018"}, {"id": "gp-w95645", "type": "gp", "name": "Nantymoel Surgery", "address": "Ogwy Street, Bridgend", "postcode": "CF32 7NA", "lat": 51.619621, "lng": -3.536819, "districtCode": "W06000013"}, {"id": "gp-w92038", "type": "gp", "name": "Narberth Surgery", "address": "Northfield Road, Narberth", "postcode": "SA67 7AA", "lat": 51.80052, "lng": -4.743824, "districtCode": "W06000009"}, {"id": "gp-w95043", "type": "gp", "name": "Nelson Surgery", "address": "Bryncelyn, Treharris", "postcode": "CF46 6HL", "lat": 51.650081, "lng": -3.291324, "districtCode": "W06000018"}, {"id": "gp-w93026", "type": "gp", "name": "New Chapel Street Surgery", "address": "Harold Street, Cwmbran", "postcode": "NP44 1DU", "lat": 51.660106, "lng": -3.02521, "districtCode": "W06000020"}, {"id": "gp-w92005", "type": "gp", "name": "New Quay Surgery", "address": "Church Road, New Quay", "postcode": "SA45 9PB", "lat": 52.213919, "lng": -4.362603, "districtCode": "W06000008"}, {"id": "gp-w95036", "type": "gp", "name": "Newpark Surgery", "address": "Talbot Green Group Practice, Pontyclun", "postcode": "CF72 8AJ", "lat": 51.536247, "lng": -3.383218, "districtCode": "W06000016"}, {"id": "gp-w92064", "type": "gp", "name": "Newport Surgery", "address": "Long Street, Newport", "postcode": "SA42 0TJ", "lat": 52.01765, "lng": -4.832615, "districtCode": "W06000009"}, {"id": "gp-w96015", "type": "gp", "name": "Newtown Medical Centre", "address": "Park Street, Newtown", "postcode": "SY16 1EF", "lat": 52.512198, "lng": -3.316578, "districtCode": "W06000023"}, {"id": "gp-w92440", "type": "gp", "name": "Neyland Surgery", "address": "Neyland Health Centre, Milford Haven", "postcode": "SA73 1SH", "lat": 51.706876, "lng": -4.948071, "districtCode": "W06000009"}, {"id": "gp-w98020", "type": "gp", "name": "Nicholl Street Medical Centre", "address": "Nicholl St Medical Centr, Swansea", "postcode": "SA1 4HF", "lat": 51.619646, "lng": -3.952395, "districtCode": "W06000011"}, {"id": "gp-w97015", "type": "gp", "name": "North Cardiff Medical Centre", "address": "Excalibur Drive, Cardiff", "postcode": "CF14 9BB", "lat": 51.537717, "lng": -3.194546, "districtCode": "W06000015"}, {"id": "gp-w93067", "type": "gp", "name": "North Celynen Practice", "address": "Crown Street, Newport", "postcode": "NP11 4PQ", "lat": 51.677417, "lng": -3.139873, "districtCode": "W06000018"}, {"id": "gp-w97020", "type": "gp", "name": "North Road Medical Practice", "address": "182 North Road, Cardiff", "postcode": "CF14 3XQ", "lat": 51.49981, "lng": -3.194245, "districtCode": "W06000015"}, {"id": "gp-w93024", "type": "gp", "name": "Oak Street Surgery", "address": "Oak Street, Cwmbran", "postcode": "NP44 3LT", "lat": 51.647145, "lng": -3.025582, "districtCode": "W06000020"}, {"id": "gp-w95010", "type": "gp", "name": "Oak Tree Surgery", "address": "Whitethorn Drive, Bridgend", "postcode": "CF31 2PQ", "lat": 51.50689, "lng": -3.55791, "districtCode": "W06000013"}, {"id": "gp-w95065", "type": "gp", "name": "Oakfield Surgery", "address": "Oakfield Street, Hengoed", "postcode": "CF82 7WX", "lat": 51.641705, "lng": -3.234837, "districtCode": "W06000018"}, {"id": "gp-w95067", "type": "gp", "name": "Ogmore Vale Surgery", "address": "Commercial Street, Bridgend", "postcode": "CF32 7BL", "lat": 51.603754, "lng": -3.54206, "districtCode": "W06000013"}, {"id": "gp-w95025", "type": "gp", "name": "Old School Surgery", "address": "School Street, Pontyclun", "postcode": "CF72 9AA", "lat": 51.524444, "lng": -3.391249, "districtCode": "W06000016"}, {"id": "gp-w93033", "type": "gp", "name": "Old Station Surgery", "address": "39 Brecon Road, Abergavenny", "postcode": "NP7 5AQ", "lat": 51.825398, "lng": -3.02504, "districtCode": "W06000021"}, {"id": "gp-w93031", "type": "gp", "name": "Panteg Health Centre", "address": "Kemys Street, Pontypool", "postcode": "NP4 5DJ", "lat": 51.684248, "lng": -3.02519, "districtCode": "W06000020"}, {"id": "gp-w95011", "type": "gp", "name": "Parc Canol Surgery", "address": "Central Park, Pontypridd", "postcode": "CF38 1RJ", "lat": 51.567928, "lng": -3.318139, "districtCode": "W06000016"}, {"id": "gp-w94006", "type": "gp", "name": "Parc Glas", "address": "Bethel, Bodorgan", "postcode": "LL62 5NL", "lat": 53.207125, "lng": -4.402803, "districtCode": "W06000001"}, {"id": "gp-w91028", "type": "gp", "name": "Park House Surgery", "address": "26 Nant Hall Road, Prestatyn", "postcode": "LL19 9LN", "lat": 53.335341, "lng": -3.399796, "districtCode": "W06000004"}, {"id": "gp-w95044", "type": "gp", "name": "Park Lane Surgery", "address": "Park Lane, Porth", "postcode": "CF39 8AG", "lat": 51.578196, "lng": -3.433372, "districtCode": "W06000016"}, {"id": "gp-w93040", "type": "gp", "name": "Park Surgery", "address": "19 Hills Health & Wellbeing Centre, Newport", "postcode": "NP19 9PS", "lat": 51.593785, "lng": -2.933357, "districtCode": "W06000022"}, {"id": "gp-w91023", "type": "gp", "name": "Pen Y Bont Surgery", "address": "The Roe, St. Asaph", "postcode": "LL17 0LU", "lat": 53.258178, "lng": -3.449894, "districtCode": "W06000004"}, {"id": "gp-w91006", "type": "gp", "name": "Pen Y Maes Health Centre", "address": "Beech Street, Wrexham", "postcode": "LL11 4UF", "lat": 53.077963, "lng": -3.02854, "districtCode": "W06000006"}, {"id": "gp-w93623", "type": "gp", "name": "Pen-Y-Cae Surgery", "address": "The Health Centre, Ebbw Vale", "postcode": "NP23 6EY", "lat": 51.783768, "lng": -3.208644, "districtCode": "W06000019"}, {"id": "gp-w93614", "type": "gp", "name": "Pengam Health Centre", "address": "Glan-Yr-Afon Lane, Blackwood", "postcode": "NP12 3WA", "lat": 51.666187, "lng": -3.225641, "districtCode": "W06000018"}, {"id": "gp-w96002", "type": "gp", "name": "Pengorof Surgery", "address": "Gorof Road, Swansea", "postcode": "SA9 1DS", "lat": 51.775799, "lng": -3.765407, "districtCode": "W06000023"}, {"id": "gp-w95057", "type": "gp", "name": "Penygraig Surgery", "address": "George Street, Tonypandy", "postcode": "CF40 1QN", "lat": 51.611838, "lng": -3.446317, "districtCode": "W06000016"}, {"id": "gp-w91002", "type": "gp", "name": "Plas Meddyg", "address": "Station Road, Ruthin", "postcode": "LL15 1BP", "lat": 53.114636, "lng": -3.307315, "districtCode": "W06000004"}, {"id": "gp-w94003", "type": "gp", "name": "Plas Menai Surgery", "address": "Penmaenmawr Road, Llanfairfechan", "postcode": "LL33 0PE", "lat": 53.256301, "lng": -3.976385, "districtCode": "W06000003"}, {"id": "gp-w91022", "type": "gp", "name": "Plas Y Bryn Medical Centre", "address": "Chapel Street, Wrexham", "postcode": "LL13 7DE", "lat": 53.042888, "lng": -2.995516, "districtCode": "W06000006"}, {"id": "gp-w95004", "type": "gp", "name": "Pont Newydd Medical Centre", "address": "Aberrhondda Road, Porth", "postcode": "CF39 0LD", "lat": 51.614856, "lng": -3.41104, "districtCode": "W06000016"}, {"id": "gp-w98001", "type": "gp", "name": "Pontardawe Primary Care Centre", "address": "Tawe Terrace, Swansea", "postcode": "SA8 4JU", "lat": 51.719565, "lng": -3.847099, "districtCode": "W06000012"}, {"id": "gp-w95072", "type": "gp", "name": "Pontcae Medical Practice", "address": "Dynevor Street, Merthyr Tydfil", "postcode": "CF48 1YE", "lat": 51.746307, "lng": -3.384077, "districtCode": "W06000024"}, {"id": "gp-w93012", "type": "gp", "name": "Pontllanfraith Health Centre", "address": "Riverside Medical Practic, Blackwood", "postcode": "NP12 2YU", "lat": 51.656042, "lng": -3.189153, "districtCode": "W06000018"}, {"id": "gp-w93058", "type": "gp", "name": "Pontypool Medical Centre", "address": "Off Town Bridge Pontypool, Pontypool", "postcode": "NP4 6DH", "lat": 51.705304, "lng": -3.042757, "districtCode": "W06000020"}, {"id": "gp-w95041", "type": "gp", "name": "Porthcawl Medical", "address": "Porthcawl Medical Centre, Porthcawl", "postcode": "CF36 5DJ", "lat": 51.485312, "lng": -3.686413, "districtCode": "W06000013"}, {"id": "gp-w95023", "type": "gp", "name": "Practice 1", "address": "Keir Hardie Health Park, Merthyr Tydfil", "postcode": "CF48 1BZ", "lat": 51.746377, "lng": -3.389584, "districtCode": "W06000024"}, {"id": "gp-w95647", "type": "gp", "name": "Practice 2", "address": "Keir Hardie Health Park, Merthyr Tydfil", "postcode": "CF48 1BZ", "lat": 51.746377, "lng": -3.389584, "districtCode": "W06000024"}, {"id": "gp-w95005", "type": "gp", "name": "Practice 3 Keir Hardie He", "address": "Keir Hardie Health Park, Merthyr Tydfil", "postcode": "CF48 1BZ", "lat": 51.746377, "lng": -3.389584, "districtCode": "W06000024"}, {"id": "gp-w96438", "type": "gp", "name": "Presteigne Medical Practice", "address": "Lugg View, Presteigne", "postcode": "LD8 2RJ", "lat": 52.272242, "lng": -3.002571, "districtCode": "W06000023"}, {"id": "gp-w00209", "type": "gp", "name": "Primary Care Cs", "address": "Eryldon, Caernarfon", "postcode": "LL55 1HU", "lat": 53.146262, "lng": -4.266308, "districtCode": "W06000002"}, {"id": "gp-w98008", "type": "gp", "name": "Princess Street Surgery", "address": "Princess Street, Swansea", "postcode": "SA4 4US", "lat": 51.670701, "lng": -4.045574, "districtCode": "W06000011"}, {"id": "gp-w98040", "type": "gp", "name": "Quays Medical Practice", "address": "Briton Ferry Health Centre, Neath", "postcode": "SA11 2FP", "lat": 51.623507, "lng": -3.827636, "districtCode": "W06000012"}, {"id": "gp-w97024", "type": "gp", "name": "Radyr Medical Centre", "address": "Rectory Close, Cardiff", "postcode": "CF15 8EW", "lat": 51.513858, "lng": -3.252575, "districtCode": "W06000015"}, {"id": "gp-w97046", "type": "gp", "name": "Ravenscourt Surgery", "address": "Vale Group Practice, Barry", "postcode": "CF62 8AZ", "lat": 51.407723, "lng": -3.268494, "districtCode": "W06000014"}, {"id": "gp-w97003", "type": "gp", "name": "Redlands Surgery", "address": "Redlands Road, Penarth", "postcode": "CF64 3WX", "lat": 51.434506, "lng": -3.186614, "districtCode": "W06000014"}, {"id": "gp-w96006", "type": "gp", "name": "Rhayader Group Practice", "address": "Caeherbert Lane, Rhayader", "postcode": "LD6 5ED", "lat": 52.301033, "lng": -3.508091, "districtCode": "W06000023"}, {"id": "gp-w93043", "type": "gp", "name": "Richmond Clinic", "address": "172 Caerleon Road, Newport", "postcode": "NP19 7FY", "lat": 51.597016, "lng": -2.981471, "districtCode": "W06000022"}, {"id": "gp-w00201", "type": "gp", "name": "Rimon Than Medical Facili", "address": "Valley, Holyhead", "postcode": "LL65 3NY", "lat": 53.254273, "lng": -4.533946, "districtCode": "W06000001"}, {"id": "gp-w93047", "type": "gp", "name": "Ringland Medical Practice", "address": "19Hills Health & Wellbein, Newport", "postcode": "NP19 9PS", "lat": 51.593785, "lng": -2.933357, "districtCode": "W06000022"}, {"id": "gp-w93064", "type": "gp", "name": "Risca Surgery", "address": "St. Mary Street, Newport", "postcode": "NP11 6YS", "lat": 51.615228, "lng": -3.107378, "districtCode": "W06000018"}, {"id": "gp-w95035", "type": "gp", "name": "Riversdale House", "address": "Merthyrmawr Road, Bridgend", "postcode": "CF31 3NL", "lat": 51.503674, "lng": -3.579198, "districtCode": "W06000013"}, {"id": "gp-w98035", "type": "gp", "name": "Riverside Surgery", "address": "Port Talbot Resource Centre, Port Talbot", "postcode": "SA12 7BJ", "lat": 51.6061, "lng": -3.809478, "districtCode": "W06000012"}, {"id": "gp-w97034", "type": "gp", "name": "Roath House Surgery", "address": "100 Pen-Y-Lan Road, Cardiff", "postcode": "CF23 5RH", "lat": 51.497888, "lng": -3.162659, "districtCode": "W06000015"}, {"id": "gp-w97002", "type": "gp", "name": "Roathwell Surgery", "address": "116 Newport Road, Cardiff", "postcode": "CF24 1YT", "lat": 51.487966, "lng": -3.158576, "districtCode": "W06000015"}, {"id": "gp-w97027", "type": "gp", "name": "Rumney Primary Care Centre", "address": "Barmouth Road, Cardiff", "postcode": "CF3 3LG", "lat": 51.506479, "lng": -3.125473, "districtCode": "W06000015"}, {"id": "gp-w95062", "type": "gp", "name": "Saint Andrews Surgery", "address": "1 De Winton Street, Tonypandy", "postcode": "CF40 2QZ", "lat": 51.624885, "lng": -3.457264, "districtCode": "W06000016"}, {"id": "gp-w92002", "type": "gp", "name": "Saint Thomas Surgery", "address": "Rifleman Lane, Haverfordwest", "postcode": "SA61 1QX", "lat": 51.79822, "lng": -4.970506, "districtCode": "W06000009"}, {"id": "gp-w92033", "type": "gp", "name": "Saundersfoot Medical Centre", "address": "Westfield Road, Saundersfoot", "postcode": "SA69 9JW", "lat": 51.711767, "lng": -4.704079, "districtCode": "W06000009"}, {"id": "gp-w91632", "type": "gp", "name": "Seabank Surgery", "address": "4-6 Rhodfa Wyn, Prestatyn", "postcode": "LL19 7UN", "lat": 53.336364, "lng": -3.427283, "districtCode": "W06000004"}, {"id": "gp-w93009", "type": "gp", "name": "Six Bells Medical Centre", "address": "Aberbeeg Medical Centre, Abertillery", "postcode": "NP13 2AB", "lat": 51.710454, "lng": -3.145292, "districtCode": "W06000019"}, {"id": "gp-w98021", "type": "gp", "name": "Sketty & Killay Medical Centre", "address": "Sketty Surgery, Swansea", "postcode": "SA2 9EA", "lat": 51.616642, "lng": -3.985086, "districtCode": "W06000011"}, {"id": "gp-w98010", "type": "gp", "name": "Skewen Medical Centre", "address": "Queens Road, Neath", "postcode": "SA10 6UH", "lat": 51.659813, "lng": -3.84007, "districtCode": "W06000012"}, {"id": "gp-w92059", "type": "gp", "name": "Solva Surgery", "address": "Meddygfa Penrhyn, Haverfordwest", "postcode": "SA62 6TW", "lat": 51.873913, "lng": -5.199148, "districtCode": "W06000009"}, {"id": "gp-w95078", "type": "gp", "name": "South Street Surgery", "address": "South Street, Bargoed", "postcode": "CF81 8SU", "lat": 51.690051, "lng": -3.232536, "districtCode": "W06000018"}, {"id": "gp-w00198", "type": "gp", "name": "St Athan Medical Facility", "address": "St Athan Medical Facilty, Barry", "postcode": "CF62 4WA", "lat": 51.411779, "lng": -3.418311, "districtCode": "W06000014"}, {"id": "gp-w93054", "type": "gp", "name": "St David'S Clinic", "address": "Belle Vue Terrace, Newport", "postcode": "NP20 2LB", "lat": 51.577012, "lng": -2.996077, "districtCode": "W06000022"}, {"id": "gp-w91030", "type": "gp", "name": "St George'S Crescent Surgery", "address": "40 St. Georges Crescent, Wrexham", "postcode": "LL13 8DB", "lat": 53.045458, "lng": -2.989206, "districtCode": "W06000006"}, {"id": "gp-w95001", "type": "gp", "name": "St John'S Medical Practice", "address": "High Street, Aberdare", "postcode": "CF44 7DD", "lat": 51.714131, "lng": -3.447755, "districtCode": "W06000016"}, {"id": "gp-w93049", "type": "gp", "name": "St Julians Medical Centre", "address": "13A Stafford Road, Newport", "postcode": "NP19 7DQ", "lat": 51.599232, "lng": -2.982082, "districtCode": "W06000022"}, {"id": "gp-w92050", "type": "gp", "name": "St Peter'S Surgery", "address": "St. Peters Surgery, Carmarthen", "postcode": "SA31 1AH", "lat": 51.860007, "lng": -4.303579, "districtCode": "W06000010"}, {"id": "gp-w97065", "type": "gp", "name": "St. Davids Medical Centre", "address": "Pontprennau Medical Centr, Cardiff", "postcode": "CF23 7SD", "lat": 51.525179, "lng": -3.146173, "districtCode": "W06000015"}, {"id": "gp-w97053", "type": "gp", "name": "St. Isan Road Surgery", "address": "46 St. Isan Road, Cardiff", "postcode": "CF14 4UU", "lat": 51.517294, "lng": -3.190407, "districtCode": "W06000015"}, {"id": "gp-w93001", "type": "gp", "name": "St. Luke'S Surgery", "address": "St Lukes Surgery, Newport", "postcode": "NP11 5GX", "lat": 51.648052, "lng": -3.132301, "districtCode": "W06000018"}, {"id": "gp-w93039", "type": "gp", "name": "St. Paul'S Clinic", "address": "Palmyra Place, Newport", "postcode": "NP20 4EJ", "lat": 51.583352, "lng": -2.99382, "districtCode": "W06000022"}, {"id": "gp-w98016", "type": "gp", "name": "St. Thomas Surgery", "address": "Ysgol Street, Swansea", "postcode": "SA1 8LH", "lat": 51.620911, "lng": -3.916001, "districtCode": "W06000011"}, {"id": "gp-w97011", "type": "gp", "name": "Stanwell Surgery", "address": "Penarth Healthcare Partnership, Penarth", "postcode": "CF64 3XE", "lat": 51.43469, "lng": -3.182677, "districtCode": "W06000014"}, {"id": "gp-w91004", "type": "gp", "name": "Strathmore Medical Practice", "address": "26-28 Chester Road, Wrexham", "postcode": "LL11 2SA", "lat": 53.05149, "lng": -2.991373, "districtCode": "W06000006"}, {"id": "gp-w98044", "type": "gp", "name": "Strawberry Place Surgery", "address": "5 Strawberry Place, Swansea", "postcode": "SA6 7AQ", "lat": 51.666103, "lng": -3.9267, "districtCode": "W06000011"}, {"id": "gp-w97062", "type": "gp", "name": "Sully Surgery", "address": "25 South Road, Penarth", "postcode": "CF64 5TG", "lat": 51.406863, "lng": -3.219097, "districtCode": "W06000014"}, {"id": "gp-w93014", "type": "gp", "name": "Sunnybank Health Centre", "address": "Bryn Road, Blackwood", "postcode": "NP12 3NA", "lat": 51.669643, "lng": -3.207962, "districtCode": "W06000018"}, {"id": "gp-w98048", "type": "gp", "name": "Tabernacle Surgery", "address": "4 Tabernacle Street, Neath", "postcode": "SA10 6UF", "lat": 51.66, "lng": -3.841306, "districtCode": "W06000012"}, {"id": "gp-w97016", "type": "gp", "name": "Taff Riverside Practice", "address": "Wellington Street, Cardiff", "postcode": "CF11 9SH", "lat": 51.48067, "lng": -3.195588, "districtCode": "W06000015"}, {"id": "gp-w95058", "type": "gp", "name": "Taff Vale Practice", "address": "Dyffryn Road, Pontypridd", "postcode": "CF37 5RW", "lat": 51.586859, "lng": -3.313044, "districtCode": "W06000016"}, {"id": "gp-w98013", "type": "gp", "name": "Talybont Surgery", "address": "Station Road, Swansea", "postcode": "SA4 8TJ", "lat": 51.716532, "lng": -4.045357, "districtCode": "W06000011"}, {"id": "gp-w92022", "type": "gp", "name": "Tanyfron Surgery", "address": "Aberaeron Integrated Care, Aberaeron", "postcode": "SA46 0DY", "lat": 52.236733, "lng": -4.258784, "districtCode": "W06000008"}, {"id": "gp-w92027", "type": "gp", "name": "Tenby Surgery", "address": "The Norton, Tenby", "postcode": "SA70 8AG", "lat": 51.677206, "lng": -4.702439, "districtCode": "W06000009"}, {"id": "gp-w96005", "type": "gp", "name": "The Arwystli Medical Practice", "address": "Mount Lane, Llanidloes", "postcode": "SY18 6EZ", "lat": 52.44744, "lng": -3.540324, "districtCode": "W06000023"}, {"id": "gp-w95024", "type": "gp", "name": "The Ashgrove Surgery", "address": "Morgan Street, Pontypridd", "postcode": "CF37 2DR", "lat": 51.60492, "lng": -3.340466, "districtCode": "W06000016"}, {"id": "gp-w98057", "type": "gp", "name": "The Beacon Centre For Health", "address": "Sa1 Medical Centre, Swansea", "postcode": "SA1 8QY", "lat": 51.620582, "lng": -3.924568, "districtCode": "W06000011"}, {"id": "gp-w97068", "type": "gp", "name": "The Caerau Lane Surgery", "address": "Greenmount Surgery, Cardiff", "postcode": "CF5 5LQ", "lat": 51.470637, "lng": -3.247158, "districtCode": "W06000015"}, {"id": "gp-w97056", "type": "gp", "name": "The City Surgery", "address": "187 City Road, Cardiff", "postcode": "CF24 3WD", "lat": 51.490892, "lng": -3.170807, "districtCode": "W06000015"}, {"id": "gp-w91034", "type": "gp", "name": "The Clinic", "address": "Ruthin Community Hospital, Ruthin", "postcode": "LL15 1PS", "lat": 53.113031, "lng": -3.302814, "districtCode": "W06000004"}, {"id": "gp-w98023", "type": "gp", "name": "The Grove Medical Centre", "address": "6 Uplands Terrace, Swansea", "postcode": "SA2 0GU", "lat": 51.619069, "lng": -3.965921, "districtCode": "W06000011"}, {"id": "gp-w91047", "type": "gp", "name": "The Health Centre", "address": "Corwen Family Practice, Corwen", "postcode": "LL21 0DN", "lat": 52.98133, "lng": -3.37325, "districtCode": "W06000004"}, {"id": "gp-w91056", "type": "gp", "name": "The Health Centre", "address": "Coedpoeth Health Centre, Wrexham", "postcode": "LL11 3NS", "lat": 53.052675, "lng": -3.066294, "districtCode": "W06000006"}, {"id": "gp-w91059", "type": "gp", "name": "The Health Centre", "address": "Beech Avenue Practice, Wrexham", "postcode": "LL14 1AA", "lat": 53.010476, "lng": -3.057383, "districtCode": "W06000006"}, {"id": "gp-w94009", "type": "gp", "name": "The Health Centre", "address": "Beaumaris Library, Beaumaris", "postcode": "LL58 8AL", "lat": 53.264186, "lng": -4.091744, "districtCode": "W06000001"}, {"id": "gp-w94015", "type": "gp", "name": "The Health Centre", "address": "Dwyran, Llanfairpwllgwyngyll", "postcode": "LL61 6YD", "lat": 53.167133, "lng": -4.319384, "districtCode": "W06000001"}, {"id": "gp-w94021", "type": "gp", "name": "The Health Centre", "address": "Hwb Iechyd Eifionydd, Criccieth", "postcode": "LL52 0RR", "lat": 52.918448, "lng": -4.240585, "districtCode": "W06000002"}, {"id": "gp-w98017", "type": "gp", "name": "The Health Centre", "address": "Waun Avenue, Port Talbot", "postcode": "SA13 3DP", "lat": 51.677869, "lng": -3.628799, "districtCode": "W06000012"}, {"id": "gp-w95051", "type": "gp", "name": "The Maerdy Ferndale Mgp", "address": "Ferndale Medical Centre, Ferndale", "postcode": "CF43 4XX", "lat": 51.662176, "lng": -3.448426, "districtCode": "W06000016"}, {"id": "gp-w91043", "type": "gp", "name": "The Medical Centre", "address": "Ruabon Medical Centre, Wrexham", "postcode": "LL14 6NH", "lat": 52.987561, "lng": -3.039171, "districtCode": "W06000006"}, {"id": "gp-w94018", "type": "gp", "name": "The Medical Centre", "address": "Penrhyn Bay Surgery, Llandudno", "postcode": "LL30 3EU", "lat": 53.31544, "lng": -3.77756, "districtCode": "W06000003"}, {"id": "gp-w95018", "type": "gp", "name": "The Medical Centre", "address": "Heol-Yr-Onnen, Bridgend", "postcode": "CF35 5PF", "lat": 51.522213, "lng": -3.498626, "districtCode": "W06000013"}, {"id": "gp-w95060", "type": "gp", "name": "The Medical Centre", "address": "Taffs Well Medical Centre, Cardiff", "postcode": "CF15 7YG", "lat": 51.543848, "lng": -3.267488, "districtCode": "W06000016"}, {"id": "gp-w98033", "type": "gp", "name": "The Mumbles Medical Practice", "address": "10 West Cross Avenue, Swansea", "postcode": "SA3 5UA", "lat": 51.58089, "lng": -4.0045, "districtCode": "W06000011"}, {"id": "gp-w95017", "type": "gp", "name": "The New Surgery", "address": "New Surgery Primary Care Centre, Bridgend", "postcode": "CF35 6YP", "lat": 51.525608, "lng": -3.503913, "districtCode": "W06000013"}, {"id": "gp-w97033", "type": "gp", "name": "The Penylan Surgery", "address": "74 Pen-Y-Lan Road, Cardiff", "postcode": "CF23 5SY", "lat": 51.496552, "lng": -3.164123, "districtCode": "W06000015"}, {"id": "gp-w00206", "type": "gp", "name": "The Pharmacy", "address": "Llanbedrog, Pwllheli", "postcode": "LL53 7TH", "lat": 52.857268, "lng": -4.48426, "districtCode": "W06000002"}, {"id": "gp-w97611", "type": "gp", "name": "The Practice Of Health", "address": "31 Barry Road, Barry", "postcode": "CF63 1BA", "lat": 51.413568, "lng": -3.25767, "districtCode": "W06000014"}, {"id": "gp-w92041", "type": "gp", "name": "The Robert Street Surgery", "address": "Manchester Square, Milford Haven", "postcode": "SA73 2JW", "lat": 51.713959, "lng": -5.034392, "districtCode": "W06000009"}, {"id": "gp-w93061", "type": "gp", "name": "The Rogerstone Practice", "address": "Chapelwood Primary Care Centre, Newport", "postcode": "NP10 9DU", "lat": 51.582283, "lng": -3.041468, "districtCode": "W06000022"}, {"id": "gp-w93044", "type": "gp", "name": "The Rugby Surgery", "address": "1 Kelvedon Street, Newport", "postcode": "NP19 0DW", "lat": 51.584399, "lng": -2.978442, "districtCode": "W06000022"}, {"id": "gp-w91019", "type": "gp", "name": "The Surgery", "address": "Gardden Road Surgery, Wrexham", "postcode": "LL14 2EN", "lat": 53.008737, "lng": -3.049785, "districtCode": "W06000006"}, {"id": "gp-w91604", "type": "gp", "name": "The Surgery", "address": "Sandy Lane, Whitchurch", "postcode": "SY13 3DL", "lat": 52.944705, "lng": -2.832995, "districtCode": "W06000006"}, {"id": "gp-w93057", "type": "gp", "name": "The Surgery", "address": "Abersychan Group Practice, Pontypool", "postcode": "NP4 7BH", "lat": 51.723096, "lng": -3.058108, "districtCode": "W06000020"}, {"id": "gp-w94017", "type": "gp", "name": "The Surgery", "address": "Llanberis Surgery, Caernarfon", "postcode": "LL55 4SU", "lat": 53.118557, "lng": -4.125224, "districtCode": "W06000002"}, {"id": "gp-w94036", "type": "gp", "name": "The Surgery", "address": "Springfield Street, Dolgellau", "postcode": "LL40 1LY", "lat": 52.741431, "lng": -3.88597, "districtCode": "W06000002"}, {"id": "gp-w94043", "type": "gp", "name": "The Surgery", "address": "Gwalchmai, Holyhead", "postcode": "LL65 4RS", "lat": 53.255605, "lng": -4.410827, "districtCode": "W06000001"}, {"id": "gp-w95030", "type": "gp", "name": "The Surgery", "address": "St David Street, Pentre", "postcode": "CF41 7BD", "lat": 51.644402, "lng": -3.488414, "districtCode": "W06000016"}, {"id": "gp-w95034", "type": "gp", "name": "The Surgery", "address": "Waun Bant Road, Bridgend", "postcode": "CF33 6DE", "lat": 51.531276, "lng": -3.679272, "districtCode": "W06000013"}, {"id": "gp-w97018", "type": "gp", "name": "The Surgery", "address": "St Davids Court, Cardiff", "postcode": "CF11 9DN", "lat": 51.481489, "lng": -3.19548, "districtCode": "W06000015"}, {"id": "gp-w93037", "type": "gp", "name": "The Surgery James House", "address": "Maryport Street, Usk", "postcode": "NP15 1AB", "lat": 51.7028, "lng": -2.90333, "districtCode": "W06000021"}, {"id": "gp-w95073", "type": "gp", "name": "The Village Surgery", "address": "Llanbradach Centre For Health, Caerphilly", "postcode": "CF83 3LR", "lat": 51.605879, "lng": -3.231584, "districtCode": "W06000018"}, {"id": "gp-w97032", "type": "gp", "name": "The Waterfront Medical Centre", "address": "Waterfront Medical Centre, Barry", "postcode": "CF63 4AR", "lat": 51.40186, "lng": -3.26767, "districtCode": "W06000014"}, {"id": "gp-w93022", "type": "gp", "name": "Town Gate Practice", "address": "Chepstow Community Hospital, Chepstow", "postcode": "NP16 5XP", "lat": 51.639296, "lng": -2.68619, "districtCode": "W06000021"}, {"id": "gp-w94011", "type": "gp", "name": "Treflan", "address": "Lower Cardiff Road, Pwllheli", "postcode": "LL53 5NF", "lat": 52.886794, "lng": -4.420884, "districtCode": "W06000002"}, {"id": "gp-w92053", "type": "gp", "name": "Tregaron Surgery", "address": "Salop House, Tregaron", "postcode": "SY25 6HA", "lat": 52.219617, "lng": -3.934698, "districtCode": "W06000008"}, {"id": "gp-w95032", "type": "gp", "name": "Treharris Primary Care Centre", "address": "Fox Street, Treharris", "postcode": "CF46 5HE", "lat": 51.665794, "lng": -3.303253, "districtCode": "W06000024"}, {"id": "gp-w93055", "type": "gp", "name": "Trosnant Lodge", "address": "Trosnant Street, Pontypool", "postcode": "NP4 8AT", "lat": 51.69987, "lng": -3.037047, "districtCode": "W06000020"}, {"id": "gp-w93004", "type": "gp", "name": "Tudor Gate Surgery", "address": "Tudor Street, Abergavenny", "postcode": "NP7 5DL", "lat": 51.821764, "lng": -3.023202, "districtCode": "W06000021"}, {"id": "gp-w95008", "type": "gp", "name": "Ty Bryn Surgery", "address": "The Bryn, Caerphilly", "postcode": "CF83 8GL", "lat": 51.593635, "lng": -3.190324, "districtCode": "W06000018"}, {"id": "gp-w94037", "type": "gp", "name": "Ty Doctor Isfryn", "address": "Ty Doctor, Pwllheli", "postcode": "LL53 6EG", "lat": 52.934707, "lng": -4.527983, "districtCode": "W06000002"}, {"id": "gp-w92052", "type": "gp", "name": "Ty Elli Group Practice", "address": "Vauxhall, Llanelli", "postcode": "SA15 3BD", "lat": 51.683177, "lng": -4.163838, "districtCode": "W06000010"}, {"id": "gp-w96003", "type": "gp", "name": "Ty Henry Vaughan", "address": "Bridge Street, Brecon", "postcode": "LD3 8AH", "lat": 51.947251, "lng": -3.39558, "districtCode": "W06000023"}, {"id": "gp-w98034", "type": "gp", "name": "Ty'R Felin Surgery", "address": "Cecil Road, Swansea", "postcode": "SA4 4BY", "lat": 51.670989, "lng": -4.03785, "districtCode": "W06000011"}, {"id": "gp-w95019", "type": "gp", "name": "Tylorstown Surgery", "address": "Ferndale Road, Ferndale", "postcode": "CF43 3HB", "lat": 51.641631, "lng": -3.432899, "districtCode": "W06000016"}, {"id": "gp-w95037", "type": "gp", "name": "Tynycoed Surgery", "address": "20 Merfield Close, Bridgend", "postcode": "CF32 9SW", "lat": 51.541523, "lng": -3.583176, "districtCode": "W06000013"}, {"id": "gp-w94007", "type": "gp", "name": "Tywyn Health", "address": "Tywyn Health Centre, Tywyn", "postcode": "LL36 9HL", "lat": 52.582641, "lng": -4.080866, "districtCode": "W06000002"}, {"id": "gp-w93125", "type": "gp", "name": "Underwood Health Centre", "address": "81 Birch Grove, Newport", "postcode": "NP18 2JB", "lat": 51.597496, "lng": -2.888432, "districtCode": "W06000022"}, {"id": "gp-w98053", "type": "gp", "name": "University Health Centre", "address": "Penmaen Residences, Swansea", "postcode": "SA2 8PG", "lat": 51.610264, "lng": -3.980994, "districtCode": "W06000011"}, {"id": "gp-w00190", "type": "gp", "name": "Upcc At Healthy Prestatyn", "address": "Ty Nant, Prestatyn", "postcode": "LL19 9LG", "lat": 53.334544, "lng": -3.402623, "districtCode": "W06000004"}, {"id": "gp-w00192", "type": "gp", "name": "Upcc At Ysbyty Alltwen", "address": "Tremadog, Porthmadog", "postcode": "LL49 9AQ", "lat": 52.940613, "lng": -4.149441, "districtCode": "W06000002"}, {"id": "gp-w00191", "type": "gp", "name": "Upcc At Ysbyty Gwynedd", "address": "Upcc At Ysbyty Gwynedo, Bangor", "postcode": "LL57 2PW", "lat": 53.209036, "lng": -4.159831, "districtCode": "W06000002"}, {"id": "gp-w00193", "type": "gp", "name": "Upcc At Ysbyty Penrhos St", "address": "Ysbyty Penrhos Stanley, Holyhead", "postcode": "LL65 2QA", "lat": 53.304383, "lng": -4.615854, "districtCode": "W06000001"}, {"id": "gp-w98049", "type": "gp", "name": "Uplands & Mumbles Surgery", "address": "46-48 Sketty Road, Swansea", "postcode": "SA2 0LJ", "lat": 51.618364, "lng": -3.970412, "districtCode": "W06000011"}, {"id": "gp-y02495", "type": "gp", "name": "Urgent Treatment Centre", "address": "Mytton Oak Road, Shrewsbury", "postcode": "SY3 8XQ", "lat": 52.709274, "lng": -2.793689, "districtCode": "E06000051"}, {"id": "gp-w00065", "type": "gp", "name": "Uwchaled Medical Practice", "address": "Meddygfa, Corwen", "postcode": "LL21 9UB", "lat": 53.024667, "lng": -3.553907, "districtCode": "W06000003"}, {"id": "gp-w98046", "type": "gp", "name": "Vale Of Neath Practice", "address": "Vale Of Neath Medical Centre, Neath", "postcode": "SA11 5AT", "lat": 51.739721, "lng": -3.641407, "districtCode": "W06000012"}, {"id": "gp-w93020", "type": "gp", "name": "Vauxhall Surgery", "address": "Vauxhall Lane, Chepstow", "postcode": "NP16 5PZ", "lat": 51.639074, "lng": -2.681172, "districtCode": "W06000021"}, {"id": "gp-w98036", "type": "gp", "name": "Victoria Gardens Surgery", "address": "Victoria Gardens, Neath", "postcode": "SA11 1HW", "lat": 51.660929, "lng": -3.80349, "districtCode": "W06000012"}, {"id": "gp-w96016", "type": "gp", "name": "War Memorial Health Centre", "address": "Beaufort Street, Crickhowell", "postcode": "NP8 1AG", "lat": 51.857266, "lng": -3.134495, "districtCode": "W06000023"}, {"id": "gp-w00144", "type": "gp", "name": "Waterside Medical Practice", "address": "Briton Ferry Health Centr, Neath", "postcode": "SA11 2FP", "lat": 51.623507, "lng": -3.827636, "districtCode": "W06000012"}, {"id": "gp-w93059", "type": "gp", "name": "Wellspring Medical Centre", "address": "Park Road, Newport", "postcode": "NP11 6BJ", "lat": 51.606618, "lng": -3.095442, "districtCode": "W06000018"}, {"id": "gp-w96010", "type": "gp", "name": "Welshpool Medical Centre", "address": "Salop Road, Welshpool", "postcode": "SY21 7ER", "lat": 52.662558, "lng": -3.140015, "districtCode": "W06000023"}, {"id": "gp-w91048", "type": "gp", "name": "West End Medical Centre", "address": "Conway Road, Colwyn Bay", "postcode": "LL29 7LS", "lat": 53.299649, "lng": -3.740649, "districtCode": "W06000003"}, {"id": "gp-w97001", "type": "gp", "name": "West Quay Medical Centre", "address": "Hood Road, Barry", "postcode": "CF62 5QN", "lat": 51.399702, "lng": -3.279255, "districtCode": "W06000014"}, {"id": "gp-w94622", "type": "gp", "name": "West Shore Surgery", "address": "9 Bryniau Road, Llandudno", "postcode": "LL30 2BL", "lat": 53.318167, "lng": -3.840759, "districtCode": "W06000003"}, {"id": "gp-w97052", "type": "gp", "name": "Western Vale Family Practice", "address": "The Broadshoard, Cowbridge", "postcode": "CF71 7DA", "lat": 51.463998, "lng": -3.453472, "districtCode": "W06000014"}, {"id": "gp-w93045", "type": "gp", "name": "Westfield Medical Centre", "address": "Westfield Avenue, Newport", "postcode": "NP20 6EY", "lat": 51.610968, "lng": -3.006323, "districtCode": "W06000022"}, {"id": "gp-w97025", "type": "gp", "name": "Whitchurch Road Surgery", "address": "Sachville Avenue, Cardiff", "postcode": "CF14 3NY", "lat": 51.503893, "lng": -3.191571, "districtCode": "W06000015"}, {"id": "gp-w97294", "type": "gp", "name": "Whitchurch Village Practice", "address": "Whitchurch Medical Centre, Cardiff", "postcode": "CF14 7BP", "lat": 51.517502, "lng": -3.227742, "districtCode": "W06000015"}, {"id": "gp-w97069", "type": "gp", "name": "Willowbrook Surgery", "address": "5 Strathy Road, Cardiff", "postcode": "CF3 0SH", "lat": 51.524678, "lng": -3.091283, "districtCode": "W06000015"}, {"id": "gp-w92042", "type": "gp", "name": "Winch Lane Surgery", "address": "Winch Lane, Haverfordwest", "postcode": "SA61 1RN", "lat": 51.797936, "lng": -4.96821, "districtCode": "W06000009"}, {"id": "gp-w97023", "type": "gp", "name": "Woodlands Medical Centre", "address": "1 Greenfarm Road, Cardiff", "postcode": "CF5 4RG", "lat": 51.471777, "lng": -3.262466, "districtCode": "W06000015"}, {"id": "gp-w95012", "type": "gp", "name": "Woodlands Surgery", "address": "Woodland Terrace, Maesteg", "postcode": "CF34 0SR", "lat": 51.633632, "lng": -3.65798, "districtCode": "W06000013"}, {"id": "gp-w96004", "type": "gp", "name": "Wylcwm Street Surgery", "address": "Wylcwm Street, Knighton", "postcode": "LD7 1AD", "lat": 52.344912, "lng": -3.048342, "districtCode": "W06000023"}, {"id": "gp-w95619", "type": "gp", "name": "Ynysybwl Surgery", "address": "The Square, Pontypridd", "postcode": "CF37 3DU", "lat": 51.637164, "lng": -3.357848, "districtCode": "W06000016"}, {"id": "gp-w92025", "type": "gp", "name": "Ystwyth Medical Group", "address": "Parc Y Llyn Retail Park, Aberystwyth", "postcode": "SY23 3TL", "lat": 52.406144, "lng": -4.068741, "districtCode": "W06000008"}]