[
  {
    "id": "gp-a82010",
    "type": "gp",
    "name": "Abbey Road Surgery",
    "address": "Duke Street, Barrow-In-Furness",
    "postcode": "LA14 2LB",
    "lat": 54.109942,
    "lng": -3.224779
  },
  {
    "id": "gp-a82004",
    "type": "gp",
    "name": "Alston Medical Practice",
    "address": "Church Road, Alston",
    "postcode": "CA9 3QU",
    "lat": 54.810742,
    "lng": -2.440174
  },
  {
    "id": "gp-a82005",
    "type": "gp",
    "name": "Ambleside Health Centre",
    "address": "Rydal Road, Ambleside",
    "postcode": "LA22 9BP",
    "lat": 54.435059,
    "lng": -2.96636
  },
  {
    "id": "gp-a82006",
    "type": "gp",
    "name": "Appleby Medical Practice",
    "address": "The Riverside Building, Appleby-In-Westmorland",
    "postcode": "CA16 6QR",
    "lat": 54.57809,
    "lng": -2.492998
  },
  {
    "id": "gp-c81634",
    "type": "gp",
    "name": "Arden House Medical Practice",
    "address": "Sett Close, High Peak",
    "postcode": "SK22 4AQ",
    "lat": 53.366438,
    "lng": -2.002379
  },
  {
    "id": "gp-a82055",
    "type": "gp",
    "name": "Aspatria Medical Group",
    "address": "West Street, Wigton",
    "postcode": "CA7 3HH",
    "lat": 54.762157,
    "lng": -3.337948
  },
  {
    "id": "gp-a82062",
    "type": "gp",
    "name": "Atkinson Health Centre",
    "address": "Duke Street, Barrow-In-Furness",
    "postcode": "LA14 2LB",
    "lat": 54.109942,
    "lng": -3.224779
  },
  {
    "id": "gp-b82061",
    "type": "gp",
    "name": "Bentham Medical Practice",
    "address": "Grasmere Drive, Lancaster",
    "postcode": "LA2 7JP",
    "lat": 54.119183,
    "lng": -2.511136
  },
  {
    "id": "gp-a82035",
    "type": "gp",
    "name": "Birbeck Medical Group",
    "address": "Penrith Health Centre, Penrith",
    "postcode": "CA11 8HW",
    "lat": 54.656225,
    "lng": -2.743839
  },
  {
    "id": "gp-a82012",
    "type": "gp",
    "name": "Brampton Medical Practice",
    "address": "4 Market Place, Brampton",
    "postcode": "CA8 1NL",
    "lat": 54.94237,
    "lng": -2.734846
  },
  {
    "id": "gp-a82009",
    "type": "gp",
    "name": "Bridgegate Medical Centre",
    "address": "Winchester Street, Barrow-In-Furness",
    "postcode": "LA13 9SH",
    "lat": 54.11433,
    "lng": -3.208692
  },
  {
    "id": "gp-a82071",
    "type": "gp",
    "name": "Burnett Edgar Medical Ctr",
    "address": "Central Drive, Barrow-In-Furness",
    "postcode": "LA14 3HY",
    "lat": 54.107131,
    "lng": -3.255073
  },
  {
    "id": "gp-c81065",
    "type": "gp",
    "name": "Buxton Medical Practice",
    "address": "2 Temple Road, Buxton",
    "postcode": "SK17 9BZ",
    "lat": 53.253137,
    "lng": -1.920446
  },
  {
    "id": "gp-a82014",
    "type": "gp",
    "name": "Caldbeck Surgery",
    "address": "Friar Row, Wigton",
    "postcode": "CA7 8DS",
    "lat": 54.749871,
    "lng": -3.050627
  },
  {
    "id": "gp-a82025",
    "type": "gp",
    "name": "Captain French Surgery",
    "address": "The Gillinggate Centre, Kendal",
    "postcode": "LA9 4JE",
    "lat": 54.323439,
    "lng": -2.748564
  },
  {
    "id": "gp-a82015",
    "type": "gp",
    "name": "Carlisle Central Practice",
    "address": "Warwick Road Surgery, Carlisle",
    "postcode": "CA1 1EB",
    "lat": 54.893802,
    "lng": -2.928497
  },
  {
    "id": "gp-a82016",
    "type": "gp",
    "name": "Carlisle Healthcare",
    "address": "South Carlisle, Carlisle",
    "postcode": "CA1 3UB",
    "lat": 54.885364,
    "lng": -2.903502
  },
  {
    "id": "gp-a82647",
    "type": "gp",
    "name": "Cartmel Surgery",
    "address": "Haggs Lane, Grange-Over-Sands",
    "postcode": "LA11 6PH",
    "lat": 54.199174,
    "lng": -2.946985
  },
  {
    "id": "gp-a82021",
    "type": "gp",
    "name": "Castlegate And Derwent Surgery",
    "address": "Cockermouth Health Centre, Cockermouth",
    "postcode": "CA13 9HT",
    "lat": 54.667192,
    "lng": -3.358501
  },
  {
    "id": "gp-a82028",
    "type": "gp",
    "name": "Castlehead Medical Centre",
    "address": "Ambleside Road, Keswick",
    "postcode": "CA12 4DB",
    "lat": 54.597698,
    "lng": -3.134576
  },
  {
    "id": "gp-c81615",
    "type": "gp",
    "name": "Cottage Lane Surgery",
    "address": "47 Cottage Lane, Glossop",
    "postcode": "SK13 6EQ",
    "lat": 53.447172,
    "lng": -1.980506
  },
  {
    "id": "gp-a82631",
    "type": "gp",
    "name": "Court Thorn Surgery",
    "address": "Court Thorn, Carlisle",
    "postcode": "CA4 0HP",
    "lat": 54.801834,
    "lng": -2.826253
  },
  {
    "id": "gp-a82022",
    "type": "gp",
    "name": "Dalston Medical Group",
    "address": "The Surgery, Carlisle",
    "postcode": "CA5 7PZ",
    "lat": 54.841382,
    "lng": -2.985547
  },
  {
    "id": "gp-a82039",
    "type": "gp",
    "name": "Dalton Surgery",
    "address": "92 Market Street, Dalton-In-Furness",
    "postcode": "LA15 8AB",
    "lat": 54.155925,
    "lng": -3.179815
  },
  {
    "id": "gp-a82023",
    "type": "gp",
    "name": "Distington Surgery",
    "address": "Hinnings Road, Workington",
    "postcode": "CA14 5UR",
    "lat": 54.595313,
    "lng": -3.541352
  },
  {
    "id": "gp-a82651",
    "type": "gp",
    "name": "Duddon Valley Medical Practice",
    "address": "Kirby Surgery, Kirkby-In-Furness",
    "postcode": "LA17 7TE",
    "lat": 54.232419,
    "lng": -3.184683
  },
  {
    "id": "gp-a82007",
    "type": "gp",
    "name": "Duke Street Surgery",
    "address": "4 Duke Street, Barrow-In-Furness",
    "postcode": "LA14 1LF",
    "lat": 54.110679,
    "lng": -3.225657
  },
  {
    "id": "gp-a82020",
    "type": "gp",
    "name": "Eden Medical Group",
    "address": "Port Road, Carlisle",
    "postcode": "CA2 7AJ",
    "lat": 54.894174,
    "lng": -2.952455
  },
  {
    "id": "gp-a82044",
    "type": "gp",
    "name": "Fellview Healthcare",
    "address": "St. Bridgets Lane, Egremont",
    "postcode": "CA22 2BD",
    "lat": 54.482542,
    "lng": -3.532986
  },
  {
    "id": "gp-a82620",
    "type": "gp",
    "name": "Glenridding Health Centre",
    "address": "Glenridding, Penrith",
    "postcode": "CA11 0PD",
    "lat": 54.544383,
    "lng": -2.951274
  },
  {
    "id": "gp-c81080",
    "type": "gp",
    "name": "Goyt Valley Medical Practice",
    "address": "Chapel Street, High Peak",
    "postcode": "SK23 7SR",
    "lat": 53.3305,
    "lng": -1.983113
  },
  {
    "id": "gp-c81082",
    "type": "gp",
    "name": "Hartington Surgery",
    "address": "Dig Street, Buxton",
    "postcode": "SK17 0AQ",
    "lat": 53.142506,
    "lng": -1.810814
  },
  {
    "id": "gp-a82650",
    "type": "gp",
    "name": "Haverthwaite Surgery",
    "address": "Oak Bank, Ulverston",
    "postcode": "LA12 8AL",
    "lat": 54.249762,
    "lng": -2.999729
  },
  {
    "id": "gp-a82047",
    "type": "gp",
    "name": "James Street Group Pract",
    "address": "James Street, Workington",
    "postcode": "CA14 2DL",
    "lat": 54.644838,
    "lng": -3.550292
  },
  {
    "id": "gp-a82617",
    "type": "gp",
    "name": "Kirkoswald Surgery",
    "address": "Doctors Surgery, Penrith",
    "postcode": "CA10 1DQ",
    "lat": 54.763777,
    "lng": -2.692582
  },
  {
    "id": "gp-c81106",
    "type": "gp",
    "name": "Lambgates Health Centre",
    "address": "Wesley Street, Glossop",
    "postcode": "SK13 1DJ",
    "lat": 53.463493,
    "lng": -1.970151
  },
  {
    "id": "gp-a82646",
    "type": "gp",
    "name": "Longtown Medical Centre",
    "address": "Moor Road, Carlisle",
    "postcode": "CA6 5XA",
    "lat": 55.010511,
    "lng": -2.96428
  },
  {
    "id": "gp-a82041",
    "type": "gp",
    "name": "Lowther Medical Centre",
    "address": "1 Castle Meadows, Whitehaven",
    "postcode": "CA28 7RG",
    "lat": 54.545063,
    "lng": -3.586393
  },
  {
    "id": "gp-a82030",
    "type": "gp",
    "name": "Lunesdale Surgery",
    "address": "Kirkby Lonsdale, Carnforth",
    "postcode": "LA6 2HQ",
    "lat": 54.200584,
    "lng": -2.602214
  },
  {
    "id": "gp-c81081",
    "type": "gp",
    "name": "Manor House Surgery",
    "address": "Manor Street, Glossop",
    "postcode": "SK13 8PS",
    "lat": 53.443952,
    "lng": -1.945173
  },
  {
    "id": "gp-a82075",
    "type": "gp",
    "name": "Mansion House Surgery",
    "address": "19-20 Irish Street, Whitehaven",
    "postcode": "CA28 7BU",
    "lat": 54.545953,
    "lng": -3.588422
  },
  {
    "id": "gp-a82032",
    "type": "gp",
    "name": "Maryport Health Services",
    "address": "Alneburgh House, Maryport",
    "postcode": "CA15 8EL",
    "lat": 54.706439,
    "lng": -3.494532
  },
  {
    "id": "gp-a82008",
    "type": "gp",
    "name": "Norwood Medical Centre",
    "address": "99 Abbey Road, Barrow-In-Furness",
    "postcode": "LA14 5ES",
    "lat": 54.119209,
    "lng": -3.222971
  },
  {
    "id": "gp-a82053",
    "type": "gp",
    "name": "Nutwood Medical Practice",
    "address": "The Health Centre, Grange-Over-Sands",
    "postcode": "LA11 7DJ",
    "lat": 54.187966,
    "lng": -2.915665
  },
  {
    "id": "gp-a82072",
    "type": "gp",
    "name": "Risedale Surgery",
    "address": "Duke Street, Barrow-In-Furness",
    "postcode": "LA14 2LB",
    "lat": 54.109942,
    "lng": -3.224779
  },
  {
    "id": "gp-a82024",
    "type": "gp",
    "name": "Seascale Health Centre",
    "address": "Gosforth Road, Seascale",
    "postcode": "CA20 1PN",
    "lat": 54.396756,
    "lng": -3.479998
  },
  {
    "id": "gp-a82608",
    "type": "gp",
    "name": "Sedbergh Medical Practice",
    "address": "Station Road, Sedbergh",
    "postcode": "LA10 5DL",
    "lat": 54.322391,
    "lng": -2.535271
  },
  {
    "id": "gp-c81003",
    "type": "gp",
    "name": "Sett Valley Medical Centre",
    "address": "Hyde Bank Road, High Peak",
    "postcode": "SK22 4BP",
    "lat": 53.367427,
    "lng": -1.998307
  },
  {
    "id": "gp-a82031",
    "type": "gp",
    "name": "Shap Medical Practice",
    "address": "Shap Health Centre, Penrith",
    "postcode": "CA10 3LW",
    "lat": 54.528899,
    "lng": -2.677936
  },
  {
    "id": "gp-a82037",
    "type": "gp",
    "name": "Silloth Group Medical Practice",
    "address": "Lawn Terrace, Wigton",
    "postcode": "CA7 4AH",
    "lat": 54.86971,
    "lng": -3.393572
  },
  {
    "id": "gp-c81640",
    "type": "gp",
    "name": "Simmondley Medical Practice",
    "address": "15A Pennine Road, Glossop",
    "postcode": "SK13 6NN",
    "lat": 53.439557,
    "lng": -1.969038
  },
  {
    "id": "gp-a82018",
    "type": "gp",
    "name": "Spencer St Surgery",
    "address": "10-12 Spencer Street, Carlisle",
    "postcode": "CA1 1BP",
    "lat": 54.894887,
    "lng": -2.931157
  },
  {
    "id": "gp-a82070",
    "type": "gp",
    "name": "St. Mary'S Surgery",
    "address": "Ambleside Road, Windermere",
    "postcode": "LA23 1BA",
    "lat": 54.380773,
    "lng": -2.90884
  },
  {
    "id": "gp-a82027",
    "type": "gp",
    "name": "Station House Surgery",
    "address": "Station Road, Kendal",
    "postcode": "LA9 6SA",
    "lat": 54.331889,
    "lng": -2.739537
  },
  {
    "id": "gp-c81034",
    "type": "gp",
    "name": "Stewart Medical Centre",
    "address": "15 Hartington Road, Buxton",
    "postcode": "SK17 6JP",
    "lat": 53.254016,
    "lng": -1.918032
  },
  {
    "id": "gp-a82038",
    "type": "gp",
    "name": "Temple Sowerby Medical Practice",
    "address": "Linden Park, Penrith",
    "postcode": "CA10 1RW",
    "lat": 54.636786,
    "lng": -2.605304
  },
  {
    "id": "gp-a82029",
    "type": "gp",
    "name": "The Croft Surgery",
    "address": "The Croft, Wigton",
    "postcode": "CA7 5JH",
    "lat": 54.896921,
    "lng": -3.202915
  },
  {
    "id": "gp-a82629",
    "type": "gp",
    "name": "The Family Practice",
    "address": "The Surgery, Barrow-In-Furness",
    "postcode": "LA14 5SL",
    "lat": 54.116763,
    "lng": -3.229279
  },
  {
    "id": "gp-a82026",
    "type": "gp",
    "name": "The James Cochrane Pract.",
    "address": "Burton Road, Kendal",
    "postcode": "LA9 7HR",
    "lat": 54.312706,
    "lng": -2.737133
  },
  {
    "id": "gp-a82036",
    "type": "gp",
    "name": "The Lakes Medical Practice",
    "address": "Penrith Health Centre, Penrith",
    "postcode": "CA11 8HW",
    "lat": 54.656225,
    "lng": -2.743839
  },
  {
    "id": "gp-c81063",
    "type": "gp",
    "name": "Thornbrook Surgery",
    "address": "Thornbrook Road, High Peak",
    "postcode": "SK23 0RH",
    "lat": 53.323233,
    "lng": -1.911354
  },
  {
    "id": "gp-b84006",
    "type": "gp",
    "name": "Todmorden Group Practice",
    "address": "Lower George Street, Todmorden",
    "postcode": "OL14 5RN",
    "lat": 53.713666,
    "lng": -2.09216
  },
  {
    "id": "gp-a82068",
    "type": "gp",
    "name": "Ulverston Community Health Centre",
    "address": "Stanley Street, Ulverston",
    "postcode": "LA12 7BT",
    "lat": 54.198891,
    "lng": -3.097833
  },
  {
    "id": "gp-a82003",
    "type": "gp",
    "name": "Ulverston Medical Practice",
    "address": "Ulverston Community Health Centre, Ulverston",
    "postcode": "LA12 7BT",
    "lat": 54.198891,
    "lng": -3.097833
  },
  {
    "id": "gp-a82013",
    "type": "gp",
    "name": "Upper Eden Medical Practice",
    "address": "The Health Centre, Kirkby Stephen",
    "postcode": "CA17 4RB",
    "lat": 54.474727,
    "lng": -2.350139
  },
  {
    "id": "gp-a82654",
    "type": "gp",
    "name": "Warwick Square Group Practice",
    "address": "Grosvenor House, Carlisle",
    "postcode": "CA1 1LB",
    "lat": 54.893141,
    "lng": -2.926814
  },
  {
    "id": "gp-a82033",
    "type": "gp",
    "name": "Waterloo House Surgery",
    "address": "Millom Community Hospital, Millom",
    "postcode": "LA18 4BY",
    "lat": 54.208948,
    "lng": -3.268021
  },
  {
    "id": "gp-a82064",
    "type": "gp",
    "name": "Westcroft House Surgery",
    "address": "66 Main Street, Egremont",
    "postcode": "CA22 2DB",
    "lat": 54.483155,
    "lng": -3.528594
  },
  {
    "id": "gp-a82045",
    "type": "gp",
    "name": "Wigton Group Medical Practice",
    "address": "South End, Wigton",
    "postcode": "CA7 9QD",
    "lat": 54.82033,
    "lng": -3.159035
  },
  {
    "id": "gp-a82046",
    "type": "gp",
    "name": "Windermere Health Centre",
    "address": "Goodley Dale, Windermere",
    "postcode": "LA23 2EG",
    "lat": 54.370879,
    "lng": -2.913424
  },
  {
    "id": "gp-a82613",
    "type": "gp",
    "name": "Wraysdale House Surgery",
    "address": "Wraysdale House, Coniston",
    "postcode": "LA21 8ER",
    "lat": 54.367255,
    "lng": -3.07608
  },
  {
    "id": "gp-m83691",
    "type": "gp",
    "name": "Betley Surgery",
    "address": "Main Road, Crewe",
    "postcode": "CW3 9BJ",
    "lat": 53.024658,
    "lng": -2.368642
  },
  {
    "id": "gp-m83015",
    "type": "gp",
    "name": "Madeley Practice",
    "address": "Moss Lane Surgery, Crewe",
    "postcode": "CW3 9NQ",
    "lat": 52.999784,
    "lng": -2.345274
  },
  {
    "id": "gp-p87657",
    "type": "gp",
    "name": "(Irlam) Salford Care Ctrs Medical Practi",
    "address": "125 Liverpool Road, Manchester",
    "postcode": "M44 6DP",
    "lat": 53.449123,
    "lng": -2.417072
  },
  {
    "id": "gp-p87620",
    "type": "gp",
    "name": "1/Monton Medical Practice",
    "address": "Monton Medical Centre, Manchester",
    "postcode": "M30 8AR",
    "lat": 53.491879,
    "lng": -2.356977
  },
  {
    "id": "gp-p87004",
    "type": "gp",
    "name": "1/Salford Medical Practice",
    "address": "194-198 Langworthy Road, Salford",
    "postcode": "M6 5PP",
    "lat": 53.487223,
    "lng": -2.294576
  },
  {
    "id": "gp-n84035",
    "type": "gp",
    "name": "15 Sefton Road",
    "address": "Doctors Surgery, Liverpool",
    "postcode": "L21 9HA",
    "lat": 53.471271,
    "lng": -3.000317
  },
  {
    "id": "gp-p87024",
    "type": "gp",
    "name": "3/Springfield House Medical Practice",
    "address": "384 Liverpool Road, Manchester",
    "postcode": "M30 8QD",
    "lat": 53.480268,
    "lng": -2.362017
  },
  {
    "id": "gp-n81645",
    "type": "gp",
    "name": "4 Seasons Medical Centre",
    "address": "Orford Jubilee Park H/C, Warrington",
    "postcode": "WA2 8HE",
    "lat": 53.40461,
    "lng": -2.588307
  },
  {
    "id": "gp-n84001",
    "type": "gp",
    "name": "42 Kingsway",
    "address": "Kingsway, Liverpool",
    "postcode": "L22 4RQ",
    "lat": 53.481027,
    "lng": -3.020165
  },
  {
    "id": "gp-p81714",
    "type": "gp",
    "name": "Abbey Dale Medical Centre",
    "address": "50 Common Edge Road, Blackpool",
    "postcode": "FY4 5AU",
    "lat": 53.788194,
    "lng": -3.02434
  },
  {
    "id": "gp-n82054",
    "type": "gp",
    "name": "Abercromby Family Practice",
    "address": "Grove Street, Liverpool",
    "postcode": "L7 7HG",
    "lat": 53.399049,
    "lng": -2.961744
  },
  {
    "id": "gp-n82086",
    "type": "gp",
    "name": "Abingdon Family Health Care Centre",
    "address": "361-365 Queens Drive, Liverpool",
    "postcode": "L4 8SJ",
    "lat": 53.440587,
    "lng": -2.943502
  },
  {
    "id": "gp-p81042",
    "type": "gp",
    "name": "Adelaide Street Surgery",
    "address": "61 Elizabeth Street, Blackpool",
    "postcode": "FY1 3JG",
    "lat": 53.820853,
    "lng": -3.043654
  },
  {
    "id": "gp-p81740",
    "type": "gp",
    "name": "Adlington Medical Centre",
    "address": "22-24 Babylon Lane, Chorley",
    "postcode": "PR6 9NW",
    "lat": 53.618561,
    "lng": -2.596009
  },
  {
    "id": "gp-p88014",
    "type": "gp",
    "name": "Adshall Road Medical Prac",
    "address": "97 Adshall Road, Cheadle",
    "postcode": "SK8 2JN",
    "lat": 53.39006,
    "lng": -2.191071
  },
  {
    "id": "gp-p84009",
    "type": "gp",
    "name": "Ailsa Craig Medical Centre",
    "address": "270 Dickenson Road, Manchester",
    "postcode": "M13 0YL",
    "lat": 53.454191,
    "lng": -2.208541
  },
  {
    "id": "gp-n84012",
    "type": "gp",
    "name": "Ainsdale Medical Centre",
    "address": "66 Station Road, Southport",
    "postcode": "PR8 3HW",
    "lat": 53.602422,
    "lng": -3.038714
  },
  {
    "id": "gp-n84014",
    "type": "gp",
    "name": "Ainsdale Village Surgery",
    "address": "The Surgery, Southport",
    "postcode": "PR8 3LB",
    "lat": 53.601219,
    "lng": -3.036524
  },
  {
    "id": "gp-n82053",
    "type": "gp",
    "name": "Aintree Park Group Practice",
    "address": "46 Moss Lane, Liverpool",
    "postcode": "L9 8AL",
    "lat": 53.462815,
    "lng": -2.967297
  },
  {
    "id": "gp-n84002",
    "type": "gp",
    "name": "Aintree Road Medical Centre",
    "address": "2 Aintree Road, Bootle",
    "postcode": "L20 9DL",
    "lat": 53.456493,
    "lng": -2.981972
  },
  {
    "id": "gp-p82640",
    "type": "gp",
    "name": "Al Fal Medical Group",
    "address": "Deane Road, Bolton",
    "postcode": "BL3 5HP",
    "lat": 53.572744,
    "lng": -2.446346
  },
  {
    "id": "gp-p89003",
    "type": "gp",
    "name": "Albion Medical Practice",
    "address": "1 Albion Street, Ashton-Under-Lyne",
    "postcode": "OL6 6HF",
    "lat": 53.48962,
    "lng": -2.088476
  },
  {
    "id": "gp-n82095",
    "type": "gp",
    "name": "Albion Surgery",
    "address": "45 Everton Road, Liverpool",
    "postcode": "L6 2EH",
    "lat": 53.415808,
    "lng": -2.964605
  },
  {
    "id": "gp-n81033",
    "type": "gp",
    "name": "Alderley Edge Medical Centre",
    "address": "Talbot Road, Alderley Edge",
    "postcode": "SK9 7EP",
    "lat": 53.300468,
    "lng": -2.237469
  },
  {
    "id": "gp-p85015",
    "type": "gp",
    "name": "Alexandra Group Med Pract",
    "address": "137 Glodwick Road, Oldham",
    "postcode": "OL4 1YN",
    "lat": 53.537802,
    "lng": -2.095093
  },
  {
    "id": "gp-p84047",
    "type": "gp",
    "name": "All Saints Medical Centre",
    "address": "Newton Heath Health Centre, Manchester",
    "postcode": "M40 2JF",
    "lat": 53.501011,
    "lng": -2.181197
  },
  {
    "id": "gp-p91004",
    "type": "gp",
    "name": "Altrincham Medical Practice",
    "address": "Lloyd House, Altrincham",
    "postcode": "WA14 2DD",
    "lat": 53.384527,
    "lng": -2.351613
  },
  {
    "id": "gp-p88019",
    "type": "gp",
    "name": "Alvanley Family Practice",
    "address": "Woodley Health Centre, Stockport",
    "postcode": "SK6 1ND",
    "lat": 53.426306,
    "lng": -2.09966
  },
  {
    "id": "gp-p84673",
    "type": "gp",
    "name": "Ancoats Urban Village Medical Practice",
    "address": "Old Mill Street, Manchester",
    "postcode": "M4 6EE",
    "lat": 53.482835,
    "lng": -2.219621
  },
  {
    "id": "gp-n82103",
    "type": "gp",
    "name": "Anfield Group Practice",
    "address": "Townsend Lane N'Hood H/C, Liverpool",
    "postcode": "L6 0BB",
    "lat": 53.430312,
    "lng": -2.943666
  },
  {
    "id": "gp-p81037",
    "type": "gp",
    "name": "Ansdell Medical Centre",
    "address": "Albany Road, Lytham St. Annes",
    "postcode": "FY8 4GW",
    "lat": 53.748874,
    "lng": -3.0005
  },
  {
    "id": "gp-p88625",
    "type": "gp",
    "name": "Archwood Medical Practice",
    "address": "Woodley Health Centre, Stockport",
    "postcode": "SK6 1ND",
    "lat": 53.426306,
    "lng": -2.09966
  },
  {
    "id": "gp-p84037",
    "type": "gp",
    "name": "Ardwick Medical Practice",
    "address": "The Vallance Medical Centre, Manchester",
    "postcode": "M13 9UJ",
    "lat": 53.470565,
    "lng": -2.224996
  },
  {
    "id": "gp-p81147",
    "type": "gp",
    "name": "Arg Healthcare",
    "address": "257-259 Blackburn Road, Accrington",
    "postcode": "BB5 0AL",
    "lat": 53.752796,
    "lng": -2.375369
  },
  {
    "id": "gp-p81081",
    "type": "gp",
    "name": "Arnold Medical Centre",
    "address": "204 St. Annes Road, Blackpool",
    "postcode": "FY4 2EF",
    "lat": 53.789695,
    "lng": -3.038023
  },
  {
    "id": "gp-p81129",
    "type": "gp",
    "name": "Ash Tree House Surgery",
    "address": "Church Street, Preston",
    "postcode": "PR4 2SE",
    "lat": 53.783491,
    "lng": -2.871255
  },
  {
    "id": "gp-p81029",
    "type": "gp",
    "name": "Ash Trees Surgery",
    "address": "Market Street, Carnforth",
    "postcode": "LA5 9JU",
    "lat": 54.12945,
    "lng": -2.768901
  },
  {
    "id": "gp-p84053",
    "type": "gp",
    "name": "Ashcroft Surgery",
    "address": "803 Stockport Road, Manchester",
    "postcode": "M19 3BS",
    "lat": 53.445465,
    "lng": -2.191168
  },
  {
    "id": "gp-n81032",
    "type": "gp",
    "name": "Ashfields Primary Care Centre",
    "address": "Middlewich Road, Sandbach",
    "postcode": "CW11 1EQ",
    "lat": 53.144658,
    "lng": -2.367396
  },
  {
    "id": "gp-p89008",
    "type": "gp",
    "name": "Ashton Medical Group",
    "address": "Chapel Street, Ashton-Under-Lyne",
    "postcode": "OL6 6EW",
    "lat": 53.489521,
    "lng": -2.088807
  },
  {
    "id": "gp-p81201",
    "type": "gp",
    "name": "Ashurst Primary Care",
    "address": "Ashurst Health Centre, Skelmersdale",
    "postcode": "WN8 6QS",
    "lat": 53.563224,
    "lng": -2.772723
  },
  {
    "id": "gp-p84038",
    "type": "gp",
    "name": "Ashville Surgery",
    "address": "171 Upper Chorlton Road, Manchester",
    "postcode": "M16 9RT",
    "lat": 53.452536,
    "lng": -2.268044
  },
  {
    "id": "gp-p86006",
    "type": "gp",
    "name": "Ashworth Street Surgery",
    "address": "85 Spotland Road, Rochdale",
    "postcode": "OL12 6RT",
    "lat": 53.619581,
    "lng": -2.16565
  },
  {
    "id": "gp-p92015",
    "type": "gp",
    "name": "Aspull Surgery",
    "address": "Haigh Road, Wigan",
    "postcode": "WN2 1XH",
    "lat": 53.569614,
    "lng": -2.586036
  },
  {
    "id": "gp-p92637",
    "type": "gp",
    "name": "Astley General Practice",
    "address": "391A Manchester Road, Manchester",
    "postcode": "M29 7BY",
    "lat": 53.500432,
    "lng": -2.458265
  },
  {
    "id": "gp-n83028",
    "type": "gp",
    "name": "Aston Healthcare Limited",
    "address": "Manor Farm Resource Ctr, Liverpool",
    "postcode": "L36 0UB",
    "lat": 53.404568,
    "lng": -2.831049
  },
  {
    "id": "gp-n83023",
    "type": "gp",
    "name": "Atlas Medical Practice",
    "address": "Atlas Street, St. Helens",
    "postcode": "WA9 1LN",
    "lat": 53.454227,
    "lng": -2.724148
  },
  {
    "id": "gp-n81001",
    "type": "gp",
    "name": "Audlem Medical Practice",
    "address": "16 Cheshire Street, Crewe",
    "postcode": "CW3 0AH",
    "lat": 52.989631,
    "lng": -2.508717
  },
  {
    "id": "gp-p81695",
    "type": "gp",
    "name": "Aughton Surgery",
    "address": "19 Town Green Lane, Ormskirk",
    "postcode": "L39 6SE",
    "lat": 53.543638,
    "lng": -2.902224
  },
  {
    "id": "gp-p81770",
    "type": "gp",
    "name": "Avenham Surgery",
    "address": "Avenham Lane, Preston",
    "postcode": "PR1 3RG",
    "lat": 53.756992,
    "lng": -2.693946
  },
  {
    "id": "gp-p89004",
    "type": "gp",
    "name": "Awburn House Medical Practice",
    "address": "Mottram Moor, Hyde",
    "postcode": "SK14 6LA",
    "lat": 53.458121,
    "lng": -2.010999
  },
  {
    "id": "gp-p84034",
    "type": "gp",
    "name": "Barlow Medical Centre",
    "address": "828 Wilmslow Road, Manchester",
    "postcode": "M20 2RN",
    "lat": 53.413178,
    "lng": -2.231433
  },
  {
    "id": "gp-p81078",
    "type": "gp",
    "name": "Barnoldswick Med Ctr",
    "address": "Park Road, Barnoldswick",
    "postcode": "BB18 5BG",
    "lat": 53.915192,
    "lng": -2.185854
  },
  {
    "id": "gp-p91603",
    "type": "gp",
    "name": "Barrington Medical Centre",
    "address": "33 Market Street, Altrincham",
    "postcode": "WA14 1PF",
    "lat": 53.387183,
    "lng": -2.352958
  },
  {
    "id": "gp-p81757",
    "type": "gp",
    "name": "Barrowford Surgery",
    "address": "2A-4 Ridgeway, Nelson",
    "postcode": "BB9 8QP",
    "lat": 53.848545,
    "lng": -2.223786
  },
  {
    "id": "gp-n82022",
    "type": "gp",
    "name": "Beacon Health Kensington",
    "address": "157 Edge Lane, Liverpool",
    "postcode": "L7 2AB",
    "lat": 53.408364,
    "lng": -2.948987
  },
  {
    "id": "gp-n82107",
    "type": "gp",
    "name": "Beacon Health Mossley Hill",
    "address": "73 Queens Drive, Liverpool",
    "postcode": "L18 2DU",
    "lat": 53.386849,
    "lng": -2.911461
  },
  {
    "id": "gp-p84033",
    "type": "gp",
    "name": "Beacon Medical Centre",
    "address": "156 Victoria Avenue, Manchester",
    "postcode": "M9 0FN",
    "lat": 53.534358,
    "lng": -2.219209
  },
  {
    "id": "gp-p81112",
    "type": "gp",
    "name": "Beacon Primary Care",
    "address": "Sandy Lane Health Centre, Skelmersdale",
    "postcode": "WN8 8LA",
    "lat": 53.550182,
    "lng": -2.806747
  },
  {
    "id": "gp-p92633",
    "type": "gp",
    "name": "Bee Fold Medical Centre",
    "address": "25 Bee Fold Lane, Manchester",
    "postcode": "M46 0BD",
    "lat": 53.521389,
    "lng": -2.499758
  },
  {
    "id": "gp-p92010",
    "type": "gp",
    "name": "Beech Hill Medical Practice",
    "address": "278 Gidlow Lane, Wigan",
    "postcode": "WN6 7PD",
    "lat": 53.555669,
    "lng": -2.644351
  },
  {
    "id": "gp-p88012",
    "type": "gp",
    "name": "Beech House Medical Pract",
    "address": "Beech House, Stockport",
    "postcode": "SK7 4QR",
    "lat": 53.379423,
    "lng": -2.118146
  },
  {
    "id": "gp-p81692",
    "type": "gp",
    "name": "Beeches Medical Centre",
    "address": "Liverpool Road, Preston",
    "postcode": "PR4 5AB",
    "lat": 53.725898,
    "lng": -2.7891
  },
  {
    "id": "gp-p81742",
    "type": "gp",
    "name": "Beechwood Surgery",
    "address": "Old Bank Medical Centre, Thornton-Cleveleys",
    "postcode": "FY5 5HH",
    "lat": 53.871582,
    "lng": -3.009051
  },
  {
    "id": "gp-p82616",
    "type": "gp",
    "name": "Beehive Surgery",
    "address": "108 Crescent Road, Bolton",
    "postcode": "BL3 2JR",
    "lat": 53.564177,
    "lng": -2.41917
  },
  {
    "id": "gp-n82094",
    "type": "gp",
    "name": "Belle Vale Health Centre",
    "address": "Hedgefield Road, Liverpool",
    "postcode": "L25 2XE",
    "lat": 53.39205,
    "lng": -2.859753
  },
  {
    "id": "gp-p84029",
    "type": "gp",
    "name": "Benchill Medical Practice",
    "address": "Benchill One Stop Medical Centre, Manchester",
    "postcode": "M22 9UH",
    "lat": 53.386649,
    "lng": -2.255632
  },
  {
    "id": "gp-n82067",
    "type": "gp",
    "name": "Benim Medical Centre",
    "address": "2 Penvalley Crescent, Liverpool",
    "postcode": "L6 3BY",
    "lat": 53.419412,
    "lng": -2.947804
  },
  {
    "id": "gp-p81055",
    "type": "gp",
    "name": "Berry Lane Medical Centre",
    "address": "Berry Lane, Preston",
    "postcode": "PR3 3JJ",
    "lat": 53.831528,
    "lng": -2.602723
  },
  {
    "id": "gp-n83008",
    "type": "gp",
    "name": "Berrymead Family Med.Ctr.",
    "address": "140 Berrys Lane, St. Helens",
    "postcode": "WA9 3RP",
    "lat": 53.44406,
    "lng": -2.698501
  },
  {
    "id": "gp-n83054",
    "type": "gp",
    "name": "Bethany Medical Centre",
    "address": "151 Grafton Street, St. Helens",
    "postcode": "WA10 4GW",
    "lat": 53.453186,
    "lng": -2.758616
  },
  {
    "id": "gp-n81011",
    "type": "gp",
    "name": "Bevan Group Practice",
    "address": "Bevan Way, Widnes",
    "postcode": "WA8 6TR",
    "lat": 53.379744,
    "lng": -2.724554
  },
  {
    "id": "gp-n82671",
    "type": "gp",
    "name": "Bigham Road Medical Centre",
    "address": "Bigham Road, Liverpool",
    "postcode": "L6 6DW",
    "lat": 53.413799,
    "lng": -2.945994
  },
  {
    "id": "gp-n83019",
    "type": "gp",
    "name": "Billinge Medical Practice",
    "address": "Recreation Drive, Wigan",
    "postcode": "WN5 7LY",
    "lat": 53.497681,
    "lng": -2.706951
  },
  {
    "id": "gp-n81114",
    "type": "gp",
    "name": "Birchwood Medical Centre",
    "address": "15 Benson Road, Warrington",
    "postcode": "WA3 7PJ",
    "lat": 53.415497,
    "lng": -2.526501
  },
  {
    "id": "gp-p83009",
    "type": "gp",
    "name": "Blackford House Medical Centre",
    "address": "137 Croft Lane, Bury",
    "postcode": "BL9 8QA",
    "lat": 53.574266,
    "lng": -2.283325
  },
  {
    "id": "gp-n85648",
    "type": "gp",
    "name": "Blackheath Med Ctr",
    "address": "76 Reeds Lane, Wirral",
    "postcode": "CH46 1SG",
    "lat": 53.412239,
    "lng": -3.104694
  },
  {
    "id": "gp-p81704",
    "type": "gp",
    "name": "Blakewater Healthcare",
    "address": "367 Whalley New Road, Blackburn",
    "postcode": "BB1 9SR",
    "lat": 53.764984,
    "lng": -2.473915
  },
  {
    "id": "gp-p81115",
    "type": "gp",
    "name": "Bloomfield Medical Centre",
    "address": "118-120 Bloomfield Road, Blackpool",
    "postcode": "FY1 6JW",
    "lat": 53.804431,
    "lng": -3.043641
  },
  {
    "id": "gp-n84020",
    "type": "gp",
    "name": "Blundellsands Surgery",
    "address": "1 Warren Road, Liverpool",
    "postcode": "L23 6TZ",
    "lat": 53.484503,
    "lng": -3.041347
  },
  {
    "id": "gp-p84035",
    "type": "gp",
    "name": "Bodey Medical Centre",
    "address": "28 Ladybarn Lane, Manchester",
    "postcode": "M14 6WP",
    "lat": 53.440652,
    "lng": -2.214797
  },
  {
    "id": "gp-p91017",
    "type": "gp",
    "name": "Bodmin Road Health Centre",
    "address": "Bodmin Road, Sale",
    "postcode": "M33 5JH",
    "lat": 53.428139,
    "lng": -2.351718
  },
  {
    "id": "gp-p92605",
    "type": "gp",
    "name": "Boothstown Medical Centre",
    "address": "Parr Bridge H&W Centre, Manchester",
    "postcode": "M29 8RZ",
    "lat": 53.511387,
    "lng": -2.432477
  },
  {
    "id": "gp-n84015",
    "type": "gp",
    "name": "Bootle Village Surgery",
    "address": "204 Stanley Road, Bootle",
    "postcode": "L20 3EW",
    "lat": 53.449589,
    "lng": -2.989673
  },
  {
    "id": "gp-n81034",
    "type": "gp",
    "name": "Boughton Medical Group",
    "address": "Boughton Health Centre, Chester",
    "postcode": "CH2 3DP",
    "lat": 53.192862,
    "lng": -2.875925
  },
  {
    "id": "gp-p91013",
    "type": "gp",
    "name": "Boundary House Medical Centre",
    "address": "462 Northenden Road, Sale",
    "postcode": "M33 2RH",
    "lat": 53.415652,
    "lng": -2.288937
  },
  {
    "id": "gp-n82078",
    "type": "gp",
    "name": "Bousfield - Roberts",
    "address": "Bousfield Surgery, Liverpool",
    "postcode": "L4 4PP",
    "lat": 53.431558,
    "lng": -2.977575
  },
  {
    "id": "gp-n82077",
    "type": "gp",
    "name": "Bousfield Surgery - Dr Shah",
    "address": "Westminster Road, Liverpool",
    "postcode": "L4 4PP",
    "lat": 53.431558,
    "lng": -2.977575
  },
  {
    "id": "gp-p84024",
    "type": "gp",
    "name": "Bowland Medical Practice",
    "address": "52 Bowland Road, Manchester",
    "postcode": "M23 1JX",
    "lat": 53.393153,
    "lng": -2.285265
  },
  {
    "id": "gp-p88031",
    "type": "gp",
    "name": "Bracondale Medical Centre",
    "address": "141 Buxton Road, Stockport",
    "postcode": "SK2 6EQ",
    "lat": 53.394015,
    "lng": -2.147088
  },
  {
    "id": "gp-p82033",
    "type": "gp",
    "name": "Bradford Street Surgery",
    "address": "65 Bradford Street, Bolton",
    "postcode": "BL2 1HT",
    "lat": 53.576854,
    "lng": -2.418223
  },
  {
    "id": "gp-p92008",
    "type": "gp",
    "name": "Bradshaw Medical Centre",
    "address": "Bradshaw Street, Wigan",
    "postcode": "WN5 0AB",
    "lat": 53.537904,
    "lng": -2.688594
  },
  {
    "id": "gp-p92002",
    "type": "gp",
    "name": "Braithwaite Rd Surgery",
    "address": "36 Braithwaite Road, Warrington",
    "postcode": "WA3 2HY",
    "lat": 53.477428,
    "lng": -2.574985
  },
  {
    "id": "gp-p88016",
    "type": "gp",
    "name": "Bramhall & Shaw Heath Medical Group",
    "address": "Bramhall Park Medical Centre, Stockport",
    "postcode": "SK7 3EP",
    "lat": 53.376054,
    "lng": -2.162343
  },
  {
    "id": "gp-p88015",
    "type": "gp",
    "name": "Bramhall Health Centre",
    "address": "66 Bramhall Lane South, Stockport",
    "postcode": "SK7 2DY",
    "lat": 53.360143,
    "lng": -2.163049
  },
  {
    "id": "gp-p88044",
    "type": "gp",
    "name": "Bredbury Medical Centre",
    "address": "1 Auburn Avenue, Stockport",
    "postcode": "SK6 2AH",
    "lat": 53.422931,
    "lng": -2.114052
  },
  {
    "id": "gp-p81748",
    "type": "gp",
    "name": "Briarwood Medical Centre",
    "address": "514 Blackpool Road, Preston",
    "postcode": "PR2 1HY",
    "lat": 53.769748,
    "lng": -2.735954
  },
  {
    "id": "gp-n84023",
    "type": "gp",
    "name": "Bridge Road Medical Centre",
    "address": "66-88 Bridge Road, Liverpool",
    "postcode": "L21 6PH",
    "lat": 53.467602,
    "lng": -3.001646
  },
  {
    "id": "gp-p81053",
    "type": "gp",
    "name": "Briercliffe Surgery",
    "address": "Briercliffe Primary Care Centre, Burnley",
    "postcode": "BB10 2EZ",
    "lat": 53.810402,
    "lng": -2.212861
  },
  {
    "id": "gp-p88043",
    "type": "gp",
    "name": "Brinnington Surgery",
    "address": "Brinnington Road, Stockport",
    "postcode": "SK5 8BS",
    "lat": 53.427667,
    "lng": -2.132365
  },
  {
    "id": "gp-p81086",
    "type": "gp",
    "name": "Broadway Medical Centre",
    "address": "West View Health Village, Fleetwood",
    "postcode": "FY7 8GU",
    "lat": 53.91268,
    "lng": -3.033837
  },
  {
    "id": "gp-n81632",
    "type": "gp",
    "name": "Broken Cross Surgery",
    "address": "Waters Green Medical Centre, Macclesfield",
    "postcode": "SK11 6JL",
    "lat": 53.258072,
    "lng": -2.122605
  },
  {
    "id": "gp-p82643",
    "type": "gp",
    "name": "Bromley Meadows Surgery",
    "address": "Darwen Road, Bolton",
    "postcode": "BL7 9RG",
    "lat": 53.617605,
    "lng": -2.426381
  },
  {
    "id": "gp-n81014",
    "type": "gp",
    "name": "Brookfield Surgery",
    "address": "Whitbarrow Road, Lymm, Lymm",
    "postcode": "WA13 9DB",
    "lat": 53.382321,
    "lng": -2.48123
  },
  {
    "id": "gp-p84061",
    "type": "gp",
    "name": "Brooklands Medical Practice",
    "address": "594 Altrincham Road, Manchester",
    "postcode": "M23 9JH",
    "lat": 53.401062,
    "lng": -2.303847
  },
  {
    "id": "gp-p92023",
    "type": "gp",
    "name": "Brookmill Medical Centre",
    "address": "College Street, Leigh",
    "postcode": "WN7 2RB",
    "lat": 53.496457,
    "lng": -2.509579
  },
  {
    "id": "gp-n81096",
    "type": "gp",
    "name": "Brookvale Practice",
    "address": "Hallwood Health Centre, Runcorn",
    "postcode": "WA7 2UT",
    "lat": 53.325561,
    "lng": -2.696866
  },
  {
    "id": "gp-p81155",
    "type": "gp",
    "name": "Brownhill Surgery",
    "address": "788-790 Whalley New Road, Blackburn",
    "postcode": "BB1 9BA",
    "lat": 53.77529,
    "lng": -2.479327
  },
  {
    "id": "gp-n82617",
    "type": "gp",
    "name": "Brownlow At Marybone",
    "address": "Marybone Health Centre, Liverpool",
    "postcode": "L3 2BG",
    "lat": 53.411286,
    "lng": -2.987806
  },
  {
    "id": "gp-n82117",
    "type": "gp",
    "name": "Brownlow Group Practice",
    "address": "Primary Care Resource Centre, Liverpool",
    "postcode": "L69 3GF",
    "lat": 53.40844,
    "lng": -2.967597
  },
  {
    "id": "gp-n82076",
    "type": "gp",
    "name": "Brownlow Health @ Princes Park",
    "address": "Princes Park Health Centre, Liverpool",
    "postcode": "L8 0SY",
    "lat": 53.391466,
    "lng": -2.952295
  },
  {
    "id": "gp-n82645",
    "type": "gp",
    "name": "Brownlow Health At Kensington",
    "address": "Kensington N'Hood Hc, Liverpool",
    "postcode": "L7 2PF",
    "lat": 53.407702,
    "lng": -2.950928
  },
  {
    "id": "gp-p84611",
    "type": "gp",
    "name": "Brunswick Medical Practice",
    "address": "The Vallance Medical Centre, Manchester",
    "postcode": "M13 9UJ",
    "lat": 53.470565,
    "lng": -2.224996
  },
  {
    "id": "gp-p92034",
    "type": "gp",
    "name": "Bryn Cross Surgery",
    "address": "246 Wigan Road, Wigan",
    "postcode": "WN4 0AR",
    "lat": 53.500913,
    "lng": -2.647441
  },
  {
    "id": "gp-n81006",
    "type": "gp",
    "name": "Bunbury Medical Practice",
    "address": "Vicarage Lane, Tarporley",
    "postcode": "CW6 9PE",
    "lat": 53.117072,
    "lng": -2.650636
  },
  {
    "id": "gp-p81020",
    "type": "gp",
    "name": "Burnley Group Practice",
    "address": "St Peters Centre, Burnley",
    "postcode": "BB11 2DL",
    "lat": 53.791263,
    "lng": -2.238948
  },
  {
    "id": "gp-p81137",
    "type": "gp",
    "name": "Burnley Wood Medical Centre",
    "address": "50 Parliament Street, Burnley",
    "postcode": "BB11 3HR",
    "lat": 53.784214,
    "lng": -2.235751
  },
  {
    "id": "gp-p82025",
    "type": "gp",
    "name": "Burnside Surgery",
    "address": "Waters Meeting Road, Bolton",
    "postcode": "BL1 8TT",
    "lat": 53.590447,
    "lng": -2.427769
  },
  {
    "id": "gp-p81138",
    "type": "gp",
    "name": "Burscough Family Practice",
    "address": "Burscough Health Centre, Ormskirk",
    "postcode": "L40 4LA",
    "lat": 53.602373,
    "lng": -2.840111
  },
  {
    "id": "gp-n82633",
    "type": "gp",
    "name": "Calvary Health Centre",
    "address": "Pilch Bank Road, Liverpool",
    "postcode": "L14 7PH",
    "lat": 53.418188,
    "lng": -2.885859
  },
  {
    "id": "gp-p88013",
    "type": "gp",
    "name": "Caritas General Practice Partnership",
    "address": "262 Stockport Road, Stockport",
    "postcode": "SK3 0RQ",
    "lat": 53.400391,
    "lng": -2.194606
  },
  {
    "id": "gp-n81019",
    "type": "gp",
    "name": "Castlefields Health Centre",
    "address": "The Village Square, Runcorn",
    "postcode": "WA7 2ST",
    "lat": 53.338823,
    "lng": -2.691796
  },
  {
    "id": "gp-p86009",
    "type": "gp",
    "name": "Castleton Health Centre",
    "address": "2 Elizabeth Street, Rochdale",
    "postcode": "OL11 3HY",
    "lat": 53.597049,
    "lng": -2.182984
  },
  {
    "id": "gp-n81028",
    "type": "gp",
    "name": "Causeway Medical Centre",
    "address": "166-170 Wilderspool Causeway, Warrington",
    "postcode": "WA4 6QA",
    "lat": 53.380496,
    "lng": -2.589492
  },
  {
    "id": "gp-n85017",
    "type": "gp",
    "name": "Cavendish Medical Centre",
    "address": "Birkenhead Medical Building, Birkenhead",
    "postcode": "CH41 8DB",
    "lat": 53.398264,
    "lng": -3.04655
  },
  {
    "id": "gp-n83609",
    "type": "gp",
    "name": "Cedar Cross Medical Centre",
    "address": "Whiston Pcrc, Prescot",
    "postcode": "L35 3SX",
    "lat": 53.414971,
    "lng": -2.801718
  },
  {
    "id": "gp-n85027",
    "type": "gp",
    "name": "Central Park Medical Centre",
    "address": "Victoria Central Hospital, Wallasey",
    "postcode": "CH44 5UF",
    "lat": 53.415672,
    "lng": -3.045864
  },
  {
    "id": "gp-p81117",
    "type": "gp",
    "name": "Central Park Surgery",
    "address": "Balfour Street, Leyland",
    "postcode": "PR25 2TD",
    "lat": 53.69533,
    "lng": -2.696065
  },
  {
    "id": "gp-n83027",
    "type": "gp",
    "name": "Central Surgery",
    "address": "Lowe House, St Helens",
    "postcode": "WA10 2DJ",
    "lat": 53.456702,
    "lng": -2.742609
  },
  {
    "id": "gp-p85011",
    "type": "gp",
    "name": "Ch Medical Practice",
    "address": "Fields New Rd P-Care Ctr, Oldham",
    "postcode": "OL9 8NH",
    "lat": 53.533131,
    "lng": -2.145081
  },
  {
    "id": "gp-p85004",
    "type": "gp",
    "name": "Chadderton Medical Practice",
    "address": "Middleton Road, Oldham",
    "postcode": "OL9 0LH",
    "lat": 53.545575,
    "lng": -2.14218
  },
  {
    "id": "gp-p88017",
    "type": "gp",
    "name": "Chadsfield Medical Practice",
    "address": "Chichester Road, Stockport",
    "postcode": "SK6 4QR",
    "lat": 53.415015,
    "lng": -2.089929
  },
  {
    "id": "gp-p87649",
    "type": "gp",
    "name": "Chapel Group Medical Centre",
    "address": "220 Liverpool Road, Manchester",
    "postcode": "M44 6FE",
    "lat": 53.44911,
    "lng": -2.418292
  },
  {
    "id": "gp-n84006",
    "type": "gp",
    "name": "Chapel Lane Surgery",
    "address": "13 Chapel Lane, Liverpool",
    "postcode": "L37 4DL",
    "lat": 53.557091,
    "lng": -3.061425
  },
  {
    "id": "gp-p82625",
    "type": "gp",
    "name": "Charlotte Street Surgery",
    "address": "Waters Meeting Road, Bolton",
    "postcode": "BL1 8TT",
    "lat": 53.590447,
    "lng": -2.427769
  },
  {
    "id": "gp-p88007",
    "type": "gp",
    "name": "Cheadle Hulme Medical Group",
    "address": "Smithy Green, Cheadle",
    "postcode": "SK8 6LU",
    "lat": 53.366492,
    "lng": -2.191356
  },
  {
    "id": "gp-p88020",
    "type": "gp",
    "name": "Cheadle Medical Practice",
    "address": "1-5 Ashfield Crescent, Cheadle",
    "postcode": "SK8 1BH",
    "lat": 53.393761,
    "lng": -2.213539
  },
  {
    "id": "gp-p84046",
    "type": "gp",
    "name": "Cheetham Hill Medical Centre",
    "address": "244 Cheetham Hill Road, Manchester",
    "postcode": "M8 8AU",
    "lat": 53.500835,
    "lng": -2.235844
  },
  {
    "id": "gp-n81069",
    "type": "gp",
    "name": "Chelford Surgery",
    "address": "Elmstead Road, Macclesfield",
    "postcode": "SK11 9BS",
    "lat": 53.27255,
    "lng": -2.28242
  },
  {
    "id": "gp-p87630",
    "type": "gp",
    "name": "Cherry Medical Practice",
    "address": "Little Hulton Health Centre, Manchester",
    "postcode": "M28 0BB",
    "lat": 53.527273,
    "lng": -2.418639
  },
  {
    "id": "gp-p84068",
    "type": "gp",
    "name": "Chorlton Family Practice",
    "address": "Chorlton Health Centre, Manchester",
    "postcode": "M21 9NJ",
    "lat": 53.44379,
    "lng": -2.279718
  },
  {
    "id": "gp-n84013",
    "type": "gp",
    "name": "Christiana Hartley Medical Practice",
    "address": "5 Curzon Road, Southport",
    "postcode": "PR8 6PL",
    "lat": 53.640182,
    "lng": -2.983572
  },
  {
    "id": "gp-n85633",
    "type": "gp",
    "name": "Church Road Medical Practice",
    "address": "25 Brackenwood Road, Wirral",
    "postcode": "CH63 2LR",
    "lat": 53.350109,
    "lng": -3.023678
  },
  {
    "id": "gp-p84065",
    "type": "gp",
    "name": "Church View Medical Centre",
    "address": "1 Church Lane, Manchester",
    "postcode": "M9 4BE",
    "lat": 53.512058,
    "lng": -2.213619
  },
  {
    "id": "gp-n84017",
    "type": "gp",
    "name": "Churchtown Medical Centre",
    "address": "137 Cambridge Road, Southport",
    "postcode": "PR9 7LT",
    "lat": 53.661789,
    "lng": -2.965053
  },
  {
    "id": "gp-n81082",
    "type": "gp",
    "name": "City Walls Medical Centre",
    "address": "St. Martins Way, Chester",
    "postcode": "CH1 2NR",
    "lat": 53.191544,
    "lng": -2.896013
  },
  {
    "id": "gp-n85006",
    "type": "gp",
    "name": "Civic Medical Centre",
    "address": "Civic Way, Wirral",
    "postcode": "CH63 7RX",
    "lat": 53.350243,
    "lng": -3.004812
  },
  {
    "id": "gp-p89012",
    "type": "gp",
    "name": "Clarendon Medical Centre",
    "address": "Clarendon Street, Hyde",
    "postcode": "SK14 2AQ",
    "lat": 53.452657,
    "lng": -2.079951
  },
  {
    "id": "gp-p87634",
    "type": "gp",
    "name": "Clarendon Surgery",
    "address": "Pendleton Gateway, Salford",
    "postcode": "M6 5FX",
    "lat": 53.488361,
    "lng": -2.284742
  },
  {
    "id": "gp-p81180",
    "type": "gp",
    "name": "Clayton Brook Surgery",
    "address": "59-60 Tunley Holme, Preston",
    "postcode": "PR5 8ES",
    "lat": 53.712158,
    "lng": -2.637602
  },
  {
    "id": "gp-p87613",
    "type": "gp",
    "name": "Cleggs Lane Medical Practice/129",
    "address": "129-131 Cleggs Lane, Manchester",
    "postcode": "M38 9RS",
    "lat": 53.534956,
    "lng": -2.419334
  },
  {
    "id": "gp-p81073",
    "type": "gp",
    "name": "Cleveleys Group Practice",
    "address": "The Health Centre, Thornton-Cleveleys",
    "postcode": "FY5 3LF",
    "lat": 53.875125,
    "lng": -3.042538
  },
  {
    "id": "gp-n81637",
    "type": "gp",
    "name": "Cockhedge Medical Centre",
    "address": "7 Cockhedge Way, Warrington",
    "postcode": "WA1 2QQ",
    "lat": 53.390968,
    "lng": -2.589472
  },
  {
    "id": "gp-n83610",
    "type": "gp",
    "name": "Colby Medical Centre",
    "address": "The Bluebell Centre, Liverpool",
    "postcode": "L36 7XY",
    "lat": 53.419542,
    "lng": -2.842807
  },
  {
    "id": "gp-p81035",
    "type": "gp",
    "name": "Colne Road Surgery",
    "address": "34-36 Colne Road, Burnley",
    "postcode": "BB10 1LS",
    "lat": 53.801226,
    "lng": -2.236849
  },
  {
    "id": "gp-n84038",
    "type": "gp",
    "name": "Concept House Surgery",
    "address": "17 Merton Road, Bootle",
    "postcode": "L20 3BG",
    "lat": 53.449152,
    "lng": -2.98492
  },
  {
    "id": "gp-p84040",
    "type": "gp",
    "name": "Conran Medical Centre",
    "address": "77 Church Lane, Manchester",
    "postcode": "M9 5BH",
    "lat": 53.510563,
    "lng": -2.210656
  },
  {
    "id": "gp-p91035",
    "type": "gp",
    "name": "Conway Road Medical Practice",
    "address": "80A Conway Road, Sale",
    "postcode": "M33 2TB",
    "lat": 53.417889,
    "lng": -2.303562
  },
  {
    "id": "gp-p81033",
    "type": "gp",
    "name": "Coppull Medical Practice",
    "address": "5 Acreswood Close, Chorley",
    "postcode": "PR7 5EN",
    "lat": 53.619731,
    "lng": -2.662499
  },
  {
    "id": "gp-p84669",
    "type": "gp",
    "name": "Cornbrook Medical Practice",
    "address": "204 City Road, Manchester",
    "postcode": "M15 4EA",
    "lat": 53.468158,
    "lng": -2.259872
  },
  {
    "id": "gp-p84041",
    "type": "gp",
    "name": "Cornerstone Family Practice",
    "address": "Cornerstone Centre, Manchester",
    "postcode": "M11 3AA",
    "lat": 53.474438,
    "lng": -2.195096
  },
  {
    "id": "gp-p87639",
    "type": "gp",
    "name": "Cornerstone Medical Practice",
    "address": "451 Liverpool Street, Salford",
    "postcode": "M6 5QQ",
    "lat": 53.483802,
    "lng": -2.296918
  },
  {
    "id": "gp-p82627",
    "type": "gp",
    "name": "Cornerstone Surgery",
    "address": "469 Chorley Old Road, Bolton",
    "postcode": "BL1 6AH",
    "lat": 53.588171,
    "lng": -2.457401
  },
  {
    "id": "gp-n83025",
    "type": "gp",
    "name": "Cornerways Medical Centre",
    "address": "North Huyton Pcrc, Liverpool",
    "postcode": "L36 3TN",
    "lat": 53.422901,
    "lng": -2.85592
  },
  {
    "id": "gp-p84043",
    "type": "gp",
    "name": "Cornishway Group Practice",
    "address": "Forum Health, Manchester",
    "postcode": "M22 5RX",
    "lat": 53.379941,
    "lng": -2.265017
  },
  {
    "id": "gp-p86014",
    "type": "gp",
    "name": "Croft Shifa Health Centre",
    "address": "Belfield Road, Rochdale",
    "postcode": "OL16 2UP",
    "lat": 53.622652,
    "lng": -2.139598
  },
  {
    "id": "gp-p82607",
    "type": "gp",
    "name": "Crompton View Surgery",
    "address": "Crompton Health Centre, Bolton",
    "postcode": "BL1 8UP",
    "lat": 53.597502,
    "lng": -2.415224
  },
  {
    "id": "gp-p84684",
    "type": "gp",
    "name": "Crumpsall Medical Practice",
    "address": "Delaunays Road, Manchester",
    "postcode": "M8 5RB",
    "lat": 53.517898,
    "lng": -2.229499
  },
  {
    "id": "gp-n81059",
    "type": "gp",
    "name": "Culcheth Medical Centre",
    "address": "Jackson Avenue, Warrington",
    "postcode": "WA3 4DZ",
    "lat": 53.451661,
    "lng": -2.525547
  },
  {
    "id": "gp-n81062",
    "type": "gp",
    "name": "Cumberland House Surgery",
    "address": "Waters Green Medical Centre, Macclesfield",
    "postcode": "SK11 6JL",
    "lat": 53.258072,
    "lng": -2.122605
  },
  {
    "id": "gp-n84005",
    "type": "gp",
    "name": "Cumberland House Surgery",
    "address": "58 Scarisbrick New Road, Southport",
    "postcode": "PR8 6PQ",
    "lat": 53.639196,
    "lng": -2.989841
  },
  {
    "id": "gp-p82010",
    "type": "gp",
    "name": "Dalefield Surgery",
    "address": "Avondale Health Centre, Bolton",
    "postcode": "BL1 4JP",
    "lat": 53.588183,
    "lng": -2.451811
  },
  {
    "id": "gp-n81097",
    "type": "gp",
    "name": "Dallam Lane Medical Centre",
    "address": "20 Dallam Lane, Warrington",
    "postcode": "WA2 7NG",
    "lat": 53.392826,
    "lng": -2.595512
  },
  {
    "id": "gp-p84690",
    "type": "gp",
    "name": "Dam Head Medical Centre",
    "address": "1020 Rochdale Road, Manchester",
    "postcode": "M9 7HD",
    "lat": 53.526155,
    "lng": -2.212318
  },
  {
    "id": "gp-n81087",
    "type": "gp",
    "name": "Danebridge Medical Centre",
    "address": "London Road, Northwich",
    "postcode": "CW9 5HR",
    "lat": 53.258219,
    "lng": -2.512183
  },
  {
    "id": "gp-p81051",
    "type": "gp",
    "name": "Darwen Healthcare",
    "address": "James Street West, Darwen",
    "postcode": "BB3 1PY",
    "lat": 53.69576,
    "lng": -2.471425
  },
  {
    "id": "gp-p81140",
    "type": "gp",
    "name": "Darwen Healthlink",
    "address": "Darwen Health Centre, Darwen",
    "postcode": "BB3 1PY",
    "lat": 53.69576,
    "lng": -2.471425
  },
  {
    "id": "gp-p84066",
    "type": "gp",
    "name": "David Medical Centre",
    "address": "274 Barlow Moor Road, Manchester",
    "postcode": "M21 8HA",
    "lat": 53.431977,
    "lng": -2.268728
  },
  {
    "id": "gp-p91009",
    "type": "gp",
    "name": "Davyhulme Medical Centre",
    "address": "130 Broadway, Manchester",
    "postcode": "M41 7WJ",
    "lat": 53.459499,
    "lng": -2.366781
  },
  {
    "id": "gp-p82660",
    "type": "gp",
    "name": "Deane Clinic 1",
    "address": "Horsfield Street, Bolton",
    "postcode": "BL3 4LU",
    "lat": 53.567776,
    "lng": -2.464443
  },
  {
    "id": "gp-p82030",
    "type": "gp",
    "name": "Deane Medical Centre",
    "address": "155-157 Deane Road, Bolton",
    "postcode": "BL3 5AH",
    "lat": 53.572715,
    "lng": -2.441982
  },
  {
    "id": "gp-p87625",
    "type": "gp",
    "name": "Dearden Avenue Medical Practice",
    "address": "Little Hulton Health Centre, Manchester",
    "postcode": "M28 0BB",
    "lat": 53.527273,
    "lng": -2.418639
  },
  {
    "id": "gp-p91018",
    "type": "gp",
    "name": "Delamere Medical Practice",
    "address": "Delamere Avenue, Manchester",
    "postcode": "M32 0DF",
    "lat": 53.450859,
    "lng": -2.30738
  },
  {
    "id": "gp-p89018",
    "type": "gp",
    "name": "Denton Medical Practice",
    "address": "100 Ashton Road, Manchester",
    "postcode": "M34 3JE",
    "lat": 53.459953,
    "lng": -2.115523
  },
  {
    "id": "gp-n82093",
    "type": "gp",
    "name": "Derby Lane Medical Centre",
    "address": "88 Derby Lane, Liverpool",
    "postcode": "L13 3DN",
    "lat": 53.415934,
    "lng": -2.914294
  },
  {
    "id": "gp-n85015",
    "type": "gp",
    "name": "Devaney Med Ctr",
    "address": "40 Balls Road, Prenton",
    "postcode": "CH43 5RE",
    "lat": 53.385228,
    "lng": -3.03739
  },
  {
    "id": "gp-p84026",
    "type": "gp",
    "name": "Dickenson Road Medical Centre",
    "address": "357-359 Dickenson Road, Manchester",
    "postcode": "M13 0WQ",
    "lat": 53.456107,
    "lng": -2.202285
  },
  {
    "id": "gp-p84678",
    "type": "gp",
    "name": "Didsbury Medical Centre - Dr Whitaker",
    "address": "645 Wilmslow Road, Manchester",
    "postcode": "M20 6BA",
    "lat": 53.420386,
    "lng": -2.231819
  },
  {
    "id": "gp-p81711",
    "type": "gp",
    "name": "Dill Hall Surgery",
    "address": "Acorn Primary Care Centre, Accrington",
    "postcode": "BB5 1RT",
    "lat": 53.752343,
    "lng": -2.384874
  },
  {
    "id": "gp-n83014",
    "type": "gp",
    "name": "Dinas Lane Medical Centre",
    "address": "149 Dinas Lane, Liverpool",
    "postcode": "L36 2NW",
    "lat": 53.417404,
    "lng": -2.861513
  },
  {
    "id": "gp-n82033",
    "type": "gp",
    "name": "Dingle Park Practice",
    "address": "Park Street, Liverpool",
    "postcode": "L8 6QP",
    "lat": 53.386347,
    "lng": -2.972885
  },
  {
    "id": "gp-p89016",
    "type": "gp",
    "name": "Donneybrook Medical Centre",
    "address": "Clarendon Street, Hyde",
    "postcode": "SK14 2AH",
    "lat": 53.452647,
    "lng": -2.080237
  },
  {
    "id": "gp-n82003",
    "type": "gp",
    "name": "Dovecot Health Centre",
    "address": "Dovecot Family Health Ctr, Liverpool",
    "postcode": "L14 0NL",
    "lat": 53.417581,
    "lng": -2.878007
  },
  {
    "id": "gp-p81136",
    "type": "gp",
    "name": "Dr A Bisarya",
    "address": "Sandy Lane, Skelmersdale",
    "postcode": "WN8 8LA",
    "lat": 53.550182,
    "lng": -2.806747
  },
  {
    "id": "gp-p87654",
    "type": "gp",
    "name": "Dr A Chaudhry & Dr I Jeet",
    "address": "Great Clowes Street, Salford",
    "postcode": "M7 1RD",
    "lat": 53.493606,
    "lng": -2.258805
  },
  {
    "id": "gp-p86614",
    "type": "gp",
    "name": "Dr A Hamid",
    "address": "2Nd Floor Nye Bevan House, Rochdale",
    "postcode": "OL11 1DN",
    "lat": 53.611633,
    "lng": -2.154238
  },
  {
    "id": "gp-p81735",
    "type": "gp",
    "name": "Dr A Hussain",
    "address": "200 Miller Road, Preston",
    "postcode": "PR2 6NH",
    "lat": 53.770762,
    "lng": -2.657274
  },
  {
    "id": "gp-p92006",
    "type": "gp",
    "name": "Dr Ahmad & Ptnrs",
    "address": "Platt Bridge Health Centre, Wigan",
    "postcode": "WN2 5NG",
    "lat": 53.522295,
    "lng": -2.595924
  },
  {
    "id": "gp-p81685",
    "type": "gp",
    "name": "Dr Ali Guttridge Medical Centre",
    "address": "Deepdale Road, Preston",
    "postcode": "PR1 6LL",
    "lat": 53.769879,
    "lng": -2.691276
  },
  {
    "id": "gp-p81166",
    "type": "gp",
    "name": "Dr Bello'S Surgery",
    "address": "Acorn Primary Care Centre, Accrington",
    "postcode": "BB5 1RT",
    "lat": 53.752343,
    "lng": -2.384874
  },
  {
    "id": "gp-p81701",
    "type": "gp",
    "name": "Dr Dawoud'S Surgery",
    "address": "652 Preston Road, Chorley",
    "postcode": "PR6 7EH",
    "lat": 53.710599,
    "lng": -2.641594
  },
  {
    "id": "gp-p86002",
    "type": "gp",
    "name": "Dr Gwd Bhima",
    "address": "1St Floor, Bevan House, Rochdale",
    "postcode": "OL11 1DN",
    "lat": 53.611633,
    "lng": -2.154238
  },
  {
    "id": "gp-p81731",
    "type": "gp",
    "name": "Dr Jehangir (Sh)",
    "address": "Yarnspinners Primary Hcc, Nelson",
    "postcode": "BB9 7SR",
    "lat": 53.83803,
    "lng": -2.218913
  },
  {
    "id": "gp-n82646",
    "type": "gp",
    "name": "Dr Jude'S Practice - Riverside",
    "address": "Riverside Centre For Health, Liverpool",
    "postcode": "L8 6QP",
    "lat": 53.386347,
    "lng": -2.972885
  },
  {
    "id": "gp-p84637",
    "type": "gp",
    "name": "Dr Khan'S Practice",
    "address": "Clayton Health Centre, Manchester",
    "postcode": "M11 4EJ",
    "lat": 53.484324,
    "lng": -2.184155
  },
  {
    "id": "gp-p92042",
    "type": "gp",
    "name": "Dr Kk Chan & Partners",
    "address": "Seven Brooks Medical Centre, Manchester",
    "postcode": "M46 9DE",
    "lat": 53.524202,
    "lng": -2.489022
  },
  {
    "id": "gp-n83030",
    "type": "gp",
    "name": "Dr M Suares' Practice",
    "address": "Pilch Lane, Liverpool",
    "postcode": "L14 0JE",
    "lat": 53.414,
    "lng": -2.873585
  },
  {
    "id": "gp-n83608",
    "type": "gp",
    "name": "Dr Maassarani & Partners",
    "address": "Ebony Way, Liverpool",
    "postcode": "L33 1XT",
    "lat": 53.495216,
    "lng": -2.886559
  },
  {
    "id": "gp-p86619",
    "type": "gp",
    "name": "Dr Mb Ghafoor & Partners",
    "address": "1St Floor, Nye Bevan House, Rochdale",
    "postcode": "OL11 1DN",
    "lat": 53.611633,
    "lng": -2.154238
  },
  {
    "id": "gp-p82022",
    "type": "gp",
    "name": "Dr Rizwan And Dr Awan",
    "address": "Lindfield Drive, Bolton",
    "postcode": "BL1 3RG",
    "lat": 53.588338,
    "lng": -2.431736
  },
  {
    "id": "gp-p82629",
    "type": "gp",
    "name": "Dr S Naseef",
    "address": "Deane Road, Bolton",
    "postcode": "BL3 5HP",
    "lat": 53.572744,
    "lng": -2.446346
  },
  {
    "id": "gp-p92030",
    "type": "gp",
    "name": "Dr Seabrook",
    "address": "1 Wrightington Street, Wigan",
    "postcode": "WN1 2AZ",
    "lat": 53.551445,
    "lng": -2.632499
  },
  {
    "id": "gp-p92004",
    "type": "gp",
    "name": "Dr Tun & Partners",
    "address": "Hindley Health Centre, Wigan",
    "postcode": "WN2 3HQ",
    "lat": 53.532117,
    "lng": -2.583571
  },
  {
    "id": "gp-p92646",
    "type": "gp",
    "name": "Dr Vardhan'S Surgery",
    "address": "10 Higher Green Lane, Manchester",
    "postcode": "M29 7HG",
    "lat": 53.500786,
    "lng": -2.447912
  },
  {
    "id": "gp-p92635",
    "type": "gp",
    "name": "Dr Vasanth",
    "address": "Atherton Health Centre, Manchester",
    "postcode": "M46 0LE",
    "lat": 53.527505,
    "lng": -2.500811
  },
  {
    "id": "gp-n81031",
    "type": "gp",
    "name": "Drs Adey And Dancy",
    "address": "Tarporley Health Centre, Tarporley",
    "postcode": "CW6 0BE",
    "lat": 53.158995,
    "lng": -2.665522
  },
  {
    "id": "gp-p84032",
    "type": "gp",
    "name": "Drs Hanif & Bannuru",
    "address": "Clayton Health Centre, Manchester",
    "postcode": "M11 4EJ",
    "lat": 53.484324,
    "lng": -2.184155
  },
  {
    "id": "gp-p89021",
    "type": "gp",
    "name": "Dukinfield Medical Practice",
    "address": "20 Concord Way, Dukinfield",
    "postcode": "SK16 4DB",
    "lat": 53.476555,
    "lng": -2.083417
  },
  {
    "id": "gp-n82662",
    "type": "gp",
    "name": "Dunstan Village Group Practice",
    "address": "Earle Road Medical Centre, Liverpool",
    "postcode": "L7 6HD",
    "lat": 53.398892,
    "lng": -2.943016
  },
  {
    "id": "gp-p86019",
    "type": "gp",
    "name": "Durnford Medical Centre",
    "address": "113 Long Street, Manchester",
    "postcode": "M24 6DL",
    "lat": 53.554054,
    "lng": -2.197031
  },
  {
    "id": "gp-n82065",
    "type": "gp",
    "name": "Earle Road Medical Centre",
    "address": "131 Earle Road, Liverpool",
    "postcode": "L7 6HD",
    "lat": 53.398892,
    "lng": -2.943016
  },
  {
    "id": "gp-n81053",
    "type": "gp",
    "name": "Earnswood Medical Centre",
    "address": "Eagle Bridge Health Centre, Crewe",
    "postcode": "CW1 3AW",
    "lat": 53.098829,
    "lng": -2.45397
  },
  {
    "id": "gp-n85005",
    "type": "gp",
    "name": "Eastham Group Practice",
    "address": "47 Bridle Road, Wirral",
    "postcode": "CH62 6EE",
    "lat": 53.322299,
    "lng": -2.971892
  },
  {
    "id": "gp-p84051",
    "type": "gp",
    "name": "Eastlands Medical Centre",
    "address": "Clayton Health Centre, Manchester",
    "postcode": "M11 4EJ",
    "lat": 53.484324,
    "lng": -2.184155
  },
  {
    "id": "gp-n84011",
    "type": "gp",
    "name": "Eastview Surgery",
    "address": "81-83 Crosby Road North, Liverpool",
    "postcode": "L22 4QD",
    "lat": 53.481078,
    "lng": -3.023693
  },
  {
    "id": "gp-n83614",
    "type": "gp",
    "name": "Eccleston Medical Centre",
    "address": "4 Millfields Court, St. Helens",
    "postcode": "WA10 5RG",
    "lat": 53.452217,
    "lng": -2.769561
  },
  {
    "id": "gp-p86003",
    "type": "gp",
    "name": "Edenfield Road Surgery",
    "address": "Cutgate Shopping Precinct, Rochdale",
    "postcode": "OL11 5AQ",
    "lat": 53.622297,
    "lng": -2.188672
  },
  {
    "id": "gp-p82034",
    "type": "gp",
    "name": "Edgworth Medical Centre",
    "address": "Egerton & Dunscar Health Centre, Bolton",
    "postcode": "BL7 9RG",
    "lat": 53.617605,
    "lng": -2.426381
  },
  {
    "id": "gp-n85629",
    "type": "gp",
    "name": "Egremont Med Ctr",
    "address": "9 King Street, Wallasey",
    "postcode": "CH44 8AT",
    "lat": 53.418817,
    "lng": -3.027343
  },
  {
    "id": "gp-p87624",
    "type": "gp",
    "name": "Ellenbrook Medical Centre",
    "address": "14 Morston Close, Manchester",
    "postcode": "M28 1PB",
    "lat": 53.511202,
    "lng": -2.41355
  },
  {
    "id": "gp-n82018",
    "type": "gp",
    "name": "Ellergreen Medical Centre",
    "address": "24 Carr Lane, Liverpool",
    "postcode": "L11 2YA",
    "lat": 53.445432,
    "lng": -2.919309
  },
  {
    "id": "gp-p92028",
    "type": "gp",
    "name": "Elliott Street Surgery",
    "address": "145 Elliott Street, Manchester",
    "postcode": "M29 8FL",
    "lat": 53.514151,
    "lng": -2.469211
  },
  {
    "id": "gp-p81208",
    "type": "gp",
    "name": "Excel Primary Care",
    "address": "Birleywood Health Centre, Skelmersdale",
    "postcode": "WN8 9BW",
    "lat": 53.538343,
    "lng": -2.758901
  },
  {
    "id": "gp-p83001",
    "type": "gp",
    "name": "Fairfax Group Practice",
    "address": "Prestwich Health Centre, Manchester",
    "postcode": "M25 1BT",
    "lat": 53.533845,
    "lng": -2.283568
  },
  {
    "id": "gp-n82113",
    "type": "gp",
    "name": "Fairfield Medical Centre",
    "address": "2A Penvalley Crescent, Liverpool",
    "postcode": "L6 3BY",
    "lat": 53.419412,
    "lng": -2.947804
  },
  {
    "id": "gp-p84639",
    "type": "gp",
    "name": "Fallowfield Medical Centre",
    "address": "75 Ladybarn Lane, Manchester",
    "postcode": "M14 6YL",
    "lat": 53.438839,
    "lng": -2.213508
  },
  {
    "id": "gp-p92639",
    "type": "gp",
    "name": "Family Medical Practice",
    "address": "Golborne Health Centre, Warrington",
    "postcode": "WA3 3GS",
    "lat": 53.478431,
    "lng": -2.595867
  },
  {
    "id": "gp-p81694",
    "type": "gp",
    "name": "Family Practice",
    "address": "Barbara Castle Way Hc, Blackburn",
    "postcode": "BB2 1AX",
    "lat": 53.750392,
    "lng": -2.488673
  },
  {
    "id": "gp-p86606",
    "type": "gp",
    "name": "Family Practice",
    "address": "133 Bowness Road, Manchester",
    "postcode": "M24 4EN",
    "lat": 53.55473,
    "lng": -2.216356
  },
  {
    "id": "gp-p88005",
    "type": "gp",
    "name": "Family Surgery",
    "address": "The Family Surgery, Stockport",
    "postcode": "SK5 6RN",
    "lat": 53.44592,
    "lng": -2.156963
  },
  {
    "id": "gp-p91617",
    "type": "gp",
    "name": "Family Surgery",
    "address": "94 Navigation Road, Altrincham",
    "postcode": "WA14 1LL",
    "lat": 53.39621,
    "lng": -2.346055
  },
  {
    "id": "gp-p82652",
    "type": "gp",
    "name": "Farnworth Family Practice",
    "address": "Frederick Street, Bolton",
    "postcode": "BL4 9AH",
    "lat": 53.546138,
    "lng": -2.397758
  },
  {
    "id": "gp-n81048",
    "type": "gp",
    "name": "Fearnhead Cross Med.Ctr.",
    "address": "25 Fearnhead Cross, Warrington",
    "postcode": "WA2 0HD",
    "lat": 53.411088,
    "lng": -2.559107
  },
  {
    "id": "gp-p81157",
    "type": "gp",
    "name": "Fernbank Surgery",
    "address": "Lytham Pcc, Lytham St Annes",
    "postcode": "FY8 5DZ",
    "lat": 53.739574,
    "lng": -2.950368
  },
  {
    "id": "gp-p84605",
    "type": "gp",
    "name": "Fernclough Surgery",
    "address": "Tavistock Square, Manchester",
    "postcode": "M9 5RD",
    "lat": 53.505906,
    "lng": -2.216151
  },
  {
    "id": "gp-p82037",
    "type": "gp",
    "name": "Fig Tree Medical Practice",
    "address": "Frederick Street, Bolton",
    "postcode": "BL4 9AH",
    "lat": 53.546138,
    "lng": -2.397758
  },
  {
    "id": "gp-p88042",
    "type": "gp",
    "name": "Finney Lane Surgery",
    "address": "Finney Lane, Cheadle",
    "postcode": "SK8 3JD",
    "lat": 53.369894,
    "lng": -2.229275
  },
  {
    "id": "gp-n81035",
    "type": "gp",
    "name": "Fir Park Medical Centre",
    "address": "Upton Rocks, Widnes",
    "postcode": "WA8 9DT",
    "lat": 53.381589,
    "lng": -2.746038
  },
  {
    "id": "gp-n82676",
    "type": "gp",
    "name": "Fir Tree",
    "address": "Fir Tree Drive South, Liverpool",
    "postcode": "L12 0JE",
    "lat": 53.449306,
    "lng": -2.878691
  },
  {
    "id": "gp-n81025",
    "type": "gp",
    "name": "Firdale Medical Centre",
    "address": "Firdale Road, Northwich",
    "postcode": "CW8 4AZ",
    "lat": 53.25382,
    "lng": -2.537386
  },
  {
    "id": "gp-p91021",
    "type": "gp",
    "name": "Firsway Health Centre",
    "address": "121 Firs Way, Sale",
    "postcode": "M33 4BR",
    "lat": 53.421305,
    "lng": -2.355468
  },
  {
    "id": "gp-p81169",
    "type": "gp",
    "name": "Fishergate Hill Surgery",
    "address": "50 Fishergate Hill, Preston",
    "postcode": "PR1 8DN",
    "lat": 53.754455,
    "lng": -2.714363
  },
  {
    "id": "gp-p84004",
    "type": "gp",
    "name": "Five Oaks Family Practice",
    "address": "47 Graham Street, Manchester",
    "postcode": "M11 3BB",
    "lat": 53.475706,
    "lng": -2.194469
  },
  {
    "id": "gp-p81668",
    "type": "gp",
    "name": "Fleetwood Surgery",
    "address": "West View Health Village, Fleetwood",
    "postcode": "FY7 8GU",
    "lat": 53.91268,
    "lng": -3.033837
  },
  {
    "id": "gp-p91029",
    "type": "gp",
    "name": "Flixton Road Medical Centre",
    "address": "132 Flixton Road, Manchester",
    "postcode": "M41 5BG",
    "lat": 53.448267,
    "lng": -2.362664
  },
  {
    "id": "gp-p84042",
    "type": "gp",
    "name": "Florence House Medical Practice",
    "address": "1344 Ashton Old Road, Manchester",
    "postcode": "M11 1JG",
    "lat": 53.472591,
    "lng": -2.162034
  },
  {
    "id": "gp-n81056",
    "type": "gp",
    "name": "Folly Lane Medical Centre",
    "address": "Folly Lane, Warrington",
    "postcode": "WA5 0LU",
    "lat": 53.398135,
    "lng": -2.606866
  },
  {
    "id": "gp-n84029",
    "type": "gp",
    "name": "Ford Medical Practice",
    "address": "93 Gorsey Lane, Liverpool",
    "postcode": "L21 0DF",
    "lat": 53.481323,
    "lng": -2.996876
  },
  {
    "id": "gp-n81102",
    "type": "gp",
    "name": "Fountains Medical Practice",
    "address": "Fountains Health, Chester",
    "postcode": "CH1 4DS",
    "lat": 53.195108,
    "lng": -2.892974
  },
  {
    "id": "gp-n83021",
    "type": "gp",
    "name": "Four Acre Health Centre",
    "address": "Burnage Avenue, St. Helens",
    "postcode": "WA9 4QB",
    "lat": 53.418906,
    "lng": -2.723398
  },
  {
    "id": "gp-p92602",
    "type": "gp",
    "name": "Foxleigh Family Surgery",
    "address": "Henry Street, Leigh",
    "postcode": "WN7 2PE",
    "lat": 53.493535,
    "lng": -2.511926
  },
  {
    "id": "gp-n82062",
    "type": "gp",
    "name": "Fulwood Green Medical Ctr",
    "address": "2A Jericho Lane, Liverpool",
    "postcode": "L17 5AR",
    "lat": 53.369457,
    "lng": -2.938037
  },
  {
    "id": "gp-p81127",
    "type": "gp",
    "name": "Gab Healthcare",
    "address": "32-34 St Thomas'S Road, Chorley",
    "postcode": "PR7 1HR",
    "lat": 53.653726,
    "lng": -2.635888
  },
  {
    "id": "gp-p83620",
    "type": "gp",
    "name": "Garden City Medical Centre",
    "address": "1A Garden City, Bury",
    "postcode": "BL0 9TN",
    "lat": 53.629531,
    "lng": -2.330375
  },
  {
    "id": "gp-n81081",
    "type": "gp",
    "name": "Garden Lane Medical Ctr.",
    "address": "19 Garden Lane, Chester",
    "postcode": "CH1 4EN",
    "lat": 53.19529,
    "lng": -2.896361
  },
  {
    "id": "gp-p81006",
    "type": "gp",
    "name": "Garstang Medical Practice",
    "address": "Garstang Medical Centre, Preston",
    "postcode": "PR3 1PB",
    "lat": 53.897295,
    "lng": -2.783103
  },
  {
    "id": "gp-n82004",
    "type": "gp",
    "name": "Garston Family Health Centre",
    "address": "South Liverpool Nhs T/C, Liverpool",
    "postcode": "L19 2LW",
    "lat": 53.353926,
    "lng": -2.89683
  },
  {
    "id": "gp-n82084",
    "type": "gp",
    "name": "Gateacre Brow Surgery",
    "address": "1 Gateacre Brow, Liverpool",
    "postcode": "L25 3PA",
    "lat": 53.383306,
    "lng": -2.8632
  },
  {
    "id": "gp-n82050",
    "type": "gp",
    "name": "Gateacre Medical Centre",
    "address": "49 Belle Vale Road, Liverpool",
    "postcode": "L25 2PA",
    "lat": 53.38545,
    "lng": -2.85753
  },
  {
    "id": "gp-p88024",
    "type": "gp",
    "name": "Gatley Medical Centre",
    "address": "Old Hall Road, Cheadle",
    "postcode": "SK8 4DG",
    "lat": 53.39381,
    "lng": -2.235344
  },
  {
    "id": "gp-n82087",
    "type": "gp",
    "name": "Gillmoss Medical Centre",
    "address": "48 Petherick Road, Liverpool",
    "postcode": "L11 0AG",
    "lat": 53.459474,
    "lng": -2.897848
  },
  {
    "id": "gp-n85031",
    "type": "gp",
    "name": "Gladstone Med Ctr",
    "address": "241-243 Old Chester Road, Birkenhead",
    "postcode": "CH42 3TD",
    "lat": 53.37556,
    "lng": -3.015029
  },
  {
    "id": "gp-p81072",
    "type": "gp",
    "name": "Glenroyd Medical Centre",
    "address": "Moor Park Health & Leisure Centre, Blackpool",
    "postcode": "FY2 0JG",
    "lat": 53.849569,
    "lng": -3.033498
  },
  {
    "id": "gp-p85622",
    "type": "gp",
    "name": "Glodwick Medical Practice",
    "address": "Glodwick Primary Care Centre, Oldham",
    "postcode": "OL4 1YN",
    "lat": 53.537802,
    "lng": -2.095093
  },
  {
    "id": "gp-n84004",
    "type": "gp",
    "name": "Glovers Lane Surgery",
    "address": "Glovers Lane, Bootle",
    "postcode": "L30 5TA",
    "lat": 53.488314,
    "lng": -2.971961
  },
  {
    "id": "gp-p92630",
    "type": "gp",
    "name": "Golborne Surgery",
    "address": "Golborne Health Centre, Warrington",
    "postcode": "WA3 3GS",
    "lat": 53.478431,
    "lng": -2.595867
  },
  {
    "id": "gp-p89011",
    "type": "gp",
    "name": "Gordon Street Medical Centre",
    "address": "171 Mossley Road, Ashton-Under-Lyne",
    "postcode": "OL6 6NE",
    "lat": 53.492926,
    "lng": -2.078052
  },
  {
    "id": "gp-p84028",
    "type": "gp",
    "name": "Gorton Medical Centre",
    "address": "First Floor, Manchester",
    "postcode": "M18 8HE",
    "lat": 53.462189,
    "lng": -2.175881
  },
  {
    "id": "gp-n82091",
    "type": "gp",
    "name": "Gp Practice Riverside (Dr Jude)",
    "address": "Riverside Ctr For Health, Liverpool",
    "postcode": "L8 6QP",
    "lat": 53.386347,
    "lng": -2.972885
  },
  {
    "id": "gp-n84024",
    "type": "gp",
    "name": "Grange Surgery",
    "address": "41 York Road, Southport",
    "postcode": "PR8 2AD",
    "lat": 53.637188,
    "lng": -3.012752
  },
  {
    "id": "gp-p81154",
    "type": "gp",
    "name": "Granville House Med Ctre",
    "address": "Granville Street, Chorley",
    "postcode": "PR6 9PY",
    "lat": 53.615313,
    "lng": -2.598458
  },
  {
    "id": "gp-p92607",
    "type": "gp",
    "name": "Grasmere Surgery",
    "address": "Leigh Health Centre, Leigh",
    "postcode": "WN7 1HR",
    "lat": 53.503236,
    "lng": -2.511455
  },
  {
    "id": "gp-n82009",
    "type": "gp",
    "name": "Grassendale Medical Centre",
    "address": "23 Darby Road, Liverpool",
    "postcode": "L19 9BP",
    "lat": 53.364423,
    "lng": -2.911297
  },
  {
    "id": "gp-n85032",
    "type": "gp",
    "name": "Greasby Group Practice",
    "address": "Greasby Health Centre, Wirral",
    "postcode": "CH49 3AT",
    "lat": 53.377627,
    "lng": -3.121417
  },
  {
    "id": "gp-n84621",
    "type": "gp",
    "name": "Great Crosby And Thornton",
    "address": "Thornton Family Hc, Liverpool",
    "postcode": "L23 1TQ",
    "lat": 53.497082,
    "lng": -2.997758
  },
  {
    "id": "gp-p81059",
    "type": "gp",
    "name": "Great Eccleston Hlth Ctr",
    "address": "Raikes Road, Preston",
    "postcode": "PR3 0ZA",
    "lat": 53.855187,
    "lng": -2.867908
  },
  {
    "id": "gp-p81730",
    "type": "gp",
    "name": "Great Harwood Medical Group",
    "address": "Great Harwood Health Centre, Blackburn",
    "postcode": "BB6 7QR",
    "lat": 53.788368,
    "lng": -2.403646
  },
  {
    "id": "gp-n82669",
    "type": "gp",
    "name": "Great Homer Street Medical Centre",
    "address": "Mere Lane N'Hood Hc, Liverpool",
    "postcode": "L5 0QW",
    "lat": 53.425824,
    "lng": -2.968654
  },
  {
    "id": "gp-p82633",
    "type": "gp",
    "name": "Great Lever One",
    "address": "Rupert Street, Bolton",
    "postcode": "BL3 6RN",
    "lat": 53.56564,
    "lng": -2.432441
  },
  {
    "id": "gp-n81050",
    "type": "gp",
    "name": "Great Sutton Medical Centre",
    "address": "Old Chester Road, Ellesmere Port",
    "postcode": "CH66 3NZ",
    "lat": 53.27652,
    "lng": -2.936645
  },
  {
    "id": "gp-n82090",
    "type": "gp",
    "name": "Green Lane Medical Centre",
    "address": "15 Green Lane, Liverpool",
    "postcode": "L13 7DY",
    "lat": 53.424129,
    "lng": -2.928631
  },
  {
    "id": "gp-n82059",
    "type": "gp",
    "name": "Greenbank Drive Surgery",
    "address": "8 Greenbank Drive, Liverpool",
    "postcode": "L17 1AW",
    "lat": 53.389786,
    "lng": -2.930424
  },
  {
    "id": "gp-p85021",
    "type": "gp",
    "name": "Greenbank Medical Practice",
    "address": "Nugget Street, Oldham",
    "postcode": "OL4 1BN",
    "lat": 53.537945,
    "lng": -2.096165
  },
  {
    "id": "gp-n82079",
    "type": "gp",
    "name": "Greenbank Road Surgery",
    "address": "1B Greenbank Road, Liverpool",
    "postcode": "L18 1HG",
    "lat": 53.387664,
    "lng": -2.924725
  },
  {
    "id": "gp-n81089",
    "type": "gp",
    "name": "Greenbank Surgery",
    "address": "274 Manchester Road, Warrington",
    "postcode": "WA1 3RB",
    "lat": 53.396612,
    "lng": -2.571248
  },
  {
    "id": "gp-p83027",
    "type": "gp",
    "name": "Greyland Medical Centre",
    "address": "468 Bury Old Road, Manchester",
    "postcode": "M25 1NL",
    "lat": 53.537682,
    "lng": -2.27617
  },
  {
    "id": "gp-n81068",
    "type": "gp",
    "name": "Grosvenor Medical Centre",
    "address": "Grosvenor Street, Crewe",
    "postcode": "CW1 3HB",
    "lat": 53.102362,
    "lng": -2.453858
  },
  {
    "id": "gp-p89026",
    "type": "gp",
    "name": "Grosvenor Medical Centre",
    "address": "62 Grosvenor Street, Stalybridge",
    "postcode": "SK15 1RZ",
    "lat": 53.481468,
    "lng": -2.059105
  },
  {
    "id": "gp-n81066",
    "type": "gp",
    "name": "Grove House Practice",
    "address": "St. Pauls Health Centre, Runcorn",
    "postcode": "WA7 1AB",
    "lat": 53.341187,
    "lng": -2.732462
  },
  {
    "id": "gp-n85052",
    "type": "gp",
    "name": "Grove Rd Surgery",
    "address": "71 Grove Road, Wallasey",
    "postcode": "CH45 3HF",
    "lat": 53.429689,
    "lng": -3.063802
  },
  {
    "id": "gp-n81012",
    "type": "gp",
    "name": "Guardian Street Med/Ctr",
    "address": "Guardian Street, Warrington",
    "postcode": "WA5 1UD",
    "lat": 53.391917,
    "lng": -2.606296
  },
  {
    "id": "gp-p81647",
    "type": "gp",
    "name": "Gutteridge Medical Centre",
    "address": "Guttridge Medical Centre, Preston",
    "postcode": "PR1 6LL",
    "lat": 53.769879,
    "lng": -2.691276
  },
  {
    "id": "gp-p81084",
    "type": "gp",
    "name": "Hall Green Surgery",
    "address": "164 Ormskirk Road, Skelmersdale",
    "postcode": "WN8 0AB",
    "lat": 53.540745,
    "lng": -2.741349
  },
  {
    "id": "gp-n83017",
    "type": "gp",
    "name": "Hall Street Medical Centre",
    "address": "28-30 Hall Street, St Helens",
    "postcode": "WA10 1DW",
    "lat": 53.452666,
    "lng": -2.732479
  },
  {
    "id": "gp-p82029",
    "type": "gp",
    "name": "Halliwell Surgery 2",
    "address": "Lindfield Drive, Bolton",
    "postcode": "BL1 3RG",
    "lat": 53.588338,
    "lng": -2.431736
  },
  {
    "id": "gp-p82626",
    "type": "gp",
    "name": "Halliwell Surgery 3",
    "address": "Lindfield Drive, Bolton",
    "postcode": "BL1 3RG",
    "lat": 53.588338,
    "lng": -2.431736
  },
  {
    "id": "gp-n85021",
    "type": "gp",
    "name": "Hamilton Med Ctr",
    "address": "86 Market Street, Birkenhead",
    "postcode": "CH41 6AJ",
    "lat": 53.393066,
    "lng": -3.018678
  },
  {
    "id": "gp-n81070",
    "type": "gp",
    "name": "Handforth Health Centre",
    "address": "The Green, Wilmslow",
    "postcode": "SK9 3HL",
    "lat": 53.347666,
    "lng": -2.214495
  },
  {
    "id": "gp-p81732",
    "type": "gp",
    "name": "Harambee Surgery",
    "address": "27 Skipton Road, Colne",
    "postcode": "BB8 8QU",
    "lat": 53.847723,
    "lng": -2.136794
  },
  {
    "id": "gp-p82016",
    "type": "gp",
    "name": "Harwood Medical Centre",
    "address": "Hough Fold Way, Bolton",
    "postcode": "BL2 3HQ",
    "lat": 53.604085,
    "lng": -2.398151
  },
  {
    "id": "gp-p81099",
    "type": "gp",
    "name": "Haslingden Healthcare",
    "address": "Haslingden Health Centre, Rossendale",
    "postcode": "BB4 5SL",
    "lat": 53.703968,
    "lng": -2.324673
  },
  {
    "id": "gp-n81043",
    "type": "gp",
    "name": "Haslington Surgery",
    "address": "Crewe Road, Crewe",
    "postcode": "CW1 5QY",
    "lat": 53.0977,
    "lng": -2.394938
  },
  {
    "id": "gp-p89013",
    "type": "gp",
    "name": "Hattersley Group Practice",
    "address": "Hattersley Road East, Hyde",
    "postcode": "SK14 3EH",
    "lat": 53.450245,
    "lng": -2.027425
  },
  {
    "id": "gp-p89014",
    "type": "gp",
    "name": "Haughton Thornley Medical Centres",
    "address": "Thornley House Medical Centre, Hyde",
    "postcode": "SK14 1JY",
    "lat": 53.446763,
    "lng": -2.076115
  },
  {
    "id": "gp-p84067",
    "type": "gp",
    "name": "Hazeldene Medical Centre",
    "address": "97 Moston Lane East, Manchester",
    "postcode": "M40 3HD",
    "lat": 53.516203,
    "lng": -2.161371
  },
  {
    "id": "gp-p81212",
    "type": "gp",
    "name": "Hazelvalley Family Practice",
    "address": "7-9 Manchester Road, Rossendale",
    "postcode": "BB4 5SL",
    "lat": 53.703968,
    "lng": -2.324673
  },
  {
    "id": "gp-p86602",
    "type": "gp",
    "name": "Heady Hill Surgery",
    "address": "114 Bury New Road, Heywood",
    "postcode": "OL10 4RG",
    "lat": 53.593673,
    "lng": -2.241619
  },
  {
    "id": "gp-p88023",
    "type": "gp",
    "name": "Heald Green Health Centre 2",
    "address": "Heald Green Health Centre, Cheadle",
    "postcode": "SK8 3JD",
    "lat": 53.369894,
    "lng": -2.229275
  },
  {
    "id": "gp-p86013",
    "type": "gp",
    "name": "Healey Surgery",
    "address": "Whitworth Road, Rochdale",
    "postcode": "OL12 0SN",
    "lat": 53.633103,
    "lng": -2.162785
  },
  {
    "id": "gp-n81009",
    "type": "gp",
    "name": "Heath Lane Medical Centre",
    "address": "Heath Lane, Chester",
    "postcode": "CH3 5UJ",
    "lat": 53.188977,
    "lng": -2.863842
  },
  {
    "id": "gp-n85037",
    "type": "gp",
    "name": "Heatherlands Med Ctr",
    "address": "396 New Hey Road, Wirral",
    "postcode": "CH49 9DA",
    "lat": 53.381492,
    "lng": -3.089542
  },
  {
    "id": "gp-p82031",
    "type": "gp",
    "name": "Heaton Medical Centre",
    "address": "2 Lucy Street, Bolton",
    "postcode": "BL1 5PU",
    "lat": 53.587976,
    "lng": -2.46832
  },
  {
    "id": "gp-p88008",
    "type": "gp",
    "name": "Heaton Mersey Med.Pract.",
    "address": "460 Didsbury Road, Stockport",
    "postcode": "SK4 3BT",
    "lat": 53.412535,
    "lng": -2.205117
  },
  {
    "id": "gp-p88026",
    "type": "gp",
    "name": "Heaton Moor Medical Group",
    "address": "32 Heaton Moor Road, Stockport",
    "postcode": "SK4 4NX",
    "lat": 53.424835,
    "lng": -2.180391
  },
  {
    "id": "gp-p88011",
    "type": "gp",
    "name": "Heaton Norris Medical Practice",
    "address": "Cheviot Close, Stockport",
    "postcode": "SK4 1JX",
    "lat": 53.416548,
    "lng": -2.167929
  },
  {
    "id": "gp-n81005",
    "type": "gp",
    "name": "Helsby Health Centre",
    "address": "Lower Robin Hood Lane, Frodsham",
    "postcode": "WA6 0BW",
    "lat": 53.270482,
    "lng": -2.770521
  },
  {
    "id": "gp-n81041",
    "type": "gp",
    "name": "Helsby Street Med/Ctr",
    "address": "2 Helsby Street, Warrington",
    "postcode": "WA1 3AW",
    "lat": 53.394996,
    "lng": -2.576324
  },
  {
    "id": "gp-p86016",
    "type": "gp",
    "name": "Heywood Health",
    "address": "Argyle Street Medical Centre, Heywood",
    "postcode": "OL10 3SD",
    "lat": 53.587386,
    "lng": -2.239333
  },
  {
    "id": "gp-p88623",
    "type": "gp",
    "name": "High Lane Medical Centre",
    "address": "The Village Green, Stockport",
    "postcode": "SK6 8DR",
    "lat": 53.364995,
    "lng": -2.075293
  },
  {
    "id": "gp-n84003",
    "type": "gp",
    "name": "High Pastures Surgery",
    "address": "138 Liverpool Road North, Liverpool",
    "postcode": "L31 2HW",
    "lat": 53.519395,
    "lng": -2.946534
  },
  {
    "id": "gp-n81040",
    "type": "gp",
    "name": "High Street Practice Winsford",
    "address": "Dene Drive, Winsford",
    "postcode": "CW7 1AT",
    "lat": 53.191333,
    "lng": -2.530289
  },
  {
    "id": "gp-n81013",
    "type": "gp",
    "name": "High Street Surgery",
    "address": "Waters Green Medical Centre, Macclesfield",
    "postcode": "SK11 6JL",
    "lat": 53.258072,
    "lng": -2.122605
  },
  {
    "id": "gp-p92012",
    "type": "gp",
    "name": "High Street Surgery",
    "address": "Golborne Health Centre, Warrington",
    "postcode": "WA3 3GS",
    "lat": 53.478431,
    "lng": -2.595867
  },
  {
    "id": "gp-p81699",
    "type": "gp",
    "name": "Higher Heys Surgery",
    "address": "Oswaldtwistle, Accrington",
    "postcode": "BB5 3BP",
    "lat": 53.74088,
    "lng": -2.394093
  },
  {
    "id": "gp-p81074",
    "type": "gp",
    "name": "Highfield Surgery",
    "address": "South Shore Primary Care Centre, Blackpool",
    "postcode": "FY4 1TJ",
    "lat": 53.781416,
    "lng": -3.04738
  },
  {
    "id": "gp-n84626",
    "type": "gp",
    "name": "Hightown Village Surgery",
    "address": "1 St Georges Road, Liverpool",
    "postcode": "L38 3RY",
    "lat": 53.530098,
    "lng": -3.058366
  },
  {
    "id": "gp-n82116",
    "type": "gp",
    "name": "Hillfoot Health",
    "address": "Hunts Cross Health Centre, Liverpool",
    "postcode": "L25 0ND",
    "lat": 53.359201,
    "lng": -2.859151
  },
  {
    "id": "gp-n83621",
    "type": "gp",
    "name": "Hillside House Surgery",
    "address": "The Bluebell Centre, Liverpool",
    "postcode": "L36 7XY",
    "lat": 53.419542,
    "lng": -2.842807
  },
  {
    "id": "gp-n81007",
    "type": "gp",
    "name": "Holes Lane Medical Ltd.",
    "address": "The Surgery, Warrington",
    "postcode": "WA1 4NE",
    "lat": 53.399844,
    "lng": -2.545137
  },
  {
    "id": "gp-p81077",
    "type": "gp",
    "name": "Holland House Surgery",
    "address": "Lytham Primary Care Centre, Lytham St Annes",
    "postcode": "FY8 5DZ",
    "lat": 53.739574,
    "lng": -2.950368
  },
  {
    "id": "gp-n83605",
    "type": "gp",
    "name": "Hollies Medical Centre",
    "address": "Hollies Road, Liverpool",
    "postcode": "L26 0TH",
    "lat": 53.367884,
    "lng": -2.828607
  },
  {
    "id": "gp-p81721",
    "type": "gp",
    "name": "Hollins Grove Surgery",
    "address": "153 Blackburn Road, Darwen",
    "postcode": "BB3 1ET",
    "lat": 53.705362,
    "lng": -2.47747
  },
  {
    "id": "gp-n85022",
    "type": "gp",
    "name": "Holmlands Med Ctr",
    "address": "16-20 Holmlands Dr, Oxton, Prenton",
    "postcode": "CH43 0TX",
    "lat": 53.372746,
    "lng": -3.060475
  },
  {
    "id": "gp-n81092",
    "type": "gp",
    "name": "Hope Farm Medical Centre",
    "address": "Hope Farm Road, Ellesmere Port",
    "postcode": "CH66 2WW",
    "lat": 53.265207,
    "lng": -2.923444
  },
  {
    "id": "gp-p85014",
    "type": "gp",
    "name": "Hopwood House Medical Practice",
    "address": "Hopwood House, Oldham",
    "postcode": "OL4 1JN",
    "lat": 53.542125,
    "lng": -2.095465
  },
  {
    "id": "gp-p86023",
    "type": "gp",
    "name": "Hopwood Medical Centre",
    "address": "1-6 Walton Street, Heywood",
    "postcode": "OL10 2BS",
    "lat": 53.587159,
    "lng": -2.21205
  },
  {
    "id": "gp-n82663",
    "type": "gp",
    "name": "Hornspit Medical Centre",
    "address": "32 Hornspit Lane, Liverpool",
    "postcode": "L12 5LT",
    "lat": 53.436681,
    "lng": -2.915341
  },
  {
    "id": "gp-n81119",
    "type": "gp",
    "name": "Hough Green Health Park",
    "address": "Hough Green Road, Widnes",
    "postcode": "WA8 4PF",
    "lat": 53.378803,
    "lng": -2.768553
  },
  {
    "id": "gp-n85059",
    "type": "gp",
    "name": "Hoylake & Meols Medical Ctr",
    "address": "Warwick House, Wirral",
    "postcode": "CH47 8XA",
    "lat": 53.399865,
    "lng": -3.155587
  },
  {
    "id": "gp-n85046",
    "type": "gp",
    "name": "Hoylake Rd Met Ctr",
    "address": "314 Hoylake Road, Wirral",
    "postcode": "CH46 6DE",
    "lat": 53.39931,
    "lng": -3.116602
  },
  {
    "id": "gp-p89020",
    "type": "gp",
    "name": "Ht Practice",
    "address": "156 Stockport Road, Ashton-Under-Lyne",
    "postcode": "OL7 0NW",
    "lat": 53.478322,
    "lng": -2.110496
  },
  {
    "id": "gp-p88025",
    "type": "gp",
    "name": "Hulme Hall Medical Group",
    "address": "Smithy Green, Hulme Hall Road, Cheadle",
    "postcode": "SK8 6LU",
    "lat": 53.366492,
    "lng": -2.191356
  },
  {
    "id": "gp-n81044",
    "type": "gp",
    "name": "Hungerford Medical Centre",
    "address": "School Crescent, Crewe",
    "postcode": "CW1 5HA",
    "lat": 53.097886,
    "lng": -2.427004
  },
  {
    "id": "gp-p83621",
    "type": "gp",
    "name": "Huntley Mount Medical Centre",
    "address": "Huntley Mount Road, Bury",
    "postcode": "BL9 6JA",
    "lat": 53.600217,
    "lng": -2.278587
  },
  {
    "id": "gp-p81165",
    "type": "gp",
    "name": "Ightenhill Medical Centre",
    "address": "Tabor Street, Burnley",
    "postcode": "BB12 0HL",
    "lat": 53.793405,
    "lng": -2.267271
  },
  {
    "id": "gp-p81118",
    "type": "gp",
    "name": "Ilex View Medical Practice",
    "address": "Rossendale Primary Health Cc, Rossendale",
    "postcode": "BB4 7PL",
    "lat": 53.700825,
    "lng": -2.280662
  },
  {
    "id": "gp-p92620",
    "type": "gp",
    "name": "Ince Surgery",
    "address": "Clare House, Wigan",
    "postcode": "WN3 4NW",
    "lat": 53.534937,
    "lng": -2.614585
  },
  {
    "id": "gp-p86017",
    "type": "gp",
    "name": "Inspire Medical Centre",
    "address": "2Nd Flr Croft Shifa Hc, Rochdale",
    "postcode": "OL16 2UY",
    "lat": 53.622762,
    "lng": -2.138252
  },
  {
    "id": "gp-p81027",
    "type": "gp",
    "name": "Irwell Medical Practice",
    "address": "Irwell Medical Centre, Bacup",
    "postcode": "OL13 9NR",
    "lat": 53.699759,
    "lng": -2.198274
  },
  {
    "id": "gp-n82081",
    "type": "gp",
    "name": "Islington House Medical Centre",
    "address": "45 Everton Road, Liverpool",
    "postcode": "L6 2EH",
    "lat": 53.415808,
    "lng": -2.964605
  },
  {
    "id": "gp-p81196",
    "type": "gp",
    "name": "Issa Medical Centre - Patel",
    "address": "73 St Gregory Road, Preston",
    "postcode": "PR1 6YA",
    "lat": 53.770309,
    "lng": -2.686837
  },
  {
    "id": "gp-p85601",
    "type": "gp",
    "name": "Jalal Practice",
    "address": "Integrated Care Centre, Oldham",
    "postcode": "OL1 1NL",
    "lat": 53.54384,
    "lng": -2.116942
  },
  {
    "id": "gp-n82083",
    "type": "gp",
    "name": "Jubilee Medical Centre",
    "address": "52-54 Croxteth Hall Lane, Liverpool",
    "postcode": "L11 4UG",
    "lat": 53.448645,
    "lng": -2.902288
  },
  {
    "id": "gp-p85615",
    "type": "gp",
    "name": "Kapur Family Care",
    "address": "Werneth Primary Care Centre, Oldham",
    "postcode": "OL9 7AY",
    "lat": 53.53731,
    "lng": -2.130534
  },
  {
    "id": "gp-p82007",
    "type": "gp",
    "name": "Kearsley Medical Centre",
    "address": "Jackson Street, Bolton",
    "postcode": "BL4 8EP",
    "lat": 53.543221,
    "lng": -2.382836
  },
  {
    "id": "gp-n81120",
    "type": "gp",
    "name": "Kelsall Medical Centre",
    "address": "7 Green Hill Road, Tarporley",
    "postcode": "CW6 0SN",
    "lat": 53.20706,
    "lng": -2.717967
  },
  {
    "id": "gp-n81002",
    "type": "gp",
    "name": "Kenmore Medical Centre",
    "address": "60-62 Alderley Road, Wilmslow",
    "postcode": "SK9 1PA",
    "lat": 53.323079,
    "lng": -2.235224
  },
  {
    "id": "gp-n83049",
    "type": "gp",
    "name": "Kenneth Macrae Med Centre",
    "address": "32 Church Road, St. Helens",
    "postcode": "WA11 8HJ",
    "lat": 53.499046,
    "lng": -2.786435
  },
  {
    "id": "gp-n84617",
    "type": "gp",
    "name": "Kew Surgery",
    "address": "85 Town Lane, Southport",
    "postcode": "PR8 6RG",
    "lat": 53.631832,
    "lng": -2.983529
  },
  {
    "id": "gp-p82003",
    "type": "gp",
    "name": "Kildonan House",
    "address": "Ramsbottom Road, Bolton",
    "postcode": "BL6 5NW",
    "lat": 53.594804,
    "lng": -2.545363
  },
  {
    "id": "gp-p89022",
    "type": "gp",
    "name": "King Street Medical Centre",
    "address": "96-98 King Street, Dukinfield",
    "postcode": "SK16 4JZ",
    "lat": 53.478606,
    "lng": -2.093456
  },
  {
    "id": "gp-p81726",
    "type": "gp",
    "name": "King Street Medical Ctr",
    "address": "Acorn Primary Care Centre, Accrington",
    "postcode": "BB5 1RT",
    "lat": 53.752343,
    "lng": -2.384874
  },
  {
    "id": "gp-n85054",
    "type": "gp",
    "name": "Kings Lane Medical Practice",
    "address": "25 Brackenwood Road, Wirral",
    "postcode": "CH63 2LR",
    "lat": 53.350109,
    "lng": -3.023678
  },
  {
    "id": "gp-p81181",
    "type": "gp",
    "name": "Kingsfold Medical Centre",
    "address": "Woodcroft Close, Preston",
    "postcode": "PR1 9BX",
    "lat": 53.735882,
    "lng": -2.723917
  },
  {
    "id": "gp-p84022",
    "type": "gp",
    "name": "Kingsway Medical Practice",
    "address": "720 Burnage Lane, Manchester",
    "postcode": "M19 1UG",
    "lat": 53.420153,
    "lng": -2.212692
  },
  {
    "id": "gp-n84041",
    "type": "gp",
    "name": "Kingsway Surgery",
    "address": "30 Kingsway, Liverpool",
    "postcode": "L22 4RQ",
    "lat": 53.481027,
    "lng": -3.020165
  },
  {
    "id": "gp-n82101",
    "type": "gp",
    "name": "Kirkdale Medical Centre",
    "address": "14 Waller Close, Liverpool",
    "postcode": "L4 4QJ",
    "lat": 53.43354,
    "lng": -2.973842
  },
  {
    "id": "gp-p81128",
    "type": "gp",
    "name": "Kirkham Health Centre",
    "address": "Moor Street, Preston",
    "postcode": "PR4 2DL",
    "lat": 53.781954,
    "lng": -2.878538
  },
  {
    "id": "gp-p83024",
    "type": "gp",
    "name": "Knowsley Medical Centre",
    "address": "9-11 Knowsley Street, Bury",
    "postcode": "BL9 0ST",
    "lat": 53.588515,
    "lng": -2.300612
  },
  {
    "id": "gp-n81049",
    "type": "gp",
    "name": "Knutsford Medical Partnership",
    "address": "Manchester Road Med/Ctr, Knutsford",
    "postcode": "WA16 0LY",
    "lat": 53.306056,
    "lng": -2.377649
  },
  {
    "id": "gp-p92024",
    "type": "gp",
    "name": "Kumar Family Practice",
    "address": "Chandler House, Wigan",
    "postcode": "WN3 5HL",
    "lat": 53.529408,
    "lng": -2.643772
  },
  {
    "id": "gp-n81115",
    "type": "gp",
    "name": "Lache Health Centre",
    "address": "Hawthorn Road, Chester",
    "postcode": "CH4 8HX",
    "lat": 53.173615,
    "lng": -2.914326
  },
  {
    "id": "gp-p84017",
    "type": "gp",
    "name": "Ladybarn Group Practice",
    "address": "54 Briarfield Road, Manchester",
    "postcode": "M20 4SS",
    "lat": 53.429939,
    "lng": -2.21396
  },
  {
    "id": "gp-p81002",
    "type": "gp",
    "name": "Lancaster Medical Practice",
    "address": "8 Dalton Square, Lancaster",
    "postcode": "LA1 1PN",
    "lat": 54.047594,
    "lng": -2.797199
  },
  {
    "id": "gp-n82014",
    "type": "gp",
    "name": "Lance Lane Medical Centre",
    "address": "19 Lance Lane, Liverpool",
    "postcode": "L15 6TS",
    "lat": 53.396212,
    "lng": -2.911916
  },
  {
    "id": "gp-p81119",
    "type": "gp",
    "name": "Lane Ends Surgery",
    "address": "200 Tulketh Brow, Preston",
    "postcode": "PR2 2JJ",
    "lat": 53.770189,
    "lng": -2.727011
  },
  {
    "id": "gp-n82019",
    "type": "gp",
    "name": "Langbank Medical Centre",
    "address": "Broad Lane, Liverpool",
    "postcode": "L11 1AD",
    "lat": 53.440828,
    "lng": -2.9277
  },
  {
    "id": "gp-p87027",
    "type": "gp",
    "name": "Langworthy Medical Practice",
    "address": "250 Langworthy Road, Salford",
    "postcode": "M6 5WW",
    "lat": 53.489371,
    "lng": -2.294772
  },
  {
    "id": "gp-n81065",
    "type": "gp",
    "name": "Latchford Medical Centre",
    "address": "5 Thelwall Lane, Warrington",
    "postcode": "WA4 1LJ",
    "lat": 53.381017,
    "lng": -2.561658
  },
  {
    "id": "gp-p81646",
    "type": "gp",
    "name": "Lathom House Surgery",
    "address": "Burscough Health Centre, Ormskirk",
    "postcode": "L40 4LA",
    "lat": 53.602373,
    "lng": -2.840111
  },
  {
    "id": "gp-n81074",
    "type": "gp",
    "name": "Launceston Close Surgery",
    "address": "9-10 Launceston Close, Winsford",
    "postcode": "CW7 1LY",
    "lat": 53.183116,
    "lng": -2.542488
  },
  {
    "id": "gp-n81052",
    "type": "gp",
    "name": "Lawton House Surgery",
    "address": "Bromley Road, Congleton",
    "postcode": "CW12 1QG",
    "lat": 53.163062,
    "lng": -2.205795
  },
  {
    "id": "gp-p81066",
    "type": "gp",
    "name": "Layton Medical Centre",
    "address": "200 Kingscote Drive, Blackpool",
    "postcode": "FY3 7EN",
    "lat": 53.827439,
    "lng": -3.027287
  },
  {
    "id": "gp-n85640",
    "type": "gp",
    "name": "Leasowe Medical Practice",
    "address": "Hudson Road, Wirral",
    "postcode": "CH46 2QQ",
    "lat": 53.416639,
    "lng": -3.094472
  },
  {
    "id": "gp-p85022",
    "type": "gp",
    "name": "Lees Medical Practice",
    "address": "Athens Way, Oldham",
    "postcode": "OL4 3BP",
    "lat": 53.540297,
    "lng": -2.074879
  },
  {
    "id": "gp-p85005",
    "type": "gp",
    "name": "Leesbrook Surgery",
    "address": "Mellor Street, Oldham",
    "postcode": "OL4 3DG",
    "lat": 53.538807,
    "lng": -2.072658
  },
  {
    "id": "gp-p84016",
    "type": "gp",
    "name": "Levenshulme Medical Practice",
    "address": "Dunstable Street, Manchester",
    "postcode": "M19 3BX",
    "lat": 53.446368,
    "lng": -2.188523
  },
  {
    "id": "gp-p81044",
    "type": "gp",
    "name": "Library House Surgery",
    "address": "Avondale Road, Chorley",
    "postcode": "PR7 2AD",
    "lat": 53.65068,
    "lng": -2.633891
  },
  {
    "id": "gp-p84059",
    "type": "gp",
    "name": "Lime Square Medical Centre",
    "address": "Lime Square, Manchester",
    "postcode": "M11 1DA",
    "lat": 53.473665,
    "lng": -2.1649
  },
  {
    "id": "gp-p81214",
    "type": "gp",
    "name": "Limefield Surgery",
    "address": "293-295 Preston New Road, Blackburn",
    "postcode": "BB2 6PL",
    "lat": 53.749897,
    "lng": -2.503892
  },
  {
    "id": "gp-p91020",
    "type": "gp",
    "name": "Limelight Health And Wellbeing Hub",
    "address": "Limelight, Manchester",
    "postcode": "M16 9NW",
    "lat": 53.461412,
    "lng": -2.26197
  },
  {
    "id": "gp-n83007",
    "type": "gp",
    "name": "Lingholme Health Centre",
    "address": "Atherton Street, St Helens",
    "postcode": "WA10 2HT",
    "lat": 53.457785,
    "lng": -2.744752
  },
  {
    "id": "gp-n85616",
    "type": "gp",
    "name": "Liscard Group Practice",
    "address": "Victoria Central Hospital Hc, Wallasey",
    "postcode": "CH44 5UF",
    "lat": 53.415672,
    "lng": -3.045864
  },
  {
    "id": "gp-n84605",
    "type": "gp",
    "name": "Litherland Practice",
    "address": "Litherland Town Hall H/C, Liverpool",
    "postcode": "L21 9JN",
    "lat": 53.472743,
    "lng": -3.002732
  },
  {
    "id": "gp-p81005",
    "type": "gp",
    "name": "Little Harwood Health Centre",
    "address": "Plane Tree Road, Blackburn",
    "postcode": "BB1 6PH",
    "lat": 53.758683,
    "lng": -2.467261
  },
  {
    "id": "gp-p82020",
    "type": "gp",
    "name": "Little Lever Health Centre 1",
    "address": "Dr Hallikeri & Partners, Bolton",
    "postcode": "BL3 1HH",
    "lat": 53.562266,
    "lng": -2.371957
  },
  {
    "id": "gp-p82036",
    "type": "gp",
    "name": "Little Lever Health Centre 2",
    "address": "63 Market Street, Bolton",
    "postcode": "BL3 1HH",
    "lat": 53.562266,
    "lng": -2.371957
  },
  {
    "id": "gp-p86018",
    "type": "gp",
    "name": "Littleborough Group Practice",
    "address": "Littleborough Health Centre, Littleborough",
    "postcode": "OL15 8HF",
    "lat": 53.643011,
    "lng": -2.103348
  },
  {
    "id": "gp-p85605",
    "type": "gp",
    "name": "Littletown Family Med Pract",
    "address": "53 Manchester Road, Oldham",
    "postcode": "OL8 4LR",
    "lat": 53.529153,
    "lng": -2.134296
  },
  {
    "id": "gp-n84007",
    "type": "gp",
    "name": "Liverpool Rd Medical Practice",
    "address": "133 Liverpool Road, Liverpool",
    "postcode": "L23 5TE",
    "lat": 53.486672,
    "lng": -3.0233
  },
  {
    "id": "gp-p89005",
    "type": "gp",
    "name": "Lockside Medical Centre",
    "address": "85 Huddersfield Road, Stalybridge",
    "postcode": "SK15 2PT",
    "lat": 53.484961,
    "lng": -2.046285
  },
  {
    "id": "gp-p81149",
    "type": "gp",
    "name": "Lockwood Gp Surgery",
    "address": "Wyre Civic Centre, Poulton-Le-Fylde",
    "postcode": "FY6 7PU",
    "lat": 53.850962,
    "lng": -2.989827
  },
  {
    "id": "gp-n82110",
    "type": "gp",
    "name": "Long Lane",
    "address": "Long Lane Medical Centre, Liverpool",
    "postcode": "L9 6DQ",
    "lat": 53.45604,
    "lng": -2.925004
  },
  {
    "id": "gp-p83623",
    "type": "gp",
    "name": "Longfield Medical Practice",
    "address": "Prestwich Health Centre, Manchester",
    "postcode": "M25 1BT",
    "lat": 53.533845,
    "lng": -2.283568
  },
  {
    "id": "gp-p86011",
    "type": "gp",
    "name": "Longford Street Medical Centre",
    "address": "Longford Street, Heywood",
    "postcode": "OL10 4NH",
    "lat": 53.594275,
    "lng": -2.218522
  },
  {
    "id": "gp-p92026",
    "type": "gp",
    "name": "Longshoot Medical Practice",
    "address": "Longshoot Health Centre, Wigan",
    "postcode": "WN1 3NH",
    "lat": 53.549685,
    "lng": -2.620126
  },