[{"id":"hosp-barnet-hospital","type":"hospital","name":"Barnet Hospital","address":"Barnet","postcode":"EN5 3DJ","lat":51.6525,"lng":-0.207,"independent":false},{"id":"hosp-chase-farm-hospital","type":"hospital","name":"Chase Farm Hospital","address":"Enfield","postcode":"EN2 8JL","lat":51.6617,"lng":-0.0717,"independent":false},{"id":"hosp-great-ormond-street-hospital","type":"hospital","name":"Great Ormond Street Hospital","address":"Bloomsbury","postcode":"WC1N 3JH","lat":51.5228,"lng":-0.12,"independent":false},{"id":"hosp-hospital-of-st-john-and-st-elizabeth","type":"hospital","name":"Hospital of St John and St Elizabeth","address":"St John's Wood","postcode":"NW8 9NH","lat":51.531,"lng":-0.1687,"independent":true},{"id":"hosp-homerton-university-hospital","type":"hospital","name":"Homerton University Hospital","address":"Hackney, London","postcode":"E9 6SR","lat":51.5494,"lng":-0.043,"independent":false},{"id":"hosp-king-george-hospital","type":"hospital","name":"King George Hospital","address":"Redbridge","postcode":"IG3 8YB","lat":51.5722,"lng":0.0964,"independent":false},{"id":"hosp-moorfields-eye-hospital","type":"hospital","name":"Moorfields Eye Hospital","address":"Islington","postcode":"EC1V 2PD","lat":51.5249,"lng":-0.088,"independent":false},{"id":"hosp-national-hospital-neurology","type":"hospital","name":"National Hospital for Neurology and Neurosurgery","address":"Bloomsbury, London","postcode":"WC1N 3BG","lat":51.5222,"lng":-0.1229,"independent":false},{"id":"hosp-newham-university-hospital","type":"hospital","name":"Newham University Hospital","address":"Plaistow","postcode":"E13 8SL","lat":51.534,"lng":0.0198,"independent":false},{"id":"hosp-nightingale-hospital","type":"hospital","name":"Nightingale Hospital","address":"Marylebone","postcode":"NW1 4RJ","lat":51.5229,"lng":-0.1549,"independent":true},{"id":"hosp-north-middlesex-university-hospital","type":"hospital","name":"North Middlesex University Hospital","address":"Edmonton","postcode":"N18 1QX","lat":51.6153,"lng":-0.061,"independent":false},{"id":"hosp-queens-hospital-romford","type":"hospital","name":"Queen's Hospital","address":"Romford","postcode":"RM7 0AG","lat":51.5773,"lng":0.1728,"independent":false},{"id":"hosp-royal-free-hospital","type":"hospital","name":"Royal Free Hospital","address":"Hampstead","postcode":"NW3 2QG","lat":51.5526,"lng":-0.1658,"independent":false},{"id":"hosp-royal-london-hospital","type":"hospital","name":"Royal London Hospital","address":"Whitechapel","postcode":"E1 1FR","lat":51.5186,"lng":-0.0596,"independent":false},{"id":"hosp-royal-national-tne-hospital","type":"hospital","name":"Royal National Throat, Nose and Ear Hospital","address":"Camden","postcode":"WC1X 8DA","lat":51.5244,"lng":-0.1162,"independent":false},{"id":"hosp-st-bartholomews-hospital","type":"hospital","name":"St Bartholomew's Hospital","address":"Smithfield, London","postcode":"EC1A 7BE","lat":51.5178,"lng":-0.1011,"independent":false},{"id":"hosp-university-college-hospital","type":"hospital","name":"University College Hospital","address":"Bloomsbury","postcode":"NW1 2BU","lat":51.5248,"lng":-0.1352,"independent":false},{"id":"hosp-whipps-cross-university-hospital","type":"hospital","name":"Whipps Cross University Hospital","address":"Leytonstone","postcode":"E11 1NR","lat":51.5798,"lng":-0.0093,"independent":false},{"id":"hosp-hammersmith-hospital","type":"hospital","name":"Hammersmith Hospital","address":"Hammersmith","postcode":"W12 0HS","lat":51.5068,"lng":-0.2342,"independent":false},{"id":"hosp-central-middlesex-hospital","type":"hospital","name":"Central Middlesex Hospital","address":"Park Royal","postcode":"NW10 7NS","lat":51.528,"lng":-0.2759,"independent":false},{"id":"hosp-ealing-hospital","type":"hospital","name":"Ealing Hospital","address":"Southall, Ealing","postcode":"UB1 3HW","lat":51.5073,"lng":-0.3578,"independent":false},{"id":"hosp-harefield-hospital","type":"hospital","name":"Harefield Hospital","address":"Harefield","postcode":"UB9 6JH","lat":51.5971,"lng":-0.4879,"independent":false},{"id":"hosp-hillingdon-hospital","type":"hospital","name":"Hillingdon Hospital","address":"Uxbridge, Hillingdon","postcode":"UB8 3NN","lat":51.546,"lng":-0.4754,"independent":false},{"id":"hosp-mount-vernon-hospital","type":"hospital","name":"Mount Vernon Hospital","address":"Hillingdon","postcode":"HA6 2RN","lat":51.606,"lng":-0.433,"independent":false},{"id":"hosp-northwick-park-hospital","type":"hospital","name":"Northwick Park Hospital","address":"Brent","postcode":"HA1 3UJ","lat":51.5793,"lng":-0.319,"independent":false},{"id":"hosp-royal-national-orthopaedic-hospital","type":"hospital","name":"Royal National Orthopaedic Hospital","address":"Stanmore","postcode":"HA7 4LP","lat":51.6152,"lng":-0.3139,"independent":false},{"id":"hosp-st-marys-hospital-paddington","type":"hospital","name":"St Mary's Hospital","address":"Paddington","postcode":"W2 1NY","lat":51.5162,"lng":-0.1745,"independent":false},{"id":"hosp-beckenham-beacon","type":"hospital","name":"Beckenham Beacon","address":"Beckenham","postcode":"BR3 3QL","lat":51.41,"lng":-0.019,"independent":false},{"id":"hosp-bethlem-royal-hospital","type":"hospital","name":"Bethlem Royal Hospital","address":"Beckenham","postcode":"BR3 3BX","lat":51.375,"lng":-0.075,"independent":false},{"id":"hosp-croydon-university-hospital","type":"hospital","name":"Croydon University Hospital","address":"Thornton Heath","postcode":"CR7 7YE","lat":51.3784,"lng":-0.1063,"independent":false},{"id":"hosp-evelina-london-childrens-hospital","type":"hospital","name":"Evelina London Children's Hospital","address":"Lambeth","postcode":"SE1 7EH","lat":51.4987,"lng":-0.1177,"independent":false},{"id":"hosp-guys-hospital","type":"hospital","name":"Guy's Hospital","address":"Southwark","postcode":"SE1 9RT","lat":51.5036,"lng":-0.0877,"independent":false},{"id":"hosp-kings-college-hospital","type":"hospital","name":"King's College Hospital","address":"Camberwell","postcode":"SE5 9RS","lat":51.4682,"lng":-0.0935,"independent":false},{"id":"hosp-london-bridge-hospital","type":"hospital","name":"London Bridge Hospital","address":"London","postcode":"SE1 2PR","lat":51.5041,"lng":-0.0866,"independent":true},{"id":"hosp-maudsley-hospital","type":"hospital","name":"Maudsley Hospital","address":"Camberwell","postcode":"SE5 8AZ","lat":51.4692,"lng":-0.0936,"independent":false},{"id":"hosp-princess-royal-university-hospital","type":"hospital","name":"Princess Royal University Hospital","address":"Farnborough, London","postcode":"BR6 8ND","lat":51.3648,"lng":0.0556,"independent":false},{"id":"hosp-queen-elizabeth-hospital-woolwich","type":"hospital","name":"Queen Elizabeth Hospital","address":"Woolwich","postcode":"SE18 4QH","lat":51.4889,"lng":0.0687,"independent":false},{"id":"hosp-queen-marys-hospital-sidcup","type":"hospital","name":"Queen Mary's Hospital","address":"Sidcup","postcode":"DA14 4QT","lat":51.416,"lng":0.087,"independent":false},{"id":"hosp-st-thomas-hospital","type":"hospital","name":"St Thomas' Hospital","address":"Lambeth","postcode":"SE1 7EH","lat":51.4988,"lng":-0.1182,"independent":false},{"id":"hosp-university-hospital-lewisham","type":"hospital","name":"University Hospital Lewisham","address":"Lewisham","postcode":"SE13 6LH","lat":51.4608,"lng":-0.0192,"independent":false},{"id":"hosp-charing-cross-hospital","type":"hospital","name":"Charing Cross Hospital","address":"Hammersmith","postcode":"W6 8RF","lat":51.4919,"lng":-0.2194,"independent":false},{"id":"hosp-chelsea-and-westminster-hospital","type":"hospital","name":"Chelsea and Westminster Hospital","address":"Chelsea, London","postcode":"SW10 9NH","lat":51.4878,"lng":-0.182,"independent":false},{"id":"hosp-cromwell-hospital","type":"hospital","name":"Cromwell Hospital","address":"South Kensington","postcode":"SW5 0TU","lat":51.4934,"lng":-0.1922,"independent":true},{"id":"hosp-king-edward-vii-hospital","type":"hospital","name":"King Edward VII's Hospital","address":"Westminster","postcode":"W1G 6AA","lat":51.5157,"lng":-0.15,"independent":true},{"id":"hosp-kingston-hospital","type":"hospital","name":"Kingston Hospital","address":"Kingston upon Thames","postcode":"KT2 7QB","lat":51.4049,"lng":-0.3007,"independent":false},{"id":"hosp-lister-hospital-chelsea","type":"hospital","name":"Lister Hospital","address":"Chelsea, London","postcode":"SW1W 8RH","lat":51.4881,"lng":-0.1678,"independent":true},{"id":"hosp-the-london-clinic","type":"hospital","name":"The London Clinic","address":"Westminster","postcode":"NW1 4LJ","lat":51.5228,"lng":-0.1519,"independent":true},{"id":"hosp-portland-hospital","type":"hospital","name":"Portland Hospital","address":"Marylebone","postcode":"W1W 5AH","lat":51.5219,"lng":-0.1426,"independent":true},{"id":"hosp-the-princess-grace-hospital","type":"hospital","name":"The Princess Grace Hospital","address":"Marylebone","postcode":"W1U 5NY","lat":51.5228,"lng":-0.1555,"independent":true},{"id":"hosp-priory-hospital-roehampton","type":"hospital","name":"Priory Hospital, Roehampton","address":"Roehampton","postcode":"SW15 5JJ","lat":51.4586,"lng":-0.2485,"independent":true},{"id":"hosp-royal-brompton-hospital","type":"hospital","name":"Royal Brompton Hospital","address":"Chelsea, London","postcode":"SW3 6NP","lat":51.4891,"lng":-0.172,"independent":false},{"id":"hosp-royal-hospital-for-neuro-disability","type":"hospital","name":"Royal Hospital for Neuro-disability","address":"Putney","postcode":"SW15 3SW","lat":51.4601,"lng":-0.2235,"independent":false},{"id":"hosp-royal-marsden-hospital","type":"hospital","name":"Royal Marsden Hospital","address":"Chelsea, London","postcode":"SW3 6JJ","lat":51.4892,"lng":-0.171,"independent":false},{"id":"hosp-springfield-university-hospital","type":"hospital","name":"Springfield University Hospital","address":"Tooting","postcode":"SW17 7DJ","lat":51.4267,"lng":-0.1786,"independent":false},{"id":"hosp-st-anthonys-hospital","type":"hospital","name":"St Anthony's Hospital","address":"Cheam","postcode":"SM3 9DW","lat":51.3629,"lng":-0.2099,"independent":true},{"id":"hosp-st-georges-hospital-tooting","type":"hospital","name":"St George's Hospital","address":"Tooting","postcode":"SW17 0QT","lat":51.4265,"lng":-0.1787,"independent":false},{"id":"hosp-st-helier-hospital","type":"hospital","name":"St Helier Hospital","address":"Sutton","postcode":"SM5 1AA","lat":51.3742,"lng":-0.1942,"independent":false},{"id":"hosp-wellington-hospital","type":"hospital","name":"Wellington Hospital","address":"St John's Wood","postcode":"NW8 9LE","lat":51.5295,"lng":-0.1702,"independent":true},{"id":"hosp-west-middlesex-university-hospital","type":"hospital","name":"West Middlesex University Hospital","address":"Isleworth","postcode":"TW7 6AF","lat":51.4749,"lng":-0.3253,"independent":false},{"id":"hosp-whittington-hospital","type":"hospital","name":"Whittington Hospital","address":"Highgate","postcode":"N19 5NF","lat":51.5694,"lng":-0.1328,"independent":false}]