[{"id":"hosp-countess-of-chester-hospital","type":"hospital","name":"Countess of Chester Hospital","address":"Chester, Cheshire","postcode":"CH2 1UL","lat":53.1944,"lng":-2.9065,"independent":false},{"id":"hosp-leighton-hospital","type":"hospital","name":"Leighton Hospital","address":"Crewe","postcode":"CW1 4QJ","lat":53.0936,"lng":-2.4569,"independent":false},{"id":"hosp-macclesfield-district-general-hospital","type":"hospital","name":"Macclesfield District General Hospital","address":"Macclesfield","postcode":"SK10 3BL","lat":53.255,"lng":-2.138,"independent":false},{"id":"hosp-spire-cheshire-hospital","type":"hospital","name":"Spire Cheshire Hospital","address":"Warrington","postcode":"WA4 4LU","lat":53.3885,"lng":-2.5752,"independent":true},{"id":"hosp-warrington-hospital","type":"hospital","name":"Warrington Hospital","address":"Warrington","postcode":"WA5 1QG","lat":53.3957,"lng":-2.587,"independent":false},{"id":"hosp-christie-hospital","type":"hospital","name":"Christie Hospital","address":"Manchester","postcode":"M20 4BX","lat":53.4441,"lng":-2.2253,"independent":false},{"id":"hosp-fairfield-general-hospital","type":"hospital","name":"Fairfield General Hospital","address":"Bury, Greater Manchester","postcode":"BL9 7TD","lat":53.5836,"lng":-2.306,"independent":false},{"id":"hosp-manchester-royal-infirmary","type":"hospital","name":"Manchester Royal Infirmary","address":"Manchester","postcode":"M13 9WL","lat":53.4613,"lng":-2.2287,"independent":false},{"id":"hosp-north-manchester-general-hospital","type":"hospital","name":"North Manchester General Hospital","address":"Manchester","postcode":"M8 5RB","lat":53.5089,"lng":-2.2122,"independent":false},{"id":"hosp-royal-bolton-hospital","type":"hospital","name":"Royal Bolton Hospital","address":"Farnworth, Bolton","postcode":"BL4 0JR","lat":53.5819,"lng":-2.4274,"independent":false},{"id":"hosp-royal-manchester-childrens-hospital","type":"hospital","name":"Royal Manchester Children's Hospital","address":"Manchester","postcode":"M13 9WL","lat":53.4612,"lng":-2.2296,"independent":false},{"id":"hosp-royal-oldham-hospital","type":"hospital","name":"Royal Oldham Hospital","address":"Oldham","postcode":"OL1 2JH","lat":53.542,"lng":-2.1108,"independent":false},{"id":"hosp-salford-royal-hospital","type":"hospital","name":"Salford Royal Hospital","address":"Salford","postcode":"M6 8HD","lat":53.4877,"lng":-2.3347,"independent":false},{"id":"hosp-saint-marys-hospital-manchester","type":"hospital","name":"Saint Mary's Hospital, Manchester","address":"Manchester","postcode":"M13 9WL","lat":53.4613,"lng":-2.2287,"independent":false},{"id":"hosp-stepping-hill-hospital","type":"hospital","name":"Stepping Hill Hospital","address":"Stockport","postcode":"SK2 7JE","lat":53.3928,"lng":-2.1449,"independent":false},{"id":"hosp-tameside-general-hospital","type":"hospital","name":"Tameside General Hospital","address":"Ashton-under-Lyne","postcode":"OL6 9RW","lat":53.491,"lng":-2.079,"independent":false},{"id":"hosp-trafford-general-hospital","type":"hospital","name":"Trafford General Hospital","address":"Davyhulme, Manchester","postcode":"M41 5SL","lat":53.4543,"lng":-2.3504,"independent":false},{"id":"hosp-wythenshawe-hospital","type":"hospital","name":"Wythenshawe Hospital","address":"Manchester","postcode":"M23 9LT","lat":53.398,"lng":-2.302,"independent":false},{"id":"hosp-blackpool-victoria-hospital","type":"hospital","name":"Blackpool Victoria Hospital","address":"Blackpool","postcode":"FY3 8NR","lat":53.8167,"lng":-3.0333,"independent":false},{"id":"hosp-burnley-general-teaching-hospital","type":"hospital","name":"Burnley General Teaching Hospital","address":"Burnley","postcode":"BB10 2PQ","lat":53.8,"lng":-2.2352,"independent":false},{"id":"hosp-chorley-and-south-ribble-hospital","type":"hospital","name":"Chorley and South Ribble Hospital","address":"Chorley","postcode":"PR7 1PP","lat":53.6481,"lng":-2.6257,"independent":false},{"id":"hosp-royal-blackburn-teaching-hospital","type":"hospital","name":"Royal Blackburn Teaching Hospital","address":"Blackburn","postcode":"BB2 3HH","lat":53.7556,"lng":-2.4778,"independent":false},{"id":"hosp-royal-lancaster-infirmary","type":"hospital","name":"Royal Lancaster Infirmary","address":"Lancaster, Lancashire","postcode":"LA1 4RP","lat":54.0466,"lng":-2.8046,"independent":false},{"id":"hosp-royal-preston-hospital","type":"hospital","name":"Royal Preston Hospital","address":"Preston, Lancashire","postcode":"PR2 9HT","lat":53.7724,"lng":-2.6888,"independent":false},{"id":"hosp-aintree-university-hospital","type":"hospital","name":"Aintree University Hospital","address":"Liverpool","postcode":"L9 7AL","lat":53.4657,"lng":-2.9552,"independent":false},{"id":"hosp-arrowe-park-hospital","type":"hospital","name":"Arrowe Park Hospital","address":"Wirral","postcode":"CH49 5PE","lat":53.3616,"lng":-3.0873,"independent":false},{"id":"hosp-alder-hey-childrens-hospital","type":"hospital","name":"Alder Hey Children's Hospital","address":"Liverpool","postcode":"L12 2AP","lat":53.4156,"lng":-2.9118,"independent":false},{"id":"hosp-clatterbridge-cancer-centre","type":"hospital","name":"Clatterbridge Cancer Centre","address":"Wirral","postcode":"CH63 4JY","lat":53.355,"lng":-3.0704,"independent":false},{"id":"hosp-liverpool-heart-and-chest-hospital","type":"hospital","name":"Liverpool Heart and Chest Hospital","address":"Liverpool","postcode":"L14 3PE","lat":53.4181,"lng":-2.9478,"independent":false},{"id":"hosp-liverpool-womens-hospital","type":"hospital","name":"Liverpool Women's Hospital","address":"Liverpool","postcode":"L8 7SS","lat":53.4,"lng":-2.9613,"independent":false},{"id":"hosp-royal-liverpool-university-hospital","type":"hospital","name":"Royal Liverpool University Hospital","address":"Liverpool","postcode":"L7 8XP","lat":53.4084,"lng":-2.9687,"independent":false},{"id":"hosp-southport-and-formby-district-general","type":"hospital","name":"Southport and Formby District General Hospital","address":"Southport","postcode":"PR8 6PN","lat":53.6455,"lng":-3.01,"independent":false},{"id":"hosp-the-walton-centre","type":"hospital","name":"The Walton Centre for Neurology and Neurosurgery","address":"Liverpool","postcode":"L9 1AE","lat":53.422,"lng":-2.947,"independent":false},{"id":"hosp-whiston-hospital","type":"hospital","name":"Whiston Hospital","address":"Merseyside","postcode":"L35 5DR","lat":53.4176,"lng":-2.7889,"independent":false}]