[{"id":"hosp-barnet_hospital","type":"hospital","name":"Barnet Hospital","address":"Barnet","postcode":"EN5 3DJ","lat":51.6396,"lng":-0.1949,"independent":false},{"id":"hosp-chase_farm_hospital","type":"hospital","name":"Chase Farm Hospital","address":"Enfield","postcode":"EN2 8JL","lat":51.6596,"lng":-0.0772,"independent":false},{"id":"hosp-great_ormond_street_hospit","type":"hospital","name":"Great Ormond Street Hospital","address":"London","postcode":"WC1N 3JH","lat":51.5222,"lng":-0.1201,"independent":false},{"id":"hosp-homerton_university_hospit","type":"hospital","name":"Homerton University Hospital","address":"Hackney","postcode":"E9 6SR","lat":51.5478,"lng":-0.0512,"independent":false},{"id":"hosp-hospital_of_st_john_and_st","type":"hospital","name":"Hospital of St John and St Elizabeth","address":"St John's Wood","postcode":"NW8 9NH","lat":51.5323,"lng":-0.1679,"independent":true},{"id":"hosp-king_george_hospital","type":"hospital","name":"King George Hospital","address":"Redbridge","postcode":"IG3 8YB","lat":51.5728,"lng":0.0844,"independent":false},{"id":"hosp-kings_college_hospital","type":"hospital","name":"King's College Hospital","address":"Camberwell","postcode":"SE5 9RS","lat":51.4682,"lng":-0.0939,"independent":false},{"id":"hosp-london_bridge_hospital","type":"hospital","name":"London Bridge Hospital","address":"London","postcode":"SE1 2PR","lat":51.5053,"lng":-0.0864,"independent":true},{"id":"hosp-maudsley_hospital","type":"hospital","name":"Maudsley Hospital","address":"Camberwell","postcode":"SE5 8AZ","lat":51.468,"lng":-0.0944,"independent":false},{"id":"hosp-moorfields_eye_hospital","type":"hospital","name":"Moorfields Eye Hospital","address":"London","postcode":"EC1V 2PD","lat":51.5267,"lng":-0.0879,"independent":false},{"id":"hosp-national_hospital_for_neur","type":"hospital","name":"National Hospital for Neurology and Neurosurgery","address":"London","postcode":"WC1N 3BG","lat":51.5223,"lng":-0.1201,"independent":false},{"id":"hosp-newham_university_hospital","type":"hospital","name":"Newham University Hospital","address":"Plaistow","postcode":"E13 8SL","lat":51.5268,"lng":0.0237,"independent":false},{"id":"hosp-nightingale_hospital","type":"hospital","name":"Nightingale Hospital","address":"Marylebone","postcode":"W1U 5HT","lat":51.5201,"lng":-0.1557,"independent":true},{"id":"hosp-north_middlesex_university","type":"hospital","name":"North Middlesex University Hospital","address":"Edmonton","postcode":"N18 1QX","lat":51.6175,"lng":-0.0613,"independent":false},{"id":"hosp-northwick_park_hospital","type":"hospital","name":"Northwick Park Hospital","address":"Brent","postcode":"HA1 3UJ","lat":51.5777,"lng":-0.3212,"independent":false},{"id":"hosp-princess_royal_university_","type":"hospital","name":"Princess Royal University Hospital","address":"Farnborough","postcode":"BR6 8ND","lat":51.3813,"lng":0.0492,"independent":false},{"id":"hosp-queens_hospital","type":"hospital","name":"Queen's Hospital","address":"Romford","postcode":"RM7 0AG","lat":51.5665,"lng":0.1788,"independent":false},{"id":"hosp-royal_brompton_hospital","type":"hospital","name":"Royal Brompton Hospital","address":"Chelsea","postcode":"SW3 6NP","lat":51.4884,"lng":-0.1718,"independent":false},{"id":"hosp-royal_free_hospital","type":"hospital","name":"Royal Free Hospital","address":"Hampstead","postcode":"NW3 2QG","lat":51.553,"lng":-0.165,"independent":false},{"id":"hosp-royal_london_hospital","type":"hospital","name":"Royal London Hospital","address":"Whitechapel","postcode":"E1 1FR","lat":51.5184,"lng":-0.0599,"independent":false},{"id":"hosp-royal_marsden_hospital","type":"hospital","name":"Royal Marsden Hospital","address":"Chelsea","postcode":"SW3 6JJ","lat":51.488,"lng":-0.1727,"independent":false},{"id":"hosp-royal_national_orthopaedi","type":"hospital","name":"Royal National Orthopaedic Hospital","address":"Stanmore","postcode":"HA7 4LP","lat":51.6209,"lng":-0.3052,"independent":false},{"id":"hosp-st_bartholomews_hospital","type":"hospital","name":"St Bartholomew's Hospital","address":"London","postcode":"EC1A 7BE","lat":51.5169,"lng":-0.1007,"independent":false},{"id":"hosp-st_georges_hospital","type":"hospital","name":"St George's Hospital","address":"Tooting","postcode":"SW17 0QT","lat":51.4282,"lng":-0.1739,"independent":false},{"id":"hosp-st_marys_hospital","type":"hospital","name":"St Mary's Hospital","address":"Paddington","postcode":"W2 1NY","lat":51.5175,"lng":-0.1749,"independent":false},{"id":"hosp-st_thomas_hospital","type":"hospital","name":"St Thomas' Hospital","address":"Lambeth","postcode":"SE1 7EH","lat":51.4988,"lng":-0.1186,"independent":false},{"id":"hosp-university_college_hospita","type":"hospital","name":"University College Hospital","address":"London","postcode":"NW1 2PG","lat":51.5244,"lng":-0.1354,"independent":false},{"id":"hosp-whipps_cross_university_ho","type":"hospital","name":"Whipps Cross University Hospital","address":"Leytonstone","postcode":"E11 1NR","lat":51.5813,"lng":-0.0144,"independent":false},{"id":"hosp-whittington_hospital","type":"hospital","name":"Whittington Hospital","address":"Highgate","postcode":"N19 5NF","lat":51.5673,"lng":-0.1259,"independent":false},{"id":"hosp-croydon_university_hospita","type":"hospital","name":"Croydon University Hospital","address":"Thornton Heath","postcode":"CR7 7YE","lat":51.3819,"lng":-0.109,"independent":false},{"id":"hosp-charing_cross_hospital","type":"hospital","name":"Charing Cross Hospital","address":"Hammersmith","postcode":"W6 8RF","lat":51.4925,"lng":-0.2189,"independent":false},{"id":"hosp-chelsea_and_westminster_ho","type":"hospital","name":"Chelsea and Westminster Hospital","address":"Chelsea","postcode":"SW10 9NH","lat":51.4868,"lng":-0.1812,"independent":false},{"id":"hosp-cromwell_hospital","type":"hospital","name":"Cromwell Hospital","address":"South Kensington","postcode":"SW5 0TU","lat":51.4947,"lng":-0.192,"independent":true},{"id":"hosp-ealing_hospital","type":"hospital","name":"Ealing Hospital","address":"Southall","postcode":"UB1 3HW","lat":51.5124,"lng":-0.3535,"independent":false},{"id":"hosp-evelina_london_childrens_h","type":"hospital","name":"Evelina London Children's Hospital","address":"Lambeth","postcode":"SE1 7EH","lat":51.4994,"lng":-0.1172,"independent":false},{"id":"hosp-guys_hospital","type":"hospital","name":"Guy's Hospital","address":"Southwark","postcode":"SE1 9RT","lat":51.504,"lng":-0.0881,"independent":false},{"id":"hosp-hammersmith_hospital","type":"hospital","name":"Hammersmith Hospital","address":"Hammersmith","postcode":"W12 0HS","lat":51.5147,"lng":-0.2335,"independent":false},{"id":"hosp-harefield_hospital","type":"hospital","name":"Harefield Hospital","address":"Harefield","postcode":"UB9 6JH","lat":51.5999,"lng":-0.4831,"independent":false},{"id":"hosp-hillingdon_hospital","type":"hospital","name":"Hillingdon Hospital","address":"Uxbridge","postcode":"UB8 3NN","lat":51.5365,"lng":-0.4782,"independent":false},{"id":"hosp-king_edward_viis_hospital","type":"hospital","name":"King Edward VII's Hospital","address":"Westminster","postcode":"W1G 6AA","lat":51.5183,"lng":-0.1559,"independent":true},{"id":"hosp-kingston_hospital","type":"hospital","name":"Kingston Hospital","address":"Kingston upon Thames","postcode":"KT2 7QB","lat":51.4105,"lng":-0.2902,"independent":false},{"id":"hosp-the_london_clinic","type":"hospital","name":"The London Clinic","address":"Westminster","postcode":"W1G 6JA","lat":51.5232,"lng":-0.1569,"independent":true},{"id":"hosp-portland_hospital","type":"hospital","name":"Portland Hospital","address":"Marylebone","postcode":"W1W 5QT","lat":51.5192,"lng":-0.148,"independent":true},{"id":"hosp-the_princess_grace_hospita","type":"hospital","name":"The Princess Grace Hospital","address":"Marylebone","postcode":"W1U 5NY","lat":51.5207,"lng":-0.1598,"independent":true},{"id":"hosp-queen_charlottes_and_chels","type":"hospital","name":"Queen Charlotte's and Chelsea Hospital","address":"Hammersmith","postcode":"W12 0HS","lat":51.505,"lng":-0.2278,"independent":false},{"id":"hosp-royal_hospital_for_neuro-d","type":"hospital","name":"Royal Hospital for Neuro-disability","address":"Putney","postcode":"SW15 3SW","lat":51.4596,"lng":-0.2143,"independent":false},{"id":"hosp-royal_marsden_hospital_sut","type":"hospital","name":"Royal Marsden Hospital Sutton","address":"Sutton","postcode":"SM2 5PT","lat":51.3669,"lng":-0.187,"independent":false},{"id":"hosp-springfield_university_hos","type":"hospital","name":"Springfield University Hospital","address":"Tooting","postcode":"SW17 7DJ","lat":51.4308,"lng":-0.1764,"independent":false},{"id":"hosp-st_helier_hospital","type":"hospital","name":"St Helier Hospital","address":"Sutton","postcode":"SM5 1AA","lat":51.374,"lng":-0.1858,"independent":false},{"id":"hosp-west_middlesex_university_","type":"hospital","name":"West Middlesex University Hospital","address":"Isleworth","postcode":"TW7 6AF","lat":51.4698,"lng":-0.3295,"independent":false},{"id":"hosp-wellington_hospital","type":"hospital","name":"Wellington Hospital","address":"St John's Wood","postcode":"NW8 9LE","lat":51.5331,"lng":-0.1714,"independent":true}]