[
  {
    "id": "hosp-optical_express_london_harley_street_hospital",
    "type": "hospital",
    "name": "Optical Express \u0096 London (Harley Street) Hospital",
    "address": "Harmont House, London",
    "postcode": "W1G 9AP",
    "lat": 51.518026,
    "lng": -0.146189
  },
  {
    "id": "hosp-optical_express_london_white_city_hospital",
    "type": "hospital",
    "name": "Optical Express - London (White City) Hospital",
    "address": "Unit 2121 Westfield Shopping Centre London, London",
    "postcode": "W12 7GF",
    "lat": 51.507459,
    "lng": -0.222272
  },
  {
    "id": "hosp-community_health_and_eyecare_limited_chec_new_cross",
    "type": "hospital",
    "name": "Community Health and Eyecare Limited (CHEC - New Cross)",
    "address": "Ewen Henderson Court, London",
    "postcode": "SE14 6BW",
    "lat": 51.477039,
    "lng": -0.04068
  },
  {
    "id": "hosp-davita_uk_ltd_colliers_wood",
    "type": "hospital",
    "name": "DaVita (UK) Ltd - Colliers Wood",
    "address": "Unit 11, Greenlea Park, Colliers Wood",
    "postcode": "SW19 2PU",
    "lat": 51.414009,
    "lng": -0.173869
  },
  {
    "id": "hosp-restorehairclinics_limited",
    "type": "hospital",
    "name": "Restorehairclinics Limited",
    "address": "107 Harley Street, London",
    "postcode": "W1G 6AL",
    "lat": 51.521215,
    "lng": -0.14825
  },
  {
    "id": "hosp-harley_street_healthcare_gray_s_inn_road",
    "type": "hospital",
    "name": "Harley Street Healthcare  - Gray's Inn Road",
    "address": "285-287, London",
    "postcode": "WC1X 8QD",
    "lat": 51.529523,
    "lng": -0.120462
  },
  {
    "id": "hosp-harley_street_private_practice_limited",
    "type": "hospital",
    "name": "Harley Street Private Practice Limited",
    "address": "107 Harley Street, London",
    "postcode": "W1G 6AL",
    "lat": 51.521215,
    "lng": -0.14825
  },
  {
    "id": "hosp-lhm_healthcare",
    "type": "hospital",
    "name": "LHM Healthcare",
    "address": "Whipps Cross Hospital, London",
    "postcode": "E11 1RG",
    "lat": 51.577434,
    "lng": 0.00347
  },
  {
    "id": "hosp-my_hair_transplant_clinics",
    "type": "hospital",
    "name": "My Hair Transplant Clinics",
    "address": "158 - 160, Harrow",
    "postcode": "HA3 8AZ",
    "lat": 51.583036,
    "lng": -0.315859
  },
  {
    "id": "hosp-london_hair_transplant_clinic",
    "type": "hospital",
    "name": "London Hair Transplant Clinic",
    "address": "48a High Street, Edgware",
    "postcode": "HA8 7EQ",
    "lat": 51.610153,
    "lng": -0.277189
  },
  {
    "id": "hosp-spamedica_romford",
    "type": "hospital",
    "name": "SpaMedica Romford",
    "address": "210 South Street, Romford",
    "postcode": "RM1 1TR",
    "lat": 51.572593,
    "lng": 0.183605
  },
  {
    "id": "hosp-aces_white_city_hospital",
    "type": "hospital",
    "name": "ACES White City Hospital",
    "address": "Unit 2121, Westfield London Shopping Centre, London",
    "postcode": "W12 7GF",
    "lat": 51.507459,
    "lng": -0.222272
  },
  {
    "id": "hosp-cleveland_clinic_portland_place_outpatient_centre",
    "type": "hospital",
    "name": "Cleveland Clinic Portland Place Outpatient Centre",
    "address": "24 Portland Place, London",
    "postcode": "W1B 1LU",
    "lat": 51.519361,
    "lng": -0.144203
  },
  {
    "id": "hosp-baxter_renal_education_centre_kew",
    "type": "hospital",
    "name": "Baxter Renal Education Centre - Kew",
    "address": "2 Priory Road, Richmond",
    "postcode": "TW9 3DG",
    "lat": 51.4839,
    "lng": -0.285236
  },
  {
    "id": "hosp-the_london_welbeck_hospital",
    "type": "hospital",
    "name": "The London Welbeck Hospital",
    "address": "27 Welbeck Street, London",
    "postcode": "W1G 8EN",
    "lat": 51.518239,
    "lng": -0.149437
  },
  {
    "id": "hosp-king_edward_vii_s_hospital",
    "type": "hospital",
    "name": "King Edward VII's Hospital",
    "address": "5-10 Beaumont Street, London",
    "postcode": "W1G 6AA",
    "lat": 51.520779,
    "lng": -0.1503
  },
  {
    "id": "hosp-the_london_clinic",
    "type": "hospital",
    "name": "The London Clinic",
    "address": "20 Devonshire Place, London",
    "postcode": "W1G 6BW",
    "lat": 51.523024,
    "lng": -0.150051
  },
  {
    "id": "hosp-hospital_of_st_john_st_elizabeth",
    "type": "hospital",
    "name": "Hospital of St John & St Elizabeth",
    "address": "60 Grove End Road, London",
    "postcode": "NW8 9NH",
    "lat": 51.533475,
    "lng": -0.175436
  },
  {
    "id": "hosp-fortes_hair_skin_clinic",
    "type": "hospital",
    "name": "Fortes Hair & Skin Clinic",
    "address": "22 Clifton Road, London",
    "postcode": "W9 1ST",
    "lat": 51.52555,
    "lng": -0.179919
  },
  {
    "id": "hosp-wimpole_aesthetic_centre",
    "type": "hospital",
    "name": "Wimpole Aesthetic Centre",
    "address": "48 Wimpole Street, London",
    "postcode": "W1G 8SF",
    "lat": 51.519873,
    "lng": -0.149256
  },
  {
    "id": "hosp-london_medical",
    "type": "hospital",
    "name": "London Medical",
    "address": "49 Marylebone High Street, London",
    "postcode": "W1U 5HJ",
    "lat": 51.521488,
    "lng": -0.151309
  },
  {
    "id": "hosp-london_centre_for_refractive_surgery_ultralase_harley_street",
    "type": "hospital",
    "name": "London Centre for Refractive Surgery (Ultralase Harley Street)",
    "address": "15 Harley Street, London",
    "postcode": "W1G 9QQ",
    "lat": 51.517274,
    "lng": -0.146435
  },
  {
    "id": "hosp-central_london",
    "type": "hospital",
    "name": "Central London",
    "address": "8-9 Ivor Place, London",
    "postcode": "NW1 6BY",
    "lat": 51.524418,
    "lng": -0.161498
  },
  {
    "id": "hosp-accuvision_eye_care_clinic_london",
    "type": "hospital",
    "name": "Accuvision Eye Care Clinic - London",
    "address": "42-48 New Kings Road, London",
    "postcode": "SW6 4LS",
    "lat": 51.472703,
    "lng": -0.201089
  },
  {
    "id": "hosp-centre_for_surgery_baker_street",
    "type": "hospital",
    "name": "Centre for Surgery - Baker Street",
    "address": "95-97 Baker Street, London",
    "postcode": "W1U 6RN",
    "lat": 51.520545,
    "lng": -0.157128
  },
  {
    "id": "hosp-9_harley_street_limited",
    "type": "hospital",
    "name": "9 Harley Street Limited",
    "address": "9 Harley Street, London",
    "postcode": "W1G 9AL",
    "lat": 51.517049,
    "lng": -0.146401
  },
  {
    "id": "hosp-tempus_belgravia",
    "type": "hospital",
    "name": "Tempus Belgravia",
    "address": "11a, London",
    "postcode": "SW1X 8JL",
    "lat": 51.498962,
    "lng": -0.156529
  },
  {
    "id": "hosp-harmont_house",
    "type": "hospital",
    "name": "Harmont House",
    "address": "Suite 22, London",
    "postcode": "W1G 9PH",
    "lat": 51.518026,
    "lng": -0.146189
  },
  {
    "id": "hosp-the_retina_clinic_london",
    "type": "hospital",
    "name": "The Retina Clinic London",
    "address": "140 Harley Street, London",
    "postcode": "W1G 7LB",
    "lat": 51.522719,
    "lng": -0.148391
  },
  {
    "id": "hosp-hca_healthcare_uk_the_wellington_hospital",
    "type": "hospital",
    "name": "HCA Healthcare UK The Wellington Hospital",
    "address": "Wellington Place, London",
    "postcode": "NW8 9LE",
    "lat": 51.531551,
    "lng": -0.171447
  },
  {
    "id": "hosp-hca_healthcare_uk_the_princess_grace_hospital",
    "type": "hospital",
    "name": "HCA Healthcare UK The Princess Grace Hospital",
    "address": "42-52 Nottingham Place, London",
    "postcode": "W1U 5NY",
    "lat": 51.522367,
    "lng": -0.152903
  },
  {
    "id": "hosp-hca_healthcare_uk_the_harley_street_clinic",
    "type": "hospital",
    "name": "HCA Healthcare UK The Harley Street Clinic",
    "address": "35 Weymouth Street, London",
    "postcode": "W1G 8BJ",
    "lat": 51.520359,
    "lng": -0.148169
  },
  {
    "id": "hosp-hca_healthcare_uk_the_lister_hospital",
    "type": "hospital",
    "name": "HCA Healthcare UK The Lister Hospital",
    "address": "Chelsea Bridge Road, London",
    "postcode": "SW1W 8RH",
    "lat": 51.48652,
    "lng": -0.150478
  },
  {
    "id": "hosp-hca_healthcare_uk_london_bridge_hospital",
    "type": "hospital",
    "name": "HCA Healthcare UK London Bridge Hospital",
    "address": "27 Tooley Street, London",
    "postcode": "SE1 2PR",
    "lat": 51.506373,
    "lng": -0.085865
  },
  {
    "id": "hosp-hca_healthcare_uk_the_portland_hospital",
    "type": "hospital",
    "name": "HCA Healthcare UK The Portland Hospital",
    "address": "205-209, 214 and 234 Great Portland Street, London",
    "postcode": "W1W 5AH",
    "lat": 51.523185,
    "lng": -0.14435
  },
  {
    "id": "hosp-wimpole_clinic",
    "type": "hospital",
    "name": "Wimpole Clinic",
    "address": "2 Harley Street, London",
    "postcode": "W1G 9PA",
    "lat": 51.518026,
    "lng": -0.146189
  },
  {
    "id": "hosp-cleveland_clinic_london_hospital",
    "type": "hospital",
    "name": "Cleveland Clinic London Hospital",
    "address": "33 Grosvenor Place, London",
    "postcode": "SW1X 7HY",
    "lat": 51.499265,
    "lng": -0.148895
  },
  {
    "id": "hosp-bishops_wood_hospital",
    "type": "hospital",
    "name": "Bishops Wood Hospital",
    "address": "Rickmansworth Road, London",
    "postcode": "HA6 2JW",
    "lat": 51.616455,
    "lng": -0.4465
  },
  {
    "id": "hosp-chelsfield_park_hospital",
    "type": "hospital",
    "name": "Chelsfield Park Hospital",
    "address": "Buck Cross Road, Orpington",
    "postcode": "BR6 7RG",
    "lat": 51.358469,
    "lng": 0.130873
  },
  {
    "id": "hosp-the_blackheath_hospital",
    "type": "hospital",
    "name": "The Blackheath Hospital",
    "address": "40-42 Lee Terrace, London",
    "postcode": "SE3 9UD",
    "lat": 51.463474,
    "lng": 0.006291
  },
  {
    "id": "hosp-the_cavell_hospital",
    "type": "hospital",
    "name": "The Cavell Hospital",
    "address": "Cavell Drive, Enfield",
    "postcode": "EN2 7PR",
    "lat": 51.659228,
    "lng": -0.101335
  },
  {
    "id": "hosp-the_clementine_churchill_hospital",
    "type": "hospital",
    "name": "The Clementine Churchill Hospital",
    "address": "Sudbury Hill, Harrow",
    "postcode": "HA1 3RX",
    "lat": 51.564968,
    "lng": -0.332687
  },
  {
    "id": "hosp-hendon_hospital",
    "type": "hospital",
    "name": "Hendon Hospital",
    "address": "46-50 Sunny Gardens Road, London",
    "postcode": "NW4 1RP",
    "lat": 51.593715,
    "lng": -0.224578
  },
  {
    "id": "hosp-the_kings_oak_hospital",
    "type": "hospital",
    "name": "The Kings Oak Hospital",
    "address": "Chase Farm (North Side), London",
    "postcode": "EN2 8SD",
    "lat": 51.667902,
    "lng": -0.105542
  },
  {
    "id": "hosp-the_london_independent_hospital",
    "type": "hospital",
    "name": "The London Independent Hospital",
    "address": "Pathology Department, London",
    "postcode": "E1 4NL",
    "lat": 51.520404,
    "lng": -0.046717
  },
  {
    "id": "hosp-the_shirley_oaks_hospital",
    "type": "hospital",
    "name": "The Shirley Oaks Hospital",
    "address": "Poppy Lane, Croydon",
    "postcode": "CR9 8AB",
    "lat": 51.382299,
    "lng": -0.056326
  },
  {
    "id": "hosp-the_sloane_hospital",
    "type": "hospital",
    "name": "The Sloane Hospital",
    "address": "125 Albemarle Road, Beckenham",
    "postcode": "BR3 5HS",
    "lat": 51.408331,
    "lng": -0.004334
  },
  {
    "id": "hosp-bpas_richmond",
    "type": "hospital",
    "name": "BPAS - Richmond",
    "address": "Rosslyn Clinic, London",
    "postcode": "TW1 2AR",
    "lat": 51.454999,
    "lng": -0.315091
  },
  {
    "id": "hosp-bpas_finsbury_park",
    "type": "hospital",
    "name": "BPAS - Finsbury Park",
    "address": "Stroud Green Clinic, London",
    "postcode": "N4 3EL",
    "lat": 51.569027,
    "lng": -0.109786
  },
  {
    "id": "hosp-bpas_london_east",
    "type": "hospital",
    "name": "BPAS - London East",
    "address": "32 Romford Road, London",
    "postcode": "E15 4BZ",
    "lat": 51.542097,
    "lng": 0.006388
  },
  {
    "id": "hosp-parkside_hospital",
    "type": "hospital",
    "name": "Parkside Hospital",
    "address": "53 Parkside, London",
    "postcode": "SW19 5NX",
    "lat": 51.43573,
    "lng": -0.223231
  },
  {
    "id": "hosp-highgate_hospital",
    "type": "hospital",
    "name": "Highgate Hospital",
    "address": "17 View Road, London",
    "postcode": "N6 4DJ",
    "lat": 51.57717,
    "lng": -0.155862
  },
  {
    "id": "hosp-weymouth_hospital",
    "type": "hospital",
    "name": "Weymouth Hospital",
    "address": "42-46 Weymouth Street, London",
    "postcode": "W1G 6NP",
    "lat": 51.520219,
    "lng": -0.150669
  },
  {
    "id": "hosp-spire_london_east_hospital",
    "type": "hospital",
    "name": "Spire London East Hospital",
    "address": "Roding Lane South, Ilford",
    "postcode": "IG4 5PZ",
    "lat": 51.587155,
    "lng": 0.04309
  },
  {
    "id": "hosp-ef_medispa_kensington",
    "type": "hospital",
    "name": "EF Medispa Kensington",
    "address": "29 Kensington Church Street, London",
    "postcode": "W8 4LL",
    "lat": 51.5035,
    "lng": -0.192095
  },
  {
    "id": "hosp-cromwell_hospital",
    "type": "hospital",
    "name": "Cromwell Hospital",
    "address": "Cromwell Road, London",
    "postcode": "SW5 0TU",
    "lat": 51.495107,
    "lng": -0.191361
  },
  {
    "id": "hosp-davita_uk_ltd_hmp_thameside",
    "type": "hospital",
    "name": "DaVita (UK) Ltd - HMP Thameside",
    "address": "Griffin Manor Way, London",
    "postcode": "SE28 0FJ",
    "lat": 51.49345,
    "lng": 0.087533
  },
  {
    "id": "hosp-msi_reproductive_choices_district_treatment_centre_south_london",
    "type": "hospital",
    "name": "MSI Reproductive Choices District Treatment Centre - South London",
    "address": "1a Raleigh Gardens, London",
    "postcode": "SW2 1AB",
    "lat": 51.453696,
    "lng": -0.119332
  },
  {
    "id": "hosp-msi_reproductive_choices_national_treatment_centre_west_london",
    "type": "hospital",
    "name": "MSI Reproductive Choices National Treatment Centre - West London",
    "address": "87 Mattock Lane, London",
    "postcode": "W5 5BJ",
    "lat": 51.510221,
    "lng": -0.312464
  },
  {
    "id": "hosp-gold_angels_medical_aesthetics",
    "type": "hospital",
    "name": "Gold Angels Medical Aesthetics",
    "address": "12 Genotin Terrace, Enfield",
    "postcode": "EN1 2AF",
    "lat": 51.651667,
    "lng": -0.079837
  },
  {
    "id": "hosp-optimax_laser_eye_clinics_london",
    "type": "hospital",
    "name": "Optimax Laser Eye Clinics - London",
    "address": "128 Finchley Road, London",
    "postcode": "NW3 5HT",
    "lat": 51.546797,
    "lng": -0.179143
  },
  {
    "id": "hosp-care_london",
    "type": "hospital",
    "name": "CARE London",
    "address": "Park Lorne, London",
    "postcode": "NW8 7JL",
    "lat": 51.527573,
    "lng": -0.165465
  },
  {
    "id": "hosp-the_whiteley_clinic_london",
    "type": "hospital",
    "name": "The Whiteley Clinic London",
    "address": "One Chapel Place, London",
    "postcode": "W1G 0BG",
    "lat": 51.515284,
    "lng": -0.146848
  },
  {
    "id": "hosp-harley_health_village",
    "type": "hospital",
    "name": "Harley Health Village",
    "address": "64 Harley Street, London",
    "postcode": "W1G 7HB",
    "lat": 51.519603,
    "lng": -0.147018
  },
  {
    "id": "hosp-harley_health_village_69",
    "type": "hospital",
    "name": "Harley Health Village - 69",
    "address": "69 Harley Street, London",
    "postcode": "W1G 8QW",
    "lat": 51.519529,
    "lng": -0.147439
  },
  {
    "id": "hosp-the_medical_chambers_kensington",
    "type": "hospital",
    "name": "The Medical Chambers Kensington",
    "address": "10 Knaresborough Place, London",
    "postcode": "SW5 0TG",
    "lat": 51.494191,
    "lng": -0.190821
  },
  {
    "id": "hosp-xyla_elective_care",
    "type": "hospital",
    "name": "Xyla Elective Care",
    "address": "Broadgate Quarter, London",
    "postcode": "EC2A 2AP",
    "lat": 51.521691,
    "lng": -0.081634
  },
  {
    "id": "hosp-queen_square_imaging_centre",
    "type": "hospital",
    "name": "Queen Square Imaging Centre",
    "address": "8 - 11 Queen Square, London",
    "postcode": "WC1N 3AR",
    "lat": 51.521375,
    "lng": -0.122686
  },
  {
    "id": "hosp-the_evewell",
    "type": "hospital",
    "name": "The Evewell",
    "address": "182 Hammersmith Road, London",
    "postcode": "W6 7DJ",
    "lat": 51.493303,
    "lng": -0.220994
  },
  {
    "id": "hosp-the_fitzrovia_hospital",
    "type": "hospital",
    "name": "The Fitzrovia Hospital",
    "address": "13-14, London",
    "postcode": "W1T 6AH",
    "lat": 51.523564,
    "lng": -0.140442
  },
  {
    "id": "hosp-beyond_medispa",
    "type": "hospital",
    "name": "Beyond Medispa",
    "address": "Harriet Walk, London",
    "postcode": "SW1X 7RJ",
    "lat": 51.501576,
    "lng": -0.159795
  },
  {
    "id": "hosp-st_anthony_s_hospital",
    "type": "hospital",
    "name": "St Anthony's Hospital",
    "address": "London Road, Sutton",
    "postcode": "SM3 9DW",
    "lat": 51.37992,
    "lng": -0.220794
  },
  {
    "id": "hosp-health_and_education_centre",
    "type": "hospital",
    "name": "Health and Education Centre",
    "address": "112a, London",
    "postcode": "SW19 2EZ",
    "lat": 51.418616,
    "lng": -0.172276
  },
  {
    "id": "hosp-cinema_house",
    "type": "hospital",
    "name": "Cinema House",
    "address": "4th Floor, London",
    "postcode": "W1F 0UD",
    "lat": 51.512774,
    "lng": -0.133719
  },
  {
    "id": "hosp-msi_reproductive_choices_local_treatment_centre_central_london",
    "type": "hospital",
    "name": "MSI Reproductive Choices Local Treatment Centre - Central London",
    "address": "108 Whitfield Street, London",
    "postcode": "W1T 5BE",
    "lat": 51.523101,
    "lng": -0.137881
  },
  {
    "id": "hosp-optimal_vision",
    "type": "hospital",
    "name": "Optimal Vision",
    "address": "7 Gower Street, London",
    "postcode": "WC1E 6HA",
    "lat": 51.519895,
    "lng": -0.130228
  },
  {
    "id": "hosp-drducu_london",
    "type": "hospital",
    "name": "DrDucu London",
    "address": "Third floor, 89-91, London",
    "postcode": "W1F 0UB",
    "lat": 51.512648,
    "lng": -0.133724
  },
  {
    "id": "hosp-the_ghanem_clinic",
    "type": "hospital",
    "name": "The Ghanem Clinic",
    "address": "4 Upper Wimpole Street, London",
    "postcode": "W1G 6LF",
    "lat": 51.520707,
    "lng": -0.149121
  },
  {
    "id": "hosp-kensington_medical_clinic",
    "type": "hospital",
    "name": "Kensington Medical Clinic",
    "address": "49 Marloes Road, London",
    "postcode": "W8 6LA",
    "lat": 51.497061,
    "lng": -0.192667
  },
  {
    "id": "hosp-focus_clinics",
    "type": "hospital",
    "name": "Focus Clinics",
    "address": "22 Wimpole Street, London",
    "postcode": "W1G 8GQ",
    "lat": 51.518515,
    "lng": -0.148115
  },
  {
    "id": "hosp-proton_international_uclh",
    "type": "hospital",
    "name": "Proton International @ UCLH",
    "address": "1 Grafton Way, London",
    "postcode": "WC1E 6AS",
    "lat": 51.524893,
    "lng": -0.136885
  },
  {
    "id": "hosp-the_cadogan_clinic",
    "type": "hospital",
    "name": "The Cadogan Clinic",
    "address": "120 Sloane Street, London",
    "postcode": "SW1X 9BW",
    "lat": 51.494353,
    "lng": -0.158502
  },
  {
    "id": "hosp-136_harley_street",
    "type": "hospital",
    "name": "136 Harley Street",
    "address": "136 Harley Street, London",
    "postcode": "W1G 7JZ",
    "lat": 51.522564,
    "lng": -0.148296
  },
  {
    "id": "hosp-fortius_clinic_london",
    "type": "hospital",
    "name": "Fortius Clinic London",
    "address": "66 Wigmore Street, London",
    "postcode": "W1U 2SB",
    "lat": 51.516584,
    "lng": -0.14998
  },
  {
    "id": "hosp-ocl_vision_kensington",
    "type": "hospital",
    "name": "OCL Vision Kensington",
    "address": "First Floor, The Universal Building, London",
    "postcode": "W14 8NS",
    "lat": 51.497066,
    "lng": -0.205302
  },
  {
    "id": "hosp-delta_clinics",
    "type": "hospital",
    "name": "Delta Clinics",
    "address": "4 Hendon Lane, London",
    "postcode": "N3 1TR",
    "lat": 51.600033,
    "lng": -0.196666
  },
  {
    "id": "hosp-hca_healthcare_uk_leaders_in_oncology_care",
    "type": "hospital",
    "name": "HCA Healthcare UK Leaders in Oncology Care",
    "address": "95 Harley Street, London",
    "postcode": "W1G 6AF",
    "lat": 51.520702,
    "lng": -0.148228
  },
  {
    "id": "hosp-elite_body_sculpture_uk_limited",
    "type": "hospital",
    "name": "Elite Body Sculpture UK Limited",
    "address": "51 Harley Street, London",
    "postcode": "W1G 8QQ",
    "lat": 51.518777,
    "lng": -0.147081
  },
  {
    "id": "hosp-davita_uk_limited_purley",
    "type": "hospital",
    "name": "DaVita (UK) Limited - Purley",
    "address": "Coulsdon Centre, Coulsdon",
    "postcode": "CR5 2DB",
    "lat": 51.321569,
    "lng": -0.138792
  },
  {
    "id": "hosp-laser_eye_clinic_london",
    "type": "hospital",
    "name": "Laser Eye Clinic London",
    "address": "Retail Unit 2, Collier House, London",
    "postcode": "SW3 1PY",
    "lat": 51.498502,
    "lng": -0.165048
  },
  {
    "id": "hosp-101_harley_street",
    "type": "hospital",
    "name": "101 Harley Street",
    "address": "Consulting Rooms, London",
    "postcode": "W1G 6AH",
    "lat": 51.520979,
    "lng": -0.148159
  },
  {
    "id": "hosp-the_gynae_centre",
    "type": "hospital",
    "name": "The Gynae Centre",
    "address": "23 Milford House, London",
    "postcode": "W1G 9HN",
    "lat": 51.518163,
    "lng": -0.145188
  },
  {
    "id": "hosp-the_d_souza_clinic",
    "type": "hospital",
    "name": "The D'Souza Clinic",
    "address": "8 Upper Wimpole Street, London",
    "postcode": "W1G 6LH",
    "lat": 51.520985,
    "lng": -0.149081
  },
  {
    "id": "hosp-the_private_clinic_fitzroy_square",
    "type": "hospital",
    "name": "The Private Clinic - Fitzroy Square",
    "address": "Adam House, London",
    "postcode": "W1T 5HF",
    "lat": 51.523083,
    "lng": -0.139006
  },
  {
    "id": "hosp-community_health_and_eyecare_ilford",
    "type": "hospital",
    "name": "Community Health and Eyecare Ilford",
    "address": "Unit 2 The Horizon Building, Ilford",
    "postcode": "IG1 2DG",
    "lat": 51.558296,
    "lng": 0.068298
  },
  {
    "id": "hosp-anna_de_leo_ltd",
    "type": "hospital",
    "name": "Anna De Leo Ltd",
    "address": "2nd Floor Consultation Room, The London Welbeck Hospital, London",
    "postcode": "W1G 8EN",
    "lat": 51.518239,
    "lng": -0.149437
  },
  {
    "id": "hosp-london_medical_aesthetic_clinic",
    "type": "hospital",
    "name": "London Medical Aesthetic Clinic",
    "address": "Milner House, London",
    "postcode": "W1U 3PP",
    "lat": 51.516276,
    "lng": -0.153293
  },
  {
    "id": "hosp-spamedica_dalston",
    "type": "hospital",
    "name": "SpaMedica Dalston",
    "address": "Playle House, London",
    "postcode": "N1 4BZ",
    "lat": 51.54536,
    "lng": -0.077321
  },
  {
    "id": "hosp-avenues",
    "type": "hospital",
    "name": "Avenues",
    "address": "Carriage Row South, London",
    "postcode": "NW1 1BU",
    "lat": 51.531813,
    "lng": -0.13604
  },
  {
    "id": "hosp-injectual_clinic",
    "type": "hospital",
    "name": "Injectual Clinic",
    "address": "59 Westbourne Grove, London",
    "postcode": "W2 4UA",
    "lat": 51.515484,
    "lng": -0.189574
  },
  {
    "id": "hosp-seymour_clinic",
    "type": "hospital",
    "name": "Seymour Clinic",
    "address": "78, London",
    "postcode": "W1H 2EH",
    "lat": 51.518598,
    "lng": -0.162568
  },
  {
    "id": "hosp-hans_place_medical_practice",
    "type": "hospital",
    "name": "Hans Place Medical Practice",
    "address": "43 Hans Place, London",
    "postcode": "SW1X 0JZ",
    "lat": 51.497929,
    "lng": -0.161729
  },
  {
    "id": "hosp-aces_harley_street_hospital",
    "type": "hospital",
    "name": "ACES Harley Street Hospital",
    "address": "Harmont House, London",
    "postcode": "W1G 9AP",
    "lat": 51.518026,
    "lng": -0.146189
  },
  {
    "id": "hosp-harley_street_specialist_hospital",
    "type": "hospital",
    "name": "Harley Street Specialist Hospital",
    "address": "18-22 Queen Anne Street, London",
    "postcode": "W1G 8HU",
    "lat": 51.518201,
    "lng": -0.147017
  },
  {
    "id": "hosp-london_lauriston_clinic_ltd",
    "type": "hospital",
    "name": "London Lauriston Clinic Ltd",
    "address": "34 Great Titchfield Street, London",
    "postcode": "W1W 8BQ",
    "lat": 51.517585,
    "lng": -0.139922
  },
  {
    "id": "hosp-optegra_west_london",
    "type": "hospital",
    "name": "Optegra West London",
    "address": "Unit 6 High Street Quarter, Hounslow",
    "postcode": "TW3 1EL",
    "lat": 51.469892,
    "lng": -0.362158
  },
  {
    "id": "hosp-somers_place_kidney_unit",
    "type": "hospital",
    "name": "Somers Place Kidney Unit",
    "address": "Somers Place Kidney Unit, London",
    "postcode": "SW2 2AL",
    "lat": 51.449815,
    "lng": -0.120168
  },
  {
    "id": "hosp-city_clinics_group_limited",
    "type": "hospital",
    "name": "City Clinics Group Limited",
    "address": "82 Harley Street, London",
    "postcode": "W1G 7HN",
    "lat": 51.520246,
    "lng": -0.14728
  },
  {
    "id": "hosp-skin_medical",
    "type": "hospital",
    "name": "Skin Medical",
    "address": "The William Old Centre, Northwood",
    "postcode": "HA6 2NP",
    "lat": 51.614487,
    "lng": -0.439837
  },
  {
    "id": "hosp-your_medical_service_limited",
    "type": "hospital",
    "name": "Your Medical Service Limited",
    "address": "Your World Recruitment, Level 4, London",
    "postcode": "EC2A 2BB",
    "lat": 51.521844,
    "lng": -0.084971
  },
  {
    "id": "hosp-18_week_support_head_office",
    "type": "hospital",
    "name": "18 Week Support Head Office",
    "address": "First Floor, We Work, London",
    "postcode": "W2 6LG",
    "lat": 51.516753,
    "lng": -0.179204
  },
  {
    "id": "hosp-the_a_lounge",
    "type": "hospital",
    "name": "The A Lounge",
    "address": "15 Harley Street, London",
    "postcode": "W1G 9QQ",
    "lat": 51.517274,
    "lng": -0.146435
  },
  {
    "id": "hosp-the_retina_clinic_london",
    "type": "hospital",
    "name": "The Retina Clinic London",
    "address": "24 Queen Anne Street, London",
    "postcode": "W1G 9AY",
    "lat": 51.518169,
    "lng": -0.147264
  },
  {
    "id": "hosp-nupas_finchley",
    "type": "hospital",
    "name": "NUPAS Finchley",
    "address": "Torrington Park Health Centre, London",
    "postcode": "N12 9SS",
    "lat": 51.617033,
    "lng": -0.175438
  },
  {
    "id": "hosp-dhi_international_uk_limited",
    "type": "hospital",
    "name": "DHI International UK Limited",
    "address": "43 New Cavendish Street, London",
    "postcode": "W1G 9TH",
    "lat": 51.519109,
    "lng": -0.149287
  },
  {
    "id": "hosp-the_new_victoria_hospital",
    "type": "hospital",
    "name": "The New Victoria Hospital",
    "address": "184 Coombe Lane West, Kingston Upon Thames",
    "postcode": "KT2 7EG",
    "lat": 51.415693,
    "lng": -0.254266
  },
  {
    "id": "hosp-seon_vision",
    "type": "hospital",
    "name": "Seon Vision",
    "address": "140 London Road, Kingston Upon Thames",
    "postcode": "KT2 6QL",
    "lat": 51.411132,
    "lng": -0.290764
  },
  {
    "id": "hosp-optegra_eye_hospital_london",
    "type": "hospital",
    "name": "Optegra Eye Hospital London",
    "address": "25 - 27 Queen Anne Street, London",
    "postcode": "W1G 9HT",
    "lat": 51.517915,
    "lng": -0.14713
  },
  {
    "id": "hosp-spamedica_croydon",
    "type": "hospital",
    "name": "SpaMedica Croydon",
    "address": "Interchange 81-85, Croydon",
    "postcode": "CR0 2RD",
    "lat": 51.379541,
    "lng": -0.101436
  },
  {
    "id": "hosp-spamedica_wembley",
    "type": "hospital",
    "name": "SpaMedica Wembley",
    "address": "28 and 30 Wembley Park Boulevard, Wembley",
    "postcode": "HA9 0HP",
    "lat": 51.557531,
    "lng": -0.281544
  },
  {
    "id": "hosp-152_harley_street_limited",
    "type": "hospital",
    "name": "152 Harley Street Limited",
    "address": "152, Harley Street, London",
    "postcode": "W1G 7LH",
    "lat": 51.523126,
    "lng": -0.148562
  },
  {
    "id": "hosp-sarah_cannon_research_uk",
    "type": "hospital",
    "name": "Sarah Cannon Research UK",
    "address": "93 Harley Street, London",
    "postcode": "W1G 6AD",
    "lat": 51.520671,
    "lng": -0.147998
  },
  {
    "id": "hosp-the_centre_for_reproductive_and_genetic_health",
    "type": "hospital",
    "name": "The Centre for Reproductive and Genetic Health",
    "address": "230-232 Great Portland Street, London",
    "postcode": "W1W 5QS",
    "lat": 51.522978,
    "lng": -0.143724
  },
  {
    "id": "hosp-ellern_mede_ridgeway",
    "type": "hospital",
    "name": "Ellern Mede Ridgeway",
    "address": "Holcombe Hill, London",
    "postcode": "NW7 4HX",
    "lat": 51.623447,
    "lng": -0.236797
  },
  {
    "id": "hosp-mayfair_childrens_clinic_ltd",
    "type": "hospital",
    "name": "Mayfair Childrens Clinic Ltd",
    "address": "15 Chesterfield Street, London",
    "postcode": "W1J 5JN",
    "lat": 51.506965,
    "lng": -0.148511
  },
  {
    "id": "hosp-mayfair_hair_and_beauty_ltd",
    "type": "hospital",
    "name": "Mayfair Hair and Beauty Ltd",
    "address": "205 Regent Street, London",
    "postcode": "W1B 4HB",
    "lat": 51.513206,
    "lng": -0.141124
  },
  {
    "id": "hosp-optical_express_great_portland_street_hospital",
    "type": "hospital",
    "name": "Optical Express \u0096 Great Portland Street Hospital",
    "address": "74 Great Portland Street, London",
    "postcode": "W1W 7NL",
    "lat": 51.51816,
    "lng": -0.141614
  },
  {
    "id": "hosp-hca_healthcare_uk_chelsea_outpatients",
    "type": "hospital",
    "name": "HCA Healthcare UK Chelsea Outpatients",
    "address": "280 Kings Road, London",
    "postcode": "SW3 5AW",
    "lat": 51.486572,
    "lng": -0.171577
  },
  {
    "id": "hosp-chelsea_hospital_limited",
    "type": "hospital",
    "name": "Chelsea Hospital Limited",
    "address": "169 Fulham Road, London",
    "postcode": "SW3 6SP",
    "lat": 51.491723,
    "lng": -0.171486
  },
  {
    "id": "hosp-fyc_innovation_medical",
    "type": "hospital",
    "name": "FYC Innovation Medical",
    "address": "4th Floor, Cinema House, London",
    "postcode": "W1F 0UD",
    "lat": 51.512774,
    "lng": -0.133719
  },
  {
    "id": "hosp-london_bridge_healthcare",
    "type": "hospital",
    "name": "London Bridge Healthcare",
    "address": "Third Floor, London",
    "postcode": "SE1 1YR",
    "lat": 51.502544,
    "lng": -0.08872
  },
  {
    "id": "hosp-food_allergy_immunotherapy_limited_duchess_street",
    "type": "hospital",
    "name": "Food Allergy Immunotherapy Limited \u0096 Duchess Street",
    "address": "10 Duchess Street, London",
    "postcode": "W1G 9AB",
    "lat": 51.518938,
    "lng": -0.145315
  },
  {
    "id": "hosp-hair_science_clinic",
    "type": "hospital",
    "name": "Hair Science Clinic",
    "address": "56-57, London",
    "postcode": "SW3 1NZ",
    "lat": 51.497922,
    "lng": -0.165879
  },
  {
    "id": "hosp-dr_wolf_clinic",
    "type": "hospital",
    "name": "Dr Wolf Clinic",
    "address": "Adam House, London",
    "postcode": "W1T 5HF",
    "lat": 51.523083,
    "lng": -0.139006
  },
  {
    "id": "hosp-hammersmith_private_hospital",
    "type": "hospital",
    "name": "Hammersmith Private Hospital",
    "address": "The Triangle 5-17, London",
    "postcode": "W6 0LG",
    "lat": 51.494069,
    "lng": -0.226409
  },
  {
    "id": "hosp-aria",
    "type": "hospital",
    "name": "Aria",
    "address": "8 Welbeck Way, London",
    "postcode": "W1G 9YL",
    "lat": 51.517224,
    "lng": -0.148398
  },
  {
    "id": "hosp-holloway_surgical_centre_london",
    "type": "hospital",
    "name": "HOLLOWAY SURGICAL CENTRE LONDON",
    "address": "Unit 5, London",
    "postcode": "N7 8GR",
    "lat": 51.551311,
    "lng": -0.11365
  },
  {
    "id": "hosp-king_edward_vii_s_hospital",
    "type": "hospital",
    "name": "King Edward VII\u0092s Hospital",
    "address": "5-10 Beaumont Street, London",
    "postcode": "W1G 6AA",
    "lat": 51.520779,
    "lng": -0.1503
  },
  {
    "id": "hosp-hair_gp",
    "type": "hospital",
    "name": "Hair GP",
    "address": "29 Basuto Road, London",
    "postcode": "SW6 4BJ",
    "lat": 51.475632,
    "lng": -0.197949
  },
  {
    "id": "hosp-reset_medical_aesthetic_clinic",
    "type": "hospital",
    "name": "Reset Medical Aesthetic Clinic",
    "address": "36 Widmore Road, Bromley",
    "postcode": "BR1 1RY",
    "lat": 51.405764,
    "lng": 0.016963
  },
  {
    "id": "hosp-renaliv_ltd",
    "type": "hospital",
    "name": "Renaliv Ltd",
    "address": "68 Iveagh Avenue, London",
    "postcode": "NW10 7DH",
    "lat": 51.535493,
    "lng": -0.282317
  },
  {
    "id": "hosp-langham_hospital",
    "type": "hospital",
    "name": "Langham Hospital",
    "address": "Lower Ground, London",
    "postcode": "W1W 5HB",
    "lat": 51.521956,
    "lng": -0.144486
  },
  {
    "id": "hosp-anna_de_leo",
    "type": "hospital",
    "name": "Anna De Leo",
    "address": "Harley Health Village, London",
    "postcode": "W1G 7HB",
    "lat": 51.519603,
    "lng": -0.147018
  },
  {
    "id": "hosp-london_vision_clinic",
    "type": "hospital",
    "name": "London Vision Clinic",
    "address": "138 Harley Street, London",
    "postcode": "W1G 7LA",
    "lat": 51.522637,
    "lng": -0.148351
  },
  {
    "id": "hosp-fortius_surgical_centre",
    "type": "hospital",
    "name": "Fortius Surgical Centre",
    "address": "18 Bentinck Street, London",
    "postcode": "W1U 2EU",
    "lat": 51.517031,
    "lng": -0.149861
  },
  {
    "id": "hosp-practice_plus_group_hospital_ilford",
    "type": "hospital",
    "name": "Practice Plus Group Hospital - Ilford",
    "address": "King George Hospital, Ilford",
    "postcode": "IG3 8YY",
    "lat": 51.580546,
    "lng": 0.112133
  },
  {
    "id": "hosp-hca_healthcare_uk_london_digestive_centre",
    "type": "hospital",
    "name": "HCA Healthcare UK London Digestive Centre",
    "address": "41 Welbeck Street, London",
    "postcode": "W1G 8DU",
    "lat": 51.51833,
    "lng": -0.150097
  },
  {
    "id": "hosp-sidcup_kidney_treatment_centre",
    "type": "hospital",
    "name": "Sidcup Kidney Treatment Centre",
    "address": "B Block, Queen Marys Hospital, Sidcup",
    "postcode": "DA14 6LT",
    "lat": 51.419041,
    "lng": 0.101687
  },
  {
    "id": "hosp-hca_healthcare_uk_wellington_hospital_outpatients_leaders_in_oncology_care",
    "type": "hospital",
    "name": "HCA Healthcare UK Wellington Hospital Outpatients, Leaders in Oncology Care",
    "address": "15-17 Lodge Road, London",
    "postcode": "NW8 7JA",
    "lat": 51.529473,
    "lng": -0.167941
  },
  {
    "id": "hosp-hca_healthcare_uk_sydney_street_outpatients_leaders_in_oncology_care",
    "type": "hospital",
    "name": "HCA Healthcare UK Sydney Street Outpatients, Leaders in Oncology Care",
    "address": "102  Sydney Street, London",
    "postcode": "SW3 6NR",
    "lat": 51.488035,
    "lng": -0.16966
  },
  {
    "id": "hosp-my_cosmetic_centre",
    "type": "hospital",
    "name": "My Cosmetic Centre",
    "address": "44 Chippenham Road, London",
    "postcode": "W9 2AF",
    "lat": 51.524325,
    "lng": -0.197844
  },
  {
    "id": "hosp-mallucci_london",
    "type": "hospital",
    "name": "Mallucci London",
    "address": "13 Crescent Place, London",
    "postcode": "SW3 2EA",
    "lat": 51.494324,
    "lng": -0.168112
  },
  {
    "id": "hosp-hca_healthcare_uk_london_bridge_hospital_leaders_in_oncology_care",
    "type": "hospital",
    "name": "HCA Healthcare UK London Bridge Hospital, Leaders in Oncology Care",
    "address": "Guy's Hospital, London",
    "postcode": "SE1 9RT",
    "lat": 51.503331,
    "lng": -0.086771
  },
  {
    "id": "hosp-hca_healthcare_uk_chiswick_outpatients",
    "type": "hospital",
    "name": "HCA Healthcare UK Chiswick Outpatients",
    "address": "Bond House, London",
    "postcode": "W4 4HS",
    "lat": 51.492762,
    "lng": -0.269576
  },
  {
    "id": "hosp-optegra_london",
    "type": "hospital",
    "name": "Optegra London",
    "address": "Unit 6, London",
    "postcode": "NW9 6BX",
    "lat": 51.592155,
    "lng": -0.254279
  },
  {
    "id": "hosp-my_iclinic",
    "type": "hospital",
    "name": "My-iClinic",
    "address": "Britannia House, London",
    "postcode": "N12 9RY",
    "lat": 51.62197,
    "lng": -0.176049
  },
  {
    "id": "hosp-crgh_city",
    "type": "hospital",
    "name": "CRGH City",
    "address": "16 St John Street, London",
    "postcode": "EC1M 4NT",
    "lat": 51.520206,
    "lng": -0.101473
  },
  {
    "id": "hosp-the_gamma_knife_centre_at_the_national_hospital_for_neurology_and_neurosurgery",
    "type": "hospital",
    "name": "The Gamma Knife Centre at The National Hospital for Neurology and Neurosurgery",
    "address": "Chandler Wing, London",
    "postcode": "WC1N 3BG",
    "lat": 51.522173,
    "lng": -0.121976
  },
  {
    "id": "hosp-thamesmead_kidney_treatment_centre",
    "type": "hospital",
    "name": "Thamesmead Kidney Treatment Centre",
    "address": "133 Nathan Way, London",
    "postcode": "SE28 0AB",
    "lat": 51.495862,
    "lng": 0.098507
  },
  {
    "id": "hosp-the_plastic_surgery_group",
    "type": "hospital",
    "name": "The Plastic Surgery Group",
    "address": "100 Harley Street, London",
    "postcode": "W1G 7JA",
    "lat": 51.521143,
    "lng": -0.14772
  },
  {
    "id": "hosp-the_evewell_harley_street_limited",
    "type": "hospital",
    "name": "The Evewell (Harley Street) Limited",
    "address": "61 Harley Street, London",
    "postcode": "W1G 8QU",
    "lat": 51.519026,
    "lng": -0.147488
  },
  {
    "id": "hosp-25_harley_street",
    "type": "hospital",
    "name": "25 Harley Street",
    "address": "25 Harley Street, London",
    "postcode": "W1G 9QW",
    "lat": 51.517664,
    "lng": -0.146621
  },
  {
    "id": "hosp-ocl_vision",
    "type": "hospital",
    "name": "OCL Vision",
    "address": "55 New Cavendish Street, London",
    "postcode": "W1G 9TF",
    "lat": 51.519365,
    "lng": -0.147849
  },
  {
    "id": "hosp-genesiscare_centre_for_radiotherapy_at_cromwell_hospital",
    "type": "hospital",
    "name": "GenesisCare Centre for Radiotherapy at Cromwell Hospital",
    "address": "Bupa Cromwell Hospital, London",
    "postcode": "SW5 0TU",
    "lat": 51.495107,
    "lng": -0.191361
  },
  {
    "id": "hosp-lewisham_dialysis_center",
    "type": "hospital",
    "name": "Lewisham Dialysis Center",
    "address": "University Hospital Lewisham, London",
    "postcode": "SE13 6LH",
    "lat": 51.453022,
    "lng": -0.017917
  },
  {
    "id": "hosp-111_harley_st",
    "type": "hospital",
    "name": "111 Harley St.",
    "address": "111 Harley Street, London",
    "postcode": "W1G 6AW",
    "lat": 51.521351,
    "lng": -0.148345
  },
  {
    "id": "hosp-one_welbeck_endoscopy_centre",
    "type": "hospital",
    "name": "One Welbeck Endoscopy Centre",
    "address": "1 Welbeck Street, London",
    "postcode": "W1G 0AR",
    "lat": 51.516185,
    "lng": -0.148094
  },
  {
    "id": "hosp-institute_of_sport_exercise_health_iseh",
    "type": "hospital",
    "name": "Institute of Sport Exercise & Health (ISeH)",
    "address": "2nd Floor, London",
    "postcode": "W1T 7HA",
    "lat": 51.522711,
    "lng": -0.135965
  },
  {
    "id": "hosp-hammersmith_private_hospital",
    "type": "hospital",
    "name": "Hammersmith Private Hospital",
    "address": "Enhance Medical, The Triangle 5-17, London",
    "postcode": "W6 0LG",
    "lat": 51.494069,
    "lng": -0.226409
  },
  {
    "id": "hosp-hgc_romford_limited",
    "type": "hospital",
    "name": "HGC Romford Limited",
    "address": "48 - 50 South Street, Romford",
    "postcode": "RM1 1RB",
    "lat": 51.576814,
    "lng": 0.181483
  },
  {
    "id": "hosp-mayo_clinic_healthcare_llp",
    "type": "hospital",
    "name": "Mayo Clinic Healthcare LLP",
    "address": "15 Portland Place, London",
    "postcode": "W1B 1PT",
    "lat": 51.519013,
    "lng": -0.144909
  },
  {
    "id": "hosp-harley_surgical_centre",
    "type": "hospital",
    "name": "Harley Surgical Centre",
    "address": "29a Wimpole Street, London",
    "postcode": "W1G 8GP",
    "lat": 51.518959,
    "lng": -0.14837
  },
  {
    "id": "hosp-134_harley_street",
    "type": "hospital",
    "name": "134 Harley Street",
    "address": "134 Harley Street, London",
    "postcode": "W1G 7JY",
    "lat": 51.52251,
    "lng": -0.148284
  },
  {
    "id": "hosp-onewelbeck_heart_health",
    "type": "hospital",
    "name": "OneWelbeck Heart Health",
    "address": "1 Welbeck Street, London",
    "postcode": "W1G 0AR",
    "lat": 51.516185,
    "lng": -0.148094
  },
  {
    "id": "hosp-one_welbeck_surgery",
    "type": "hospital",
    "name": "One Welbeck Surgery",
    "address": "1 Welbeck Street, London",
    "postcode": "W1G 0AR",
    "lat": 51.516185,
    "lng": -0.148094
  },
  {
    "id": "hosp-onewelbeck_orthopaedics",
    "type": "hospital",
    "name": "OneWelbeck Orthopaedics",
    "address": "1 Welbeck Street, London",
    "postcode": "W1G 0AR",
    "lat": 51.516185,
    "lng": -0.148094
  },
  {
    "id": "hosp-the_cataract_centre_lincoln_road_medical_practice",
    "type": "hospital",
    "name": "The Cataract Centre - Lincoln Road Medical Practice",
    "address": "Lincoln Road, Enfield",
    "postcode": "EN1 1LJ",
    "lat": 51.64585,
    "lng": -0.061841
  },
  {
    "id": "hosp-cora_health_west_london_clinic",
    "type": "hospital",
    "name": "Cora Health - West London Clinic",
    "address": "Unit 3, Brentford",
    "postcode": "TW8 9DR",
    "lat": 51.486009,
    "lng": -0.315937
  },
  {
    "id": "hosp-drmedispa_yourhairdoc",
    "type": "hospital",
    "name": "DrMediSpa & Yourhairdoc",
    "address": "59 Chiltern Street, London",
    "postcode": "W1U 6NF",
    "lat": 51.520164,
    "lng": -0.155759
  },
  {
    "id": "hosp-new_malden_diagnostic_centre",
    "type": "hospital",
    "name": "New Malden Diagnostic Centre",
    "address": "171 Clarence Avenue, New Malden",
    "postcode": "KT3 3TX",
    "lat": 51.410047,
    "lng": -0.262218
  },
  {
    "id": "hosp-onewelbeck_women_s_health",
    "type": "hospital",
    "name": "OneWelbeck Women's Health",
    "address": "1 Welbeck Street, London",
    "postcode": "W1G 0AR",
    "lat": 51.516185,
    "lng": -0.148094
  },
  {
    "id": "hosp-onewelbeck_digestive_health",
    "type": "hospital",
    "name": "OneWelbeck Digestive Health",
    "address": "1 Welbeck Street, London",
    "postcode": "W1G 0AR",
    "lat": 51.516185,
    "lng": -0.148094
  },
  {
    "id": "hosp-spamedica_bromley",
    "type": "hospital",
    "name": "SpaMedica Bromley",
    "address": "Northside House, Bromley",
    "postcode": "BR1 3WA",
    "lat": 51.408423,
    "lng": 0.016606
  },
  {
    "id": "hosp-davita_uk_ltd_sutton",
    "type": "hospital",
    "name": "DaVita (UK) Ltd - Sutton",
    "address": "Copthall House, Sutton",
    "postcode": "SM1 1DA",
    "lat": 51.359854,
    "lng": -0.193547
  },
  {
    "id": "hosp-davita_uk_ltd_north_wandsworth",
    "type": "hospital",
    "name": "DaVita (UK) Ltd - North Wandsworth",
    "address": "Unit 9-10, 102-104 Stewarts Road, London",
    "postcode": "SW8 4UY",
    "lat": 51.473998,
    "lng": -0.139392
  },
  {
    "id": "hosp-the_royal_london_hospital",
    "type": "hospital",
    "name": "The Royal London Hospital",
    "address": "Whitechapel Road, London",
    "postcode": "E1 1BB",
    "lat": 51.519019,
    "lng": -0.058106
  },
  {
    "id": "hosp-mile_end_hospital",
    "type": "hospital",
    "name": "Mile End Hospital",
    "address": "Bancroft Road, London",
    "postcode": "E1 4DG",
    "lat": 51.525049,
    "lng": -0.042179
  },
  {
    "id": "hosp-barking_birth_centre",
    "type": "hospital",
    "name": "Barking Birth Centre",
    "address": "Barking Community Hospital, Barking",
    "postcode": "IG11 9LX",
    "lat": 51.538565,
    "lng": 0.098754
  },
  {
    "id": "hosp-whipps_cross_university_hospital",
    "type": "hospital",
    "name": "Whipps Cross University Hospital",
    "address": "Whipps Cross Road, London",
    "postcode": "E11 1NR",
    "lat": 51.578833,
    "lng": 0.002666
  },
  {
    "id": "hosp-st_bartholomew_s_hospital",
    "type": "hospital",
    "name": "St Bartholomew's Hospital",
    "address": "West Smithfield, London",
    "postcode": "EC1A 7BE",
    "lat": 51.517751,
    "lng": -0.100379
  },
  {
    "id": "hosp-newham_university_hospital",
    "type": "hospital",
    "name": "Newham University Hospital",
    "address": "Glen Road, London",
    "postcode": "E13 8SL",
    "lat": 51.522777,
    "lng": 0.034744
  },
  {
    "id": "hosp-the_barkantine_centre",
    "type": "hospital",
    "name": "The Barkantine Centre",
    "address": "121 Westferry Road, London",
    "postcode": "E14 8JH",
    "lat": 51.500807,
    "lng": -0.025698
  },
  {
    "id": "hosp-northwick_park_hospital",
    "type": "hospital",
    "name": "Northwick Park Hospital",
    "address": "Watford Road, Harrow",
    "postcode": "HA1 3UJ",
    "lat": 51.575409,
    "lng": -0.322015
  },
  {
    "id": "hosp-central_middlesex_hospital",
    "type": "hospital",
    "name": "Central Middlesex Hospital",
    "address": "Acton Lane, London",
    "postcode": "NW10 7NS",
    "lat": 51.530938,
    "lng": -0.269138
  },
  {
    "id": "hosp-st_mark_s_hospital",
    "type": "hospital",
    "name": "St Mark's Hospital",
    "address": "Watford Road, Harrow",
    "postcode": "HA1 3UJ",
    "lat": 51.575409,
    "lng": -0.322015
  },
  {
    "id": "hosp-ealing_hospital",
    "type": "hospital",
    "name": "Ealing Hospital",
    "address": "Uxbridge Road, Southall",
    "postcode": "UB1 3HU",
    "lat": 51.512427,
    "lng": -0.364784
  },
  {
    "id": "hosp-north_middlesex_university_hospital",
    "type": "hospital",
    "name": "North Middlesex University Hospital",
    "address": "North Middlesex Hospital, London",
    "postcode": "N18 1QX",
    "lat": 51.613096,
    "lng": -0.073725
  },
  {
    "id": "hosp-the_royal_free_hospital",
    "type": "hospital",
    "name": "The Royal Free Hospital",
    "address": "Pond Street, London",
    "postcode": "NW3 2QG",
    "lat": 51.553227,
    "lng": -0.165298
  },
  {
    "id": "hosp-barnet_general_hospital",
    "type": "hospital",
    "name": "Barnet General Hospital",
    "address": "Wellhouse Lane, Barnet",
    "postcode": "EN5 3DJ",
    "lat": 51.650646,
    "lng": -0.214622
  },
  {
    "id": "hosp-mary_rankin_dialysis_unit",
    "type": "hospital",
    "name": "Mary Rankin Dialysis Unit",
    "address": "St Pancras Hospital, London",
    "postcode": "NW1 0PE",
    "lat": 51.536652,
    "lng": -0.131632
  },
  {
    "id": "hosp-finchley_memorial_hospital",
    "type": "hospital",
    "name": "Finchley Memorial Hospital",
    "address": "Granville Road, London",
    "postcode": "N12 0JE",
    "lat": 51.60546,
    "lng": -0.176595
  },
  {
    "id": "hosp-tottenham_hale_kidney_and_diabetes_centre",
    "type": "hospital",
    "name": "Tottenham Hale Kidney and Diabetes Centre",
    "address": "Albemarle Court, Hale Village, London",
    "postcode": "N17 9NF",
    "lat": 51.588134,
    "lng": -0.055826
  },
  {
    "id": "hosp-hadley_wood_hospital",
    "type": "hospital",
    "name": "Hadley Wood Hospital",
    "address": "52 Moxon Street, Barnet",
    "postcode": "EN5 5TS",
    "lat": 51.654137,
    "lng": -0.198828
  },
  {
    "id": "hosp-chase_farm_hospital",
    "type": "hospital",
    "name": "Chase Farm Hospital",
    "address": "The Ridgeway, Enfield",
    "postcode": "EN2 8JL",
    "lat": 51.666528,
    "lng": -0.104009
  },
  {
    "id": "hosp-mount_vernon_hospital",
    "type": "hospital",
    "name": "Mount Vernon Hospital",
    "address": "Rickmansworth Road, Northwood",
    "postcode": "HA6 2RN",
    "lat": 51.614926,
    "lng": -0.445802
  },
  {
    "id": "hosp-edgware_community_hospital",
    "type": "hospital",
    "name": "Edgware Community Hospital",
    "address": "Burnt Oak Broadway, Edgware",
    "postcode": "HA8 0AD",
    "lat": 51.606478,
    "lng": -0.271248
  },
  {
    "id": "hosp-the_royal_national_orthopaedic_hospital_stanmore",
    "type": "hospital",
    "name": "The Royal National Orthopaedic Hospital (Stanmore)",
    "address": "Royal National Orthopaedic Hospital, Stanmore",
    "postcode": "HA7 4LP",
    "lat": 51.632569,
    "lng": -0.310412
  },
  {
    "id": "hosp-royal_national_orthopaedic_hospital_bolsover_street",
    "type": "hospital",
    "name": "Royal National Orthopaedic Hospital (Bolsover Street)",
    "address": "45-51 Bolsover Street, London",
    "postcode": "W1W 5AQ",
    "lat": 51.523312,
    "lng": -0.143264
  },
  {
    "id": "hosp-the_hillingdon_hospital",
    "type": "hospital",
    "name": "The Hillingdon Hospital",
    "address": "Pield Heath Road, Uxbridge",
    "postcode": "UB8 3NN",
    "lat": 51.526078,
    "lng": -0.461155
  },
  {
    "id": "hosp-mount_vernon_hospital",
    "type": "hospital",
    "name": "Mount Vernon Hospital",
    "address": "Rickmansworth Road, Northwood",
    "postcode": "HA6 2RN",
    "lat": 51.614926,
    "lng": -0.445802
  },
  {
    "id": "hosp-kingston_hospital",
    "type": "hospital",
    "name": "Kingston Hospital",
    "address": "Galsworthy Road, Kingston Upon Thames",
    "postcode": "KT2 7QB",
    "lat": 51.414826,
    "lng": -0.282602
  },
  {
    "id": "hosp-teddington_memorial_hospital",
    "type": "hospital",
    "name": "Teddington Memorial Hospital",
    "address": "Hampton Road, Teddington",
    "postcode": "TW11 0JL",
    "lat": 51.425838,
    "lng": -0.340978
  },
  {
    "id": "hosp-king_george_hospital",
    "type": "hospital",
    "name": "King George Hospital",
    "address": "Barley Lane, Ilford",
    "postcode": "IG3 8YB",
    "lat": 51.580546,
    "lng": 0.112133
  },
  {
    "id": "hosp-barking_community_hospital",
    "type": "hospital",
    "name": "Barking Community Hospital",
    "address": "Upney Lane, Barking",
    "postcode": "IG11 9LX",
    "lat": 51.538565,
    "lng": 0.098754
  },
  {
    "id": "hosp-queen_s_hospital",
    "type": "hospital",
    "name": "Queen's Hospital",
    "address": "Rom Valley Way, Romford",
    "postcode": "RM7 0AG",
    "lat": 51.568649,
    "lng": 0.179058
  },
  {
    "id": "hosp-guy_s_hospital",
    "type": "hospital",
    "name": "Guy's Hospital",
    "address": "Great Maze Pond, London",
    "postcode": "SE1 9RT",
    "lat": 51.503331,
    "lng": -0.086771
  },
  {
    "id": "hosp-st_thomas_hospital",
    "type": "hospital",
    "name": "St Thomas' Hospital",
    "address": "Westminster Bridge Road, London",
    "postcode": "SE1 7EH",
    "lat": 51.49796,
    "lng": -0.11888
  },
  {
    "id": "hosp-guy_s_cancer_queen_mary_s_hospital",
    "type": "hospital",
    "name": "Guy's Cancer Queen Mary's Hospital",
    "address": "Frognal Avenue, Sidcup",
    "postcode": "DA14 6LT",
    "lat": 51.419041,
    "lng": 0.101687
  },
  {
    "id": "hosp-harefield_hospital",
    "type": "hospital",
    "name": "Harefield Hospital",
    "address": "Hill End Road, Uxbridge",
    "postcode": "UB9 6JH",
    "lat": 51.606732,
    "lng": -0.482747
  },
  {
    "id": "hosp-royal_brompton_hospital",
    "type": "hospital",
    "name": "Royal Brompton Hospital",
    "address": "Sydney Street, London",
    "postcode": "SW3 6NP",
    "lat": 51.489744,
    "lng": -0.170831
  },
  {
    "id": "hosp-borough_kidney_treatment_centre",
    "type": "hospital",
    "name": "Borough Kidney Treatment Centre",
    "address": "46 Long Lane, London",
    "postcode": "SE1 4AU",
    "lat": 51.500916,
    "lng": -0.090907
  },
  {
    "id": "hosp-camberwell_dialysis_unit",
    "type": "hospital",
    "name": "Camberwell Dialysis Unit",
    "address": "Chartwell Business Park, London",
    "postcode": "SE5 9HW",
    "lat": 51.472601,
    "lng": -0.101074
  },
  {
    "id": "hosp-new_cross_gate_dialysis_unit",
    "type": "hospital",
    "name": "New Cross Gate Dialysis Unit",
    "address": "Unit A, Ewen Henderson Court, London",
    "postcode": "SE14 6BL",
    "lat": 51.476724,
    "lng": -0.039642
  },
  {
    "id": "hosp-university_hospital_lewisham",
    "type": "hospital",
    "name": "University Hospital Lewisham",
    "address": "Lewisham High Street, London",
    "postcode": "SE13 6LH",
    "lat": 51.453022,
    "lng": -0.017917
  },
  {
    "id": "hosp-queen_mary_s_hospital",
    "type": "hospital",
    "name": "Queen Mary's Hospital",
    "address": "Frognal Avenue, Sidcup",
    "postcode": "DA14 6LT",
    "lat": 51.419041,
    "lng": 0.101687
  },
  {
    "id": "hosp-queen_elizabeth_hospital",
    "type": "hospital",
    "name": "Queen Elizabeth Hospital",
    "address": "Stadium Road, London",
    "postcode": "SE18 4QH",
    "lat": 51.478194,
    "lng": 0.050069
  },
  {
    "id": "hosp-waldron_health_centre",
    "type": "hospital",
    "name": "Waldron Health Centre",
    "address": "Amersham Vale, London",
    "postcode": "SE14 6LD",
    "lat": 51.476289,
    "lng": -0.031885
  },
  {
    "id": "hosp-croydon_university_hospital",
    "type": "hospital",
    "name": "Croydon University Hospital",
    "address": "530 London Road, Croydon",
    "postcode": "CR7 7YE",
    "lat": 51.389128,
    "lng": -0.108758
  },
  {
    "id": "hosp-purley_war_memorial_hospital",
    "type": "hospital",
    "name": "Purley War Memorial Hospital",
    "address": "856 Brighton Road, Purley",
    "postcode": "CR8 2YL",
    "lat": 51.34074,
    "lng": -0.11444
  },
  {
    "id": "hosp-st_george_s_hospital_tooting",
    "type": "hospital",
    "name": "St George's Hospital (Tooting)",
    "address": "Blackshaw Road, London",
    "postcode": "SW17 0QT",
    "lat": 51.426682,
    "lng": -0.175694
  },
  {
    "id": "hosp-queen_mary_s_hospital",
    "type": "hospital",
    "name": "Queen Mary's Hospital",
    "address": "Roehampton Lane, London",
    "postcode": "SW15 5PN",
    "lat": 51.455549,
    "lng": -0.241706
  },
  {
    "id": "hosp-st_john_s_therapy_centre",
    "type": "hospital",
    "name": "St John's Therapy Centre",
    "address": "162 St John's Hill, London",
    "postcode": "SW11 1SW",
    "lat": 51.459968,
    "lng": -0.179391
  },
  {
    "id": "hosp-nelson_health_centre",
    "type": "hospital",
    "name": "Nelson Health Centre",
    "address": "Kingston Road, London",
    "postcode": "SW20 8DA",
    "lat": 51.40983,
    "lng": -0.2102
  },
  {
    "id": "hosp-king_s_college_hospital",
    "type": "hospital",
    "name": "King's College Hospital",
    "address": "Denmark Hill, London",
    "postcode": "SE5 9RS",
    "lat": 51.468078,
    "lng": -0.09389
  },
  {
    "id": "hosp-tessa_jowell_heath_centre",
    "type": "hospital",
    "name": "Tessa Jowell Heath Centre",
    "address": "Dulwich Community Hospital, London",
    "postcode": "SE22 8PT",
    "lat": 51.459067,
    "lng": -0.081224
  },
  {
    "id": "hosp-queen_mary_s_sidcup",
    "type": "hospital",
    "name": "Queen Mary's Sidcup",
    "address": "Frognal Avenue, Sidcup",
    "postcode": "DA14 6LT",
    "lat": 51.419041,
    "lng": 0.101687
  },
  {
    "id": "hosp-princess_royal_university_hospital",
    "type": "hospital",
    "name": "Princess Royal University Hospital",
    "address": "Farnborough Common, Orpington",
    "postcode": "BR6 8ND",
    "lat": 51.366244,
    "lng": 0.059174
  },
  {
    "id": "hosp-beckenham_beacon",
    "type": "hospital",
    "name": "Beckenham Beacon",
    "address": "379 Croydon Road, Beckenham",
    "postcode": "BR3 3QL",
    "lat": 51.405231,
    "lng": -0.033182
  },
  {
    "id": "hosp-king_s_woolwich",
    "type": "hospital",
    "name": "King's @ Woolwich",
    "address": "Queen Elizabeth Hospital, London",
    "postcode": "SE18 4QH",
    "lat": 51.478194,
    "lng": 0.050069
  },
  {
    "id": "hosp-orpington_hospital",
    "type": "hospital",
    "name": "Orpington Hospital",
    "address": "Sevenoaks Road, Orpington",
    "postcode": "BR6 9JU",
    "lat": 51.362503,
    "lng": 0.095177
  },
  {
    "id": "hosp-bromley_satellite_dialysis_unit",
    "type": "hospital",
    "name": "Bromley Satellite Dialysis Unit",
    "address": "1-3 Ringers Road, Bromley",
    "postcode": "BR1 1HX",
    "lat": 51.40114,
    "lng": 0.014416
  },
  {
    "id": "hosp-sydenham_satellite_dialysis_unit",
    "type": "hospital",
    "name": "Sydenham Satellite Dialysis Unit",
    "address": "Worsley Bridge Road, London",
    "postcode": "SE26 5BN",
    "lat": 51.425074,
    "lng": -0.032417
  },
  {
    "id": "hosp-the_whittington_hospital",
    "type": "hospital",
    "name": "The Whittington Hospital",
    "address": "Trust Offices, London",
    "postcode": "N19 5NF",
    "lat": 51.566482,
    "lng": -0.139066
  },
  {
    "id": "hosp-lakeside_mental_health_unit",
    "type": "hospital",
    "name": "Lakeside Mental Health Unit",
    "address": "Twickenham Road, Isleworth",
    "postcode": "TW7 6AF",
    "lat": 51.473648,
    "lng": -0.324413
  },
  {
    "id": "hosp-st_bernard_s_hospital",
    "type": "hospital",
    "name": "St Bernard's Hospital",
    "address": "Uxbridge Road, Southall",
    "postcode": "UB1 3EU",
    "lat": 51.506668,
    "lng": -0.349715
  },
  {
    "id": "hosp-hammersmith_fulham_mental_health_unit",
    "type": "hospital",
    "name": "Hammersmith & Fulham Mental Health Unit",
    "address": "Claybrook Road, London",
    "postcode": "W6 8NF",
    "lat": 51.486405,
    "lng": -0.217416
  },
  {
    "id": "hosp-erith_district_hospital",
    "type": "hospital",
    "name": "Erith & District Hospital",
    "address": "Park Crescent, Erith",
    "postcode": "DA8 3EE",
    "lat": 51.477113,
    "lng": 0.16667
  },
  {
    "id": "hosp-queen_mary_s_hospital",
    "type": "hospital",
    "name": "Queen Mary's Hospital",
    "address": "Frognal Avenue, Sidcup",
    "postcode": "DA14 6LT",
    "lat": 51.419041,
    "lng": 0.101687
  },
  {
    "id": "hosp-great_ormond_street_hospital",
    "type": "hospital",
    "name": "Great Ormond Street Hospital",
    "address": "Great Ormond Street, London",
    "postcode": "WC1N 3JH",
    "lat": 51.522212,
    "lng": -0.119898
  },
  {
    "id": "hosp-moorfields_eye_hospital",
    "type": "hospital",
    "name": "Moorfields Eye Hospital",
    "address": "162 City Road, London",
    "postcode": "EC1V 2PD",
    "lat": 51.527248,
    "lng": -0.089863
  },
  {
    "id": "hosp-moorfields_at_st_ann_s",
    "type": "hospital",
    "name": "Moorfields at St Ann's",
    "address": "St Ann's Hospital, London",
    "postcode": "N15 3TH",
    "lat": 51.580628,
    "lng": -0.092071
  },
  {
    "id": "hosp-moorfields_at_st_george_s",
    "type": "hospital",
    "name": "Moorfields at St George's",
    "address": "St George's Healthcare NHS Trust, London",
    "postcode": "SW17 0QT",
    "lat": 51.426682,
    "lng": -0.175694
  },
  {
    "id": "hosp-moorfields_at_northwick_park",
    "type": "hospital",
    "name": "Moorfields at Northwick Park",
    "address": "Watford Road, Harrow",
    "postcode": "HA1 3UJ",
    "lat": 51.575409,
    "lng": -0.322015
  },
  {
    "id": "hosp-moorfields_at_croydon_university_hospital",
    "type": "hospital",
    "name": "Moorfields at Croydon University Hospital",
    "address": "530 London Road, Croydon",
    "postcode": "CR7 7YE",
    "lat": 51.389128,
    "lng": -0.108758
  },
  {
    "id": "hosp-moorfields_at_ealing",
    "type": "hospital",
    "name": "Moorfields at Ealing",
    "address": "Uxbridge Road, Southall",
    "postcode": "UB1 3HU",
    "lat": 51.512427,
    "lng": -0.364784
  },
  {
    "id": "hosp-moorfields_barts",
    "type": "hospital",
    "name": "Moorfields @ Barts",
    "address": "St Bartholomews Hospital, London",
    "postcode": "EC1A 7BE",
    "lat": 51.517751,
    "lng": -0.100379
  },
  {
    "id": "hosp-moorfields_at_stratford",
    "type": "hospital",
    "name": "Moorfields at Stratford",
    "address": "Granta House, London",
    "postcode": "E15 4BQ",
    "lat": 51.540946,
    "lng": 0.002718
  },
  {
    "id": "hosp-the_royal_marsden_london",
    "type": "hospital",
    "name": "The Royal Marsden - London",
    "address": "Fulham Road, London",
    "postcode": "SW3 6JJ",
    "lat": 51.490562,
    "lng": -0.172541
  },
  {
    "id": "hosp-the_royal_marsden_sutton",
    "type": "hospital",
    "name": "The Royal Marsden - Sutton",
    "address": "Downs Road, Sutton",
    "postcode": "SM2 5PT",
    "lat": 51.343477,
    "lng": -0.19109
  },
  {
    "id": "hosp-chelsea_and_westminster_hospital",
    "type": "hospital",
    "name": "Chelsea and Westminster Hospital",
    "address": "369 Fulham Road, London",
    "postcode": "SW10 9NH",
    "lat": 51.484309,
    "lng": -0.18162
  },
  {
    "id": "hosp-west_middlesex_university_hospital",
    "type": "hospital",
    "name": "West Middlesex University Hospital",
    "address": "Twickenham Road, Isleworth",
    "postcode": "TW7 6AF",
    "lat": 51.473648,
    "lng": -0.324413
  },
  {
    "id": "hosp-homerton_university_hospital",
    "type": "hospital",
    "name": "Homerton University Hospital",
    "address": "Trust Offices, London",
    "postcode": "E9 6SR",
    "lat": 51.550635,
    "lng": -0.046072
  },
  {
    "id": "hosp-the_lighthouse",
    "type": "hospital",
    "name": "The Lighthouse",
    "address": "Alexandra Ciardi House N S P C C, 7-8, London",
    "postcode": "NW1 0AP",
    "lat": 51.53871,
    "lng": -0.141685
  },
  {
    "id": "hosp-university_college_hospital_elizabeth_garrett_anderson_wing",
    "type": "hospital",
    "name": "University College Hospital & Elizabeth Garrett Anderson Wing",
    "address": "235 Euston Road, London",
    "postcode": "NW1 2BU",
    "lat": 51.524893,
    "lng": -0.136885
  },
  {
    "id": "hosp-university_college_hospital_at_westmoreland_street",
    "type": "hospital",
    "name": "University College Hospital at Westmoreland Street",
    "address": "16-18 Westmoreland Street, London",
    "postcode": "W1G 8PH",
    "lat": 51.519584,
    "lng": -0.149743
  },
  {
    "id": "hosp-the_royal_london_hospital_for_integrated_medicine",
    "type": "hospital",
    "name": "The Royal London Hospital for Integrated Medicine",
    "address": "60 Great Ormond Street, London",
    "postcode": "WC1N 3HR",
    "lat": 51.521741,
    "lng": -0.121374
  },
  {
    "id": "hosp-national_hospital_for_neurology_and_neurosurgery_at_cleveland_street",
    "type": "hospital",
    "name": "National Hospital for Neurology and Neurosurgery at Cleveland Street",
    "address": "25 Cleveland Street, London",
    "postcode": "W1T 4AJ",
    "lat": 51.519365,
    "lng": -0.137615
  },
  {
    "id": "hosp-clinical_research_facility",
    "type": "hospital",
    "name": "Clinical Research Facility",
    "address": "4th Floor, London",
    "postcode": "W1T 7HA",
    "lat": 51.522711,
    "lng": -0.135965
  },
  {
    "id": "hosp-the_national_hospital_for_neurology_and_neurosurgery",
    "type": "hospital",
    "name": "The National Hospital for Neurology and Neurosurgery",
    "address": "Queen Square, London",
    "postcode": "WC1N 3BG",
    "lat": 51.522173,
    "lng": -0.121976
  },
  {
    "id": "hosp-royal_national_ent_and_eastman_dental_hospitals",
    "type": "hospital",
    "name": "Royal National ENT and Eastman Dental Hospitals",
    "address": "47-49 Huntley Street, London",
    "postcode": "WC1E 6DG",
    "lat": 51.521683,
    "lng": -0.133542
  },
  {
    "id": "hosp-hospital_for_tropical_diseases",
    "type": "hospital",
    "name": "Hospital For Tropical Diseases",
    "address": "Mortimer Market, London",
    "postcode": "WC1E 6JD",
    "lat": 51.52316,
    "lng": -0.135385
  },
  {
    "id": "hosp-st_helier_hospital_and_queen_mary_s_hospital_for_children",
    "type": "hospital",
    "name": "St Helier Hospital and Queen Mary's Hospital for Children",
    "address": "Wrythe Lane, Carshalton",
    "postcode": "SM5 1AA",
    "lat": 51.380188,
    "lng": -0.183708
  },
  {
    "id": "hosp-sutton_hospital",
    "type": "hospital",
    "name": "Sutton Hospital",
    "address": "Cotswold Road, Sutton",
    "postcode": "SM2 5NF",
    "lat": 51.344802,
    "lng": -0.193651
  },
  {
    "id": "hosp-kingston_satellite_dialysis_unit",
    "type": "hospital",
    "name": "Kingston Satellite Dialysis Unit",
    "address": "Manorgate House, Kingston Upon Thames",
    "postcode": "KT2 7AL",
    "lat": 51.413514,
    "lng": -0.285771
  },
  {
    "id": "hosp-mayday_satellite_dialysis_unit",
    "type": "hospital",
    "name": "Mayday Satellite Dialysis Unit",
    "address": "Croydon University Hospital, Thornton Heath",
    "postcode": "CR7 7YE",
    "lat": 51.389128,
    "lng": -0.108758
  },
  {
    "id": "hosp-mount_vernon_cancer_centre",
    "type": "hospital",
    "name": "Mount Vernon Cancer Centre",
    "address": "Rickmansworth Road, Northwood",
    "postcode": "HA6 2RN",
    "lat": 51.614926,
    "lng": -0.445802
  },
  {
    "id": "hosp-st_mary_s_hospital",
    "type": "hospital",
    "name": "St Mary's Hospital",
    "address": "The Bays, South Wharf Road, London",
    "postcode": "W2 1NY",
    "lat": 51.516971,
    "lng": -0.173545
  },
  {
    "id": "hosp-charing_cross_hospital",
    "type": "hospital",
    "name": "Charing Cross Hospital",
    "address": "Fulham Palace Road, London",
    "postcode": "W6 8RF",
    "lat": 51.487046,
    "lng": -0.219912
  },
  {
    "id": "hosp-hammersmith_hospitals",
    "type": "hospital",
    "name": "Hammersmith Hospitals",
    "address": "Du Cane Road, London",
    "postcode": "W12 0AE",
    "lat": 51.517633,
    "lng": -0.240412
  },
  {
    "id": "hosp-queen_charlottes_and_chelsea_hospital",
    "type": "hospital",
    "name": "Queen Charlottes and Chelsea Hospital",
    "address": "Du Cane Road, London",
    "postcode": "W12 0AE",
    "lat": 51.517633,
    "lng": -0.240412
  },
  {
    "id": "hosp-western_eye_hospital",
    "type": "hospital",
    "name": "Western Eye Hospital",
    "address": "Marylebone Road, London",
    "postcode": "NW1 5QH",
    "lat": 51.520705,
    "lng": -0.163305
  },
  {
    "id": "hosp-tooting_donor_centre",
    "type": "hospital",
    "name": "Tooting Donor Centre",
    "address": "75 Cranmer Terrace, London",
    "postcode": "SW17 0RB",
    "lat": 51.42754,
    "lng": -0.175947
  },
  {
    "id": "hosp-chase_lodge_health",
    "type": "hospital",
    "name": "Chase Lodge Health",
    "address": "Chase Lodge, Page Street, London",
    "postcode": "NW7 2ED",
    "lat": 51.606377,
    "lng": -0.232374
  },
  {
    "id": "hosp-the_door_w4_limited",
    "type": "hospital",
    "name": "The Door W4 Limited",
    "address": "Airedale Avenue, London",
    "postcode": "W4 2NW",
    "lat": 51.491793,
    "lng": -0.24789
  },
  {
    "id": "hosp-360_med",
    "type": "hospital",
    "name": "360 Med",
    "address": "120 Fortis Green Road, London",
    "postcode": "N10 3HN",
    "lat": 51.590197,
    "lng": -0.145995
  },
  {
    "id": "hosp-27_wimpole_street",
    "type": "hospital",
    "name": "27 Wimpole Street",
    "address": "27 Wimpole Street, London",
    "postcode": "W1G 8GN",
    "lat": 51.518866,
    "lng": -0.148129
  },
  {
    "id": "hosp-london_private_hospital",
    "type": "hospital",
    "name": "London Private Hospital",
    "address": "94 Windmill Road, Brentford",
    "postcode": "TW8 9NA",
    "lat": 51.490524,
    "lng": -0.309764
  },
  {
    "id": "hosp-bodyvie_medi_clinic",
    "type": "hospital",
    "name": "Bodyvie Medi-Clinic",
    "address": "133-135, Richmond",
    "postcode": "TW9 2PN",
    "lat": 51.465986,
    "lng": -0.298778
  },
  {
    "id": "hosp-sir_ludwig_guttman_wellbeing_and_medical_centre",
    "type": "hospital",
    "name": "Sir Ludwig Guttman Wellbeing and Medical Centre",
    "address": "40 Liberty Bridge Road, Stratford",
    "postcode": "E20 1AS",
    "lat": 51.547818,
    "lng": -0.006369
  }
]