[{"id":"hosp-airedale_general_hospital","type":"hospital","name":"Airedale General Hospital","address":"Keighley","postcode":"BD20 6TD","lat":53.9005,"lng":-1.9296,"independent":false},{"id":"hosp-aintree_university_hospita","type":"hospital","name":"Aintree University Hospital","address":"Liverpool","postcode":"L9 7AL","lat":53.4685,"lng":-2.9515,"independent":false},{"id":"hosp-alder_hey_childrens_hospit","type":"hospital","name":"Alder Hey Children's Hospital","address":"Liverpool","postcode":"L12 2AP","lat":53.4207,"lng":-2.8985,"independent":false},{"id":"hosp-arrowe_park_hospital","type":"hospital","name":"Arrowe Park Hospital","address":"Wirral","postcode":"CH49 5PE","lat":53.3673,"lng":-3.0816,"independent":false},{"id":"hosp-blackpool_victoria_hospita","type":"hospital","name":"Blackpool Victoria Hospital","address":"Blackpool","postcode":"FY3 8NR","lat":53.8262,"lng":-3.0485,"independent":false},{"id":"hosp-burnley_general_teaching_h","type":"hospital","name":"Burnley General Teaching Hospital","address":"Burnley","postcode":"BB10 2PQ","lat":53.7866,"lng":-2.2366,"independent":false},{"id":"hosp-chorley_and_south_ribble_h","type":"hospital","name":"Chorley and South Ribble Hospital","address":"Chorley","postcode":"PR7 1PP","lat":53.6513,"lng":-2.6259,"independent":false},{"id":"hosp-christie_hospital","type":"hospital","name":"Christie Hospital","address":"Manchester","postcode":"M20 4BX","lat":53.4406,"lng":-2.2333,"independent":false},{"id":"hosp-clatterbridge_cancer_centr","type":"hospital","name":"Clatterbridge Cancer Centre","address":"Wirral","postcode":"CH63 4JY","lat":53.3673,"lng":-3.0816,"independent":false},{"id":"hosp-countess_of_chester_hospit","type":"hospital","name":"Countess of Chester Hospital","address":"Chester","postcode":"CH2 1UL","lat":53.1872,"lng":-2.9121,"independent":false},{"id":"hosp-fairfield_general_hospital","type":"hospital","name":"Fairfield General Hospital","address":"Bury","postcode":"BL9 7TD","lat":53.5884,"lng":-2.2985,"independent":false},{"id":"hosp-leighton_hospital","type":"hospital","name":"Leighton Hospital","address":"Crewe","postcode":"CW1 4QJ","lat":53.0876,"lng":-2.4424,"independent":false},{"id":"hosp-liverpool_heart_and_chest_","type":"hospital","name":"Liverpool Heart and Chest Hospital","address":"Liverpool","postcode":"L14 3PE","lat":53.4191,"lng":-2.9283,"independent":false},{"id":"hosp-liverpool_womens_hospital","type":"hospital","name":"Liverpool Women's Hospital","address":"Liverpool","postcode":"L8 7SS","lat":53.3964,"lng":-2.9685,"independent":false},{"id":"hosp-manchester_royal_infirmary","type":"hospital","name":"Manchester Royal Infirmary","address":"Manchester","postcode":"M13 9WL","lat":53.4631,"lng":-2.2303,"independent":false},{"id":"hosp-north_manchester_general_h","type":"hospital","name":"North Manchester General Hospital","address":"Manchester","postcode":"M8 5RB","lat":53.5131,"lng":-2.217,"independent":false},{"id":"hosp-ormskirk_district_general_","type":"hospital","name":"Ormskirk District General Hospital","address":"Ormskirk","postcode":"L39 2AZ","lat":53.5713,"lng":-2.8856,"independent":false},{"id":"hosp-royal_blackburn_teaching_h","type":"hospital","name":"Royal Blackburn Teaching Hospital","address":"Blackburn","postcode":"BB2 3HH","lat":53.7498,"lng":-2.4731,"independent":false},{"id":"hosp-royal_bolton_hospital","type":"hospital","name":"Royal Bolton Hospital","address":"Bolton","postcode":"BL4 0JR","lat":53.5666,"lng":-2.4218,"independent":false},{"id":"hosp-royal_lancaster_infirmary","type":"hospital","name":"Royal Lancaster Infirmary","address":"Lancaster","postcode":"LA1 4RP","lat":54.0484,"lng":-2.8075,"independent":false},{"id":"hosp-royal_liverpool_university","type":"hospital","name":"Royal Liverpool University Hospital","address":"Liverpool","postcode":"L7 8XP","lat":53.4069,"lng":-2.9735,"independent":false},{"id":"hosp-royal_manchester_childrens","type":"hospital","name":"Royal Manchester Children's Hospital","address":"Manchester","postcode":"M13 9WL","lat":53.4631,"lng":-2.2303,"independent":false},{"id":"hosp-royal_oldham_hospital","type":"hospital","name":"Royal Oldham Hospital","address":"Oldham","postcode":"OL1 2JH","lat":53.5405,"lng":-2.1001,"independent":false},{"id":"hosp-royal_preston_hospital","type":"hospital","name":"Royal Preston Hospital","address":"Preston","postcode":"PR2 9HT","lat":53.7626,"lng":-2.6978,"independent":false},{"id":"hosp-salford_royal_hospital","type":"hospital","name":"Salford Royal Hospital","address":"Salford","postcode":"M6 8HD","lat":53.4892,"lng":-2.3386,"independent":false},{"id":"hosp-southport_and_formby_distr","type":"hospital","name":"Southport and Formby District General Hospital","address":"Southport","postcode":"PR8 6PN","lat":53.6455,"lng":-3.0084,"independent":false},{"id":"hosp-spire_cheshire_hospital","type":"hospital","name":"Spire Cheshire Hospital","address":"Warrington","postcode":"WA4 4LU","lat":53.3924,"lng":-2.6113,"independent":true},{"id":"hosp-st_helens_hospital","type":"hospital","name":"St Helens Hospital","address":"St Helens","postcode":"WA9 3DA","lat":53.4464,"lng":-2.7282,"independent":false},{"id":"hosp-stepping_hill_hospital","type":"hospital","name":"Stepping Hill Hospital","address":"Stockport","postcode":"SK2 7JE","lat":53.3891,"lng":-2.1486,"independent":false},{"id":"hosp-tameside_general_hospital","type":"hospital","name":"Tameside General Hospital","address":"Ashton-under-Lyne","postcode":"OL6 9RW","lat":53.482,"lng":-2.0784,"independent":false},{"id":"hosp-walton_centre","type":"hospital","name":"Walton Centre","address":"Liverpool","postcode":"L9 7LJ","lat":53.4229,"lng":-2.8951,"independent":false},{"id":"hosp-warrington_hospital","type":"hospital","name":"Warrington Hospital","address":"Warrington","postcode":"WA5 1QG","lat":53.3932,"lng":-2.5999,"independent":false},{"id":"hosp-whiston_hospital","type":"hospital","name":"Whiston Hospital","address":"Prescot","postcode":"L35 5DR","lat":53.4141,"lng":-2.7696,"independent":false},{"id":"hosp-wythenshawe_hospital","type":"hospital","name":"Wythenshawe Hospital","address":"Manchester","postcode":"M23 9LT","lat":53.3904,"lng":-2.2862,"independent":false}]