[
  {
    "id": "hospice-1106965965",
    "type": "hospice",
    "name": "Bolton Hospice",
    "lat": 53.581297,
    "lng": -2.442328,
    "address": "Queens Park Street, Bolton, Lancashire"
  },
  {
    "id": "hospice-1108540000",
    "type": "hospice",
    "name": "Hospice of the Good Shepherd",
    "lat": 53.242852,
    "lng": -2.902193,
    "address": "Gordon Lane, Backford, Chester, Cheshire"
  },
  {
    "id": "hospice-1113073809",
    "type": "hospice",
    "name": "Hospice of St Mary of Furness",
    "lat": 54.199569,
    "lng": -3.085449,
    "address": "Ford Park, Ulverston, Cumbria"
  },
  {
    "id": "hospice-1114080185",
    "type": "hospice",
    "name": "St Luke's Cheshire Hospice",
    "lat": 53.188541,
    "lng": -2.525405,
    "address": "Grosvenor House, Queensway, Winsford, Cheshire"
  },
  {
    "id": "hospice-1114304929",
    "type": "hospice",
    "name": "Wigan and Leigh Hospice",
    "lat": 53.532402,
    "lng": -2.586139,
    "address": "Kildare Street, Hindley, Wigan, Greater Manchester"
  },
  {
    "id": "hospice-1114315499",
    "type": "hospice",
    "name": "East Lancashire Hospice",
    "lat": 53.734461,
    "lng": -2.478558,
    "address": "Park Lee Road, Blackburn, Lancashire"
  },
  {
    "id": "hospice-1114396298b",
    "type": "hospice",
    "name": "Derian House Children's Hospice",
    "lat": 53.666765,
    "lng": -2.641351,
    "address": "Chancery Road, Astley Village, Chorley, Lancashire"
  },
  {
    "id": "hospice-1114940819",
    "type": "hospice",
    "name": "Queenscourt Hospice",
    "lat": 53.633559,
    "lng": -2.974616,
    "address": "Town Lane, Southport, Merseyside"
  },
  {
    "id": "hospice-1115783604",
    "type": "hospice",
    "name": "Trinity Hospice Blackpool",
    "lat": 53.842486,
    "lng": -3.027274,
    "address": "Low Moor Road, Bispham, Blackpool, Lancashire"
  },
  {
    "id": "hospice-1116772470",
    "type": "hospice",
    "name": "Claire House Children's Hospice",
    "lat": 53.33126,
    "lng": -3.024668,
    "address": "Clatterbridge Road, Bebington, Wirral, Merseyside"
  },
  {
    "id": "hospice-1116789258",
    "type": "hospice",
    "name": "Willowbrook Hospice",
    "lat": 53.433403,
    "lng": -2.777861,
    "address": "Portico Lane, Eccleston Park, Prescot, Merseyside"
  },
  {
    "id": "hospice-1116838035",
    "type": "hospice",
    "name": "Pendleside Hospice",
    "lat": 53.819039,
    "lng": -2.237436,
    "address": "Colne Road, Reedley, Burnley, Lancashire"
  },
  {
    "id": "hospice-1117383851",
    "type": "hospice",
    "name": "St Rocco's Hospice",
    "lat": 53.399051,
    "lng": -2.612203,
    "address": "Lockton Lane, Bewsey, Warrington, Cheshire"
  },
  {
    "id": "hospice-1117648999",
    "type": "hospice",
    "name": "Francis House Children's Hospice",
    "lat": 53.411691,
    "lng": -2.224219,
    "address": "390 Parrs Wood Road, Didsbury, Manchester, Greater Manchester"
  },
  {
    "id": "hospice-1119399800",
    "type": "hospice",
    "name": "Marie Curie Hospice Liverpool",
    "lat": 53.373329,
    "lng": -2.864411,
    "address": "Speke Road, Woolton, Liverpool, Merseyside"
  },
  {
    "id": "hospice-1119647650",
    "type": "hospice",
    "name": "Willow Wood Hospice",
    "lat": 53.490233,
    "lng": -2.072169,
    "address": "Willow Wood Close, Mellor Road, Ashton-under-Lyne, Lancashire"
  },
  {
    "id": "hospice-1119973676",
    "type": "hospice",
    "name": "East Cheshire Hospice",
    "lat": 53.266971,
    "lng": -2.152947,
    "address": "Millbank Drive, Macclesfield, Cheshire"
  },
  {
    "id": "hospice-1120031357",
    "type": "hospice",
    "name": "St Ann's Hospice Heald Green",
    "lat": 53.374951,
    "lng": -2.226746,
    "address": "St Ann's Road North, Heald Green, Cheadle, Cheshire"
  },
  {
    "id": "hospice-1120031374",
    "type": "hospice",
    "name": "St Ann's Hospice Little Hulton",
    "lat": 53.528167,
    "lng": -2.42521,
    "address": "Peel Lane, Little Hulton, Manchester, Greater Manchester"
  },
  {
    "id": "hospice-1120370910",
    "type": "hospice",
    "name": "Wirral Hospice St John's",
    "lat": 53.335187,
    "lng": -3.021563,
    "address": "Mount Road, Clatterbridge, Wirral, Merseyside"
  },
  {
    "id": "hospice-1120761682",
    "type": "hospice",
    "name": "Eden Valley Hospice",
    "lat": 54.870775,
    "lng": -2.932471,
    "address": "Durdar Road, Carlisle, Cumbria"
  },
  {
    "id": "hospice-1122624658",
    "type": "hospice",
    "name": "St Joseph's Hospice Liverpool",
    "lat": 53.502499,
    "lng": -3.00779,
    "address": "Ince Road, Thornton, Liverpool, Merseyside"
  },
  {
    "id": "hospice-1122650868",
    "type": "hospice",
    "name": "Rossendale Hospice",
    "lat": 53.700825,
    "lng": -2.280662,
    "address": "161 Bacup Road, Rawtenstall, Lancashire"
  },
  {
    "id": "hospice-1123327578",
    "type": "hospice",
    "name": "Dr Kershaw's Hospice",
    "lat": 53.561623,
    "lng": -2.113247,
    "address": "Turf Lane, Royton, Oldham, Greater Manchester"
  },
  {
    "id": "hospice-1126365065",
    "type": "hospice",
    "name": "St Catherine's Hospice Preston",
    "lat": 53.720825,
    "lng": -2.681332,
    "address": "Lostock Lane, Lostock Hall, Lancashire"
  },
  {
    "id": "hospice-1126938839",
    "type": "hospice",
    "name": "St John's Hospice Lancaster",
    "lat": 54.067411,
    "lng": -2.804073,
    "address": "Slyne Road, Lancaster, Lancashire"
  },
  {
    "id": "hospice-1129820213",
    "type": "hospice",
    "name": "Hospice at Home West Cumbria",
    "lat": 54.642695,
    "lng": -3.551342,
    "address": "Workington Community Hospital, Park Lane, Workington, Cumbria"
  },
  {
    "id": "hospice-1134598723",
    "type": "hospice",
    "name": "Halton Haven Hospice",
    "lat": 53.320263,
    "lng": -2.670823,
    "address": "Barnfield Avenue, Murdishaw, Runcorn, Cheshire"
  },
  {
    "id": "hospice-122159400874",
    "type": "hospice",
    "name": "Zoe's Place Baby Hospice Liverpool",
    "lat": 53.425404,
    "lng": -2.887378,
    "address": "Yew Tree Lane, Liverpool"
  },
  {
    "id": "hospice-13760466342",
    "type": "hospice",
    "name": "Hospice at Home Carlisle",
    "lat": 54.847084,
    "lng": -2.993846,
    "address": "Barras Lane, Dalston, Carlisle, Cumbria"
  },
  {
    "id": "hospice-1606836846",
    "type": "hospice",
    "name": "Bury Hospice",
    "lat": 53.599758,
    "lng": -2.267009,
    "address": "Rochdale Old Road, Bury, Lancashire"
  },
  {
    "id": "hospice-H5R4P",
    "type": "hospice",
    "name": "Woodlands Hospice Liverpool",
    "lat": 53.465696,
    "lng": -2.93853,
    "address": "Longmoor Lane, Liverpool"
  }
]