[
  {
    "id": "hospice-1-106965965",
    "type": "hospice",
    "name": "Bolton Hospice",
    "address": "Queens Park Street, Bolton",
    "postcode": "BL1 4QT",
    "lat": 53.581297,
    "lng": -2.442328
  },
  {
    "id": "hospice-1-108540000",
    "type": "hospice",
    "name": "Hospice of the Good Shepherd",
    "address": "Gordon Lane, Chester",
    "postcode": "CH2 4DG",
    "lat": 53.242852,
    "lng": -2.902193
  },
  {
    "id": "hospice-1-113073809",
    "type": "hospice",
    "name": "Hospice of St. Mary of Furness",
    "address": "Ford Park, Ulverston",
    "postcode": "LA12 7JP",
    "lat": 54.199569,
    "lng": -3.085449
  },
  {
    "id": "hospice-1-114080185",
    "type": "hospice",
    "name": "St Luke's (Cheshire) Hospice",
    "address": "Grosvenor House, Winsford",
    "postcode": "CW7 1BH",
    "lat": 53.188541,
    "lng": -2.525405
  },
  {
    "id": "hospice-1-114304929",
    "type": "hospice",
    "name": "Wigan and Leigh Hospice",
    "address": "Kildare Street, Wigan",
    "postcode": "WN2 3HZ",
    "lat": 53.532402,
    "lng": -2.586139
  },
  {
    "id": "hospice-1-114315499",
    "type": "hospice",
    "name": "East Lancashire Hospice",
    "address": "Park Lee Road, Blackburn",
    "postcode": "BB2 3NY",
    "lat": 53.734461,
    "lng": -2.478558
  },
  {
    "id": "hospice-1-114396298",
    "type": "hospice",
    "name": "Derian House Children's Hospice",
    "address": "Chancery Road, Chorley",
    "postcode": "PR7 1DH",
    "lat": 53.666765,
    "lng": -2.641351
  },
  {
    "id": "hospice-1-114940819",
    "type": "hospice",
    "name": "Queenscourt Hospice",
    "address": "Town Lane, Southport",
    "postcode": "PR8 6RE",
    "lat": 53.633559,
    "lng": -2.974616
  },
  {
    "id": "hospice-1-115783604",
    "type": "hospice",
    "name": "Trinity Hospice and Palliative Care Services Limited",
    "address": "Low Moor Road, Blackpool",
    "postcode": "FY2 0BG",
    "lat": 53.842486,
    "lng": -3.027274
  },
  {
    "id": "hospice-1-116772470",
    "type": "hospice",
    "name": "Claire House Children's Hospice",
    "address": "Clatterbridge Road, Wirral",
    "postcode": "CH63 4JD",
    "lat": 53.33126,
    "lng": -3.024668
  },
  {
    "id": "hospice-1-116789258",
    "type": "hospice",
    "name": "Willowbrook Hospice",
    "address": "Portico Lane, Prescot",
    "postcode": "L34 2QT",
    "lat": 53.433403,
    "lng": -2.777861
  },
  {
    "id": "hospice-1-116838035",
    "type": "hospice",
    "name": "Pendleside Hospice",
    "address": "Pendleside, Burnley",
    "postcode": "BB10 2LW",
    "lat": 53.819039,
    "lng": -2.237436
  },
  {
    "id": "hospice-1-117383851",
    "type": "hospice",
    "name": "St Rocco's Hospice",
    "address": "Lockton Lane, Warrington",
    "postcode": "WA5 0BW",
    "lat": 53.399051,
    "lng": -2.612203
  },
  {
    "id": "hospice-1-117648999",
    "type": "hospice",
    "name": "Francis House Children's Hospice",
    "address": "390 Parrs Wood Road, Manchester",
    "postcode": "M20 5NA",
    "lat": 53.411691,
    "lng": -2.224219
  },
  {
    "id": "hospice-1-119119849",
    "type": "hospice",
    "name": "Springhill Hospice (Rochdale)",
    "address": "Broad Lane, Rochdale",
    "postcode": "OL16 4PZ",
    "lat": 53.597602,
    "lng": -2.139318
  },
  {
    "id": "hospice-1-119399800",
    "type": "hospice",
    "name": "Marie Curie Hospice and Community Services North West and Cumbria Region",
    "address": "Speke Road, Liverpool",
    "postcode": "L25 8QA",
    "lat": 53.373329,
    "lng": -2.864411
  },
  {
    "id": "hospice-1-119647650",
    "type": "hospice",
    "name": "Willow Wood Hospice",
    "address": "Willow Wood Close, Ashton-under-Lyne",
    "postcode": "OL6 6SL",
    "lat": 53.490233,
    "lng": -2.072169
  },
  {
    "id": "hospice-1-119973676",
    "type": "hospice",
    "name": "East Cheshire Hospice",
    "address": "Millbank Drive, Macclesfield",
    "postcode": "SK10 3DR",
    "lat": 53.266971,
    "lng": -2.152947
  },
  {
    "id": "hospice-1-120031357",
    "type": "hospice",
    "name": "Moya Cole Hospice Heald Green",
    "address": "St Ann's Road North, Cheadle",
    "postcode": "SK8 3SZ",
    "lat": 53.374951,
    "lng": -2.226746
  },
  {
    "id": "hospice-1-120031374",
    "type": "hospice",
    "name": "Moya Cole Hospice Little Hulton",
    "address": "Peel Lane, Manchester",
    "postcode": "M28 0FE",
    "lat": 53.528167,
    "lng": -2.42521
  },
  {
    "id": "hospice-1-120370910",
    "type": "hospice",
    "name": "Wirral Hospice St John's",
    "address": "Mount Road, Wirral",
    "postcode": "CH63 6JE",
    "lat": 53.335187,
    "lng": -3.021563
  },
  {
    "id": "hospice-1-120761682",
    "type": "hospice",
    "name": "Eden Valley Hospice",
    "address": "Durdar Road, Carlisle",
    "postcode": "CA2 4SD",
    "lat": 54.870775,
    "lng": -2.932471
  },
  {
    "id": "hospice-1-122624658",
    "type": "hospice",
    "name": "St Joseph's Hospice Association",
    "address": "Ince Road, Liverpool",
    "postcode": "L23 4UE",
    "lat": 53.502499,
    "lng": -3.00779
  },
  {
    "id": "hospice-1-122650868",
    "type": "hospice",
    "name": "Rossendale Hospice Integrated Health Care Centre",
    "address": "New Cribden House, Rawtenstall",
    "postcode": "BB4 7PL",
    "lat": 53.700825,
    "lng": -2.280662
  },
  {
    "id": "hospice-1-123327578",
    "type": "hospice",
    "name": "Dr Kershaw's Hospice",
    "address": "Turf Lane, Oldham",
    "postcode": "OL2 6EU",
    "lat": 53.561623,
    "lng": -2.113247
  },
  {
    "id": "hospice-1-126365065",
    "type": "hospice",
    "name": "St Catherine's Hospice (Lancashire)",
    "address": "St Catherine's Hospice, Lostock Hall",
    "postcode": "PR5 5XU",
    "lat": 53.720825,
    "lng": -2.681332
  },
  {
    "id": "hospice-1-126938839",
    "type": "hospice",
    "name": "St John's Hospice",
    "address": "Slyne Road, Lancaster",
    "postcode": "LA2 6ST",
    "lat": 54.067411,
    "lng": -2.804073
  },
  {
    "id": "hospice-1-129820213",
    "type": "hospice",
    "name": "Hospice at Home West Cumbria",
    "address": "Workington Community Hospital, Workington",
    "postcode": "CA14 2RW",
    "lat": 54.642695,
    "lng": -3.551342
  },
  {
    "id": "hospice-1-134598723",
    "type": "hospice",
    "name": "Halton Haven Hospice",
    "address": "Barnfield Avenue, Runcorn",
    "postcode": "WA7 6EP",
    "lat": 53.320263,
    "lng": -2.670823
  },
  {
    "id": "hospice-1-22159400874",
    "type": "hospice",
    "name": "Zoes Place Baby Hospice Liverpool",
    "address": "Life Health Centre, Liverpool",
    "postcode": "L12 9HH",
    "lat": 53.425404,
    "lng": -2.887378
  },
  {
    "id": "hospice-1-3760466342",
    "type": "hospice",
    "name": "Hospice at Home Carlisle and North Lakeland",
    "address": "Valley Court, Carlisle",
    "postcode": "CA5 7NY",
    "lat": 54.847084,
    "lng": -2.993846
  },
  {
    "id": "hospice-1-606836846",
    "type": "hospice",
    "name": "Bury Hospice",
    "address": "Rochdale Old Road, Bury",
    "postcode": "BL9 7RG",
    "lat": 53.599758,
    "lng": -2.267009
  },
  {
    "id": "hospice-H5R4P",
    "type": "hospice",
    "name": "Woodlands Hospice",
    "address": "A U H Campus, Liverpool",
    "postcode": "L9 7LA",
    "lat": 53.465696,
    "lng": -2.93853
  }
]