[
  {
    "id": "school-104698",
    "type": "school",
    "name": "Calderstones School",
    "address": "Harthill Road, Liverpool",
    "postcode": "L18 3HS",
    "lat": 53.383195,
    "lng": -2.899297
  },
  {
    "id": "school-104703",
    "type": "school",
    "name": "King David High School",
    "address": "116 Childwall Road, Liverpool",
    "postcode": "L15 6WU",
    "lat": 53.395738,
    "lng": -2.899005
  },
  {
    "id": "school-104712",
    "type": "school",
    "name": "St Julie's Catholic High School",
    "address": "Speke Road, Liverpool",
    "postcode": "L25 7TN",
    "lat": 53.372117,
    "lng": -2.864234
  },
  {
    "id": "school-104713",
    "type": "school",
    "name": "Broughton Hall Catholic High School",
    "address": "Yew Tree Lane, Liverpool",
    "postcode": "L12 9HJ",
    "lat": 53.423886,
    "lng": -2.885737
  },
  {
    "id": "school-104714",
    "type": "school",
    "name": "Cardinal Heenan Catholic High School",
    "address": "Honeysgreen Lane, Liverpool",
    "postcode": "L12 9HZ",
    "lat": 53.423235,
    "lng": -2.888568
  },
  {
    "id": "school-104717",
    "type": "school",
    "name": "Archbishop Beck Catholic College",
    "address": "55 Long Lane, Liverpool",
    "postcode": "L9 7BF",
    "lat": 53.462041,
    "lng": -2.949816
  },
  {
    "id": "school-104721",
    "type": "school",
    "name": "St Hilda's Church of England High School",
    "address": "Croxteth Drive, Liverpool",
    "postcode": "L17 3AL",
    "lat": 53.388024,
    "lng": -2.937671
  },
  {
    "id": "school-104829",
    "type": "school",
    "name": "Cowley International College",
    "address": "Hard Lane, St Helens",
    "postcode": "WA10 6PN",
    "lat": 53.465464,
    "lng": -2.748937
  },
  {
    "id": "school-104835",
    "type": "school",
    "name": "St Cuthbert's Catholic High School",
    "address": "Berrys Lane, St Helens",
    "postcode": "WA9 3HE",
    "lat": 53.443381,
    "lng": -2.699341
  },
  {
    "id": "school-104964",
    "type": "school",
    "name": "Christ The King Catholic High School and Sixth Form Centre",
    "address": "Stamford Road, Southport",
    "postcode": "PR8 4EX",
    "lat": 53.626281,
    "lng": -3.000849
  },
  {
    "id": "school-105097",
    "type": "school",
    "name": "Ridgeway High School",
    "address": "Noctorum Avenue, Prenton",
    "postcode": "CH43 9EB",
    "lat": 53.380044,
    "lng": -3.071851
  },
  {
    "id": "school-105101",
    "type": "school",
    "name": "Pensby High School",
    "address": "Irby Road, Wirral",
    "postcode": "CH61 6XN",
    "lat": 53.343048,
    "lng": -3.112369
  },
  {
    "id": "school-105103",
    "type": "school",
    "name": "The Mosslands School",
    "address": "Mosslands Drive, Wallasey",
    "postcode": "CH45 8PJ",
    "lat": 53.418445,
    "lng": -3.065352
  },
  {
    "id": "school-105252",
    "type": "school",
    "name": "Westhoughton High School",
    "address": "Bolton Road, Bolton",
    "postcode": "BL5 3BZ",
    "lat": 53.548387,
    "lng": -2.515681
  },
  {
    "id": "school-105253",
    "type": "school",
    "name": "Turton School",
    "address": "Bromley Cross Road, Bolton",
    "postcode": "BL7 9LT",
    "lat": 53.614183,
    "lng": -2.410476
  },
  {
    "id": "school-105262",
    "type": "school",
    "name": "St Joseph's RC High School",
    "address": "Sefton Lane, Bolton",
    "postcode": "BL6 6HW",
    "lat": 53.586255,
    "lng": -2.526989
  },
  {
    "id": "school-105264",
    "type": "school",
    "name": "Thornleigh Salesian College",
    "address": "Sharples Park, Bolton",
    "postcode": "BL1 6PQ",
    "lat": 53.601116,
    "lng": -2.442283
  },
  {
    "id": "school-105354",
    "type": "school",
    "name": "The Elton High School",
    "address": "Walshaw Road, Bury",
    "postcode": "BL8 1RN",
    "lat": 53.600039,
    "lng": -2.327098
  },
  {
    "id": "school-105355",
    "type": "school",
    "name": "The Derby High School",
    "address": "Radcliffe Road, Lancs",
    "postcode": "BL9 9NH",
    "lat": 53.582511,
    "lng": -2.306161
  },
  {
    "id": "school-105574",
    "type": "school",
    "name": "Loreto High School Chorlton",
    "address": "Nell Lane, Manchester",
    "postcode": "M21 7SW",
    "lat": 53.433196,
    "lng": -2.260694
  },
  {
    "id": "school-105576",
    "type": "school",
    "name": "Our Lady's RC High School",
    "address": "Alworth Road, Manchester",
    "postcode": "M9 0RP",
    "lat": 53.536447,
    "lng": -2.21716
  },
  {
    "id": "school-105581",
    "type": "school",
    "name": "The Barlow RC High School and Specialist Science College",
    "address": "Parrs Wood Road, Manchester",
    "postcode": "M20 6BX",
    "lat": 53.415175,
    "lng": -2.218633
  },
  {
    "id": "school-105844",
    "type": "school",
    "name": "Cardinal Langley Roman Catholic High School",
    "address": "Rochdale Road, Manchester",
    "postcode": "M24 2GL",
    "lat": 53.563797,
    "lng": -2.182057
  },
  {
    "id": "school-105986",
    "type": "school",
    "name": "St Patrick's RC High School",
    "address": "56 New Lane, Manchester",
    "postcode": "M30 7JJ",
    "lat": 53.48258,
    "lng": -2.365529
  },
  {
    "id": "school-105989",
    "type": "school",
    "name": "St Ambrose Barlow RC High School",
    "address": "37 Ash Drive, Manchester",
    "postcode": "M27 9QP",
    "lat": 53.519895,
    "lng": -2.356558
  },
  {
    "id": "school-106135",
    "type": "school",
    "name": "Stockport School",
    "address": "Mile End Lane, Stockport",
    "postcode": "SK2 6BW",
    "lat": 53.391114,
    "lng": -2.137602
  },
  {
    "id": "school-106139",
    "type": "school",
    "name": "Bramhall High School",
    "address": "Seal Road, Stockport",
    "postcode": "SK7 2JT",
    "lat": 53.366556,
    "lng": -2.15096
  },
  {
    "id": "school-106142",
    "type": "school",
    "name": "St James' Catholic High School",
    "address": "St James' Way, Cheadle",
    "postcode": "SK8 6PZ",
    "lat": 53.359594,
    "lng": -2.196829
  },
  {
    "id": "school-106143",
    "type": "school",
    "name": "Harrytown Catholic High School",
    "address": "Harrytown, Stockport",
    "postcode": "SK6 3BU",
    "lat": 53.413102,
    "lng": -2.103022
  },
  {
    "id": "school-106270",
    "type": "school",
    "name": "St Damian's RC Science College",
    "address": "Lees Road, Ashton-under-Lyne",
    "postcode": "OL6 8BH",
    "lat": 53.509229,
    "lng": -2.075145
  },
  {
    "id": "school-106271",
    "type": "school",
    "name": "St Thomas More RC College",
    "address": "Town Lane, Manchester",
    "postcode": "M34 6AF",
    "lat": 53.449905,
    "lng": -2.11317
  },
  {
    "id": "school-106365",
    "type": "school",
    "name": "Lostock High School",
    "address": "Selby Road, Manchester",
    "postcode": "M32 9PL",
    "lat": 53.454522,
    "lng": -2.328931
  },
  {
    "id": "school-106368",
    "type": "school",
    "name": "Stretford Grammar School",
    "address": "Granby Road, Manchester",
    "postcode": "M32 8JB",
    "lat": 53.443441,
    "lng": -2.296834
  },
  {
    "id": "school-106370",
    "type": "school",
    "name": "Stretford High School",
    "address": "Great Stone Road, Manchester",
    "postcode": "M32 0XA",
    "lat": 53.456954,
    "lng": -2.292274
  },
  {
    "id": "school-106376",
    "type": "school",
    "name": "Blessed Thomas Holford Catholic College",
    "address": "Urban Road, Altrincham",
    "postcode": "WA15 8HT",
    "lat": 53.387214,
    "lng": -2.339554
  },
  {
    "id": "school-106521",
    "type": "school",
    "name": "Cansfield High School",
    "address": "Old Road, Wigan",
    "postcode": "WN4 9TP",
    "lat": 53.493371,
    "lng": -2.643587
  },
  {
    "id": "school-106523",
    "type": "school",
    "name": "Bedford High School",
    "address": "Manchester Road, Leigh",
    "postcode": "WN7 2LU",
    "lat": 53.493509,
    "lng": -2.489267
  },
  {
    "id": "school-106525",
    "type": "school",
    "name": "Golborne High School",
    "address": "Lowton Road, Warrington",
    "postcode": "WA3 3EL",
    "lat": 53.480579,
    "lng": -2.585764
  },
  {
    "id": "school-106529",
    "type": "school",
    "name": "Shevington High School",
    "address": "Shevington Lane, Wigan",
    "postcode": "WN6 8AB",
    "lat": 53.57966,
    "lng": -2.682857
  },
  {
    "id": "school-106534",
    "type": "school",
    "name": "The Deanery Church of England High School and Sixth Form College",
    "address": "Frog Lane, Wigan",
    "postcode": "WN1 1HQ",
    "lat": 53.547401,
    "lng": -2.636376
  },
  {
    "id": "school-106535",
    "type": "school",
    "name": "St John Fisher Catholic High School",
    "address": "Baytree Road, Wigan",
    "postcode": "WN6 7RN",
    "lat": 53.557327,
    "lng": -2.651049
  },
  {
    "id": "school-106537",
    "type": "school",
    "name": "St Peter's Catholic High School",
    "address": "Howards Lane, Wigan",
    "postcode": "WN5 8NU",
    "lat": 53.540965,
    "lng": -2.699122
  },
  {
    "id": "school-106540",
    "type": "school",
    "name": "St Edmund Arrowsmith Catholic High School, Ashton-in-Makerfield",
    "address": "Rookery Avenue, Wigan",
    "postcode": "WN4 9PF",
    "lat": 53.482287,
    "lng": -2.638461
  },
  {
    "id": "school-111396",
    "type": "school",
    "name": "Blacon High School, A Specialist Sports College",
    "address": "Melbourne Road, Chester",
    "postcode": "CH1 5JH",
    "lat": 53.203452,
    "lng": -2.933697
  },
  {
    "id": "school-111417",
    "type": "school",
    "name": "Ruskin Community High School",
    "address": "Ruskin Road, Crewe",
    "postcode": "CW2 7JT",
    "lat": 53.090035,
    "lng": -2.445777
  },
  {
    "id": "school-111422",
    "type": "school",
    "name": "Upton-by-Chester High School",
    "address": "St James Avenue, Chester",
    "postcode": "CH2 1NN",
    "lat": 53.213967,
    "lng": -2.868836
  },
  {
    "id": "school-111429",
    "type": "school",
    "name": "The Whitby High School",
    "address": "Sycamore Drive, Ellesmere Port",
    "postcode": "CH66 2NU",
    "lat": 53.263175,
    "lng": -2.910332
  },
  {
    "id": "school-111430",
    "type": "school",
    "name": "Culcheth High School",
    "address": "Warrington Road, Warrington",
    "postcode": "WA3 5HH",
    "lat": 53.453987,
    "lng": -2.509431
  },
  {
    "id": "school-111440",
    "type": "school",
    "name": "Helsby High School",
    "address": "Chester Road, Frodsham",
    "postcode": "WA6 0HY",
    "lat": 53.27965,
    "lng": -2.750859
  },
  {
    "id": "school-111443",
    "type": "school",
    "name": "Wilmslow High School",
    "address": "Holly Road, Wilmslow",
    "postcode": "SK9 1LZ",
    "lat": 53.32188,
    "lng": -2.228576
  },
  {
    "id": "school-111450",
    "type": "school",
    "name": "St Nicholas Catholic High School",
    "address": "Greenbank Lane, Northwich",
    "postcode": "CW8 1JW",
    "lat": 53.247382,
    "lng": -2.526503
  },
  {
    "id": "school-111454",
    "type": "school",
    "name": "St Gregory's Catholic High School",
    "address": "Cromwell Avenue, Warrington",
    "postcode": "WA5 1HG",
    "lat": 53.390674,
    "lng": -2.619539
  },
  {
    "id": "school-111456",
    "type": "school",
    "name": "Cardinal Newman Catholic High School",
    "address": "Bridgewater Avenue, Warrington",
    "postcode": "WA4 1RX",
    "lat": 53.388505,
    "lng": -2.560018
  },
  {
    "id": "school-111457",
    "type": "school",
    "name": "Saints Peter and Paul Catholic High School",
    "address": "Highfield Road, Widnes",
    "postcode": "WA8 7DW",
    "lat": 53.373333,
    "lng": -2.739427
  },
  {
    "id": "school-112375",
    "type": "school",
    "name": "Beacon Hill Community School",
    "address": "Market Square, Wigton",
    "postcode": "CA7 3EZ",
    "lat": 54.764017,
    "lng": -3.332691
  },
  {
    "id": "school-112377",
    "type": "school",
    "name": "Solway Community School",
    "address": "Liddell Street, Wigton",
    "postcode": "CA7 4DD",
    "lat": 54.872105,
    "lng": -3.382966
  },
  {
    "id": "school-112378",
    "type": "school",
    "name": "Samuel King's School",
    "address": "Church Road, Alston",
    "postcode": "CA9 3QU",
    "lat": 54.810971,
    "lng": -2.438467
  },
  {
    "id": "school-112379",
    "type": "school",
    "name": "The Lakes School",
    "address": "Troutbeck Bridge, Windermere",
    "postcode": "LA23 1HW",
    "lat": 54.391905,
    "lng": -2.920291
  },
  {
    "id": "school-112382",
    "type": "school",
    "name": "Netherhall School",
    "address": "Netherhall Road, Maryport",
    "postcode": "CA15 6NT",
    "lat": 54.717955,
    "lng": -3.485456
  },
  {
    "id": "school-112383",
    "type": "school",
    "name": "Dowdales School",
    "address": "Dalton-in-Furness",
    "postcode": "LA15 8AH",
    "lat": 54.159016,
    "lng": -3.182983
  },
  {
    "id": "school-112384",
    "type": "school",
    "name": "John Ruskin School",
    "address": "Lake Road, Coniston",
    "postcode": "LA21 8EW",
    "lat": 54.367129,
    "lng": -3.073211
  },
  {
    "id": "school-112385",
    "type": "school",
    "name": "Ulverston Victoria High School",
    "address": "Springfield Road, Ulverston",
    "postcode": "LA12 0EB",
    "lat": 54.188289,
    "lng": -3.093081
  },
  {
    "id": "school-112388",
    "type": "school",
    "name": "Millom School",
    "address": "Salthouse Road, Millom",
    "postcode": "LA18 5AB",
    "lat": 54.212983,
    "lng": -3.26814
  },
  {
    "id": "school-112393",
    "type": "school",
    "name": "Ullswater Community College",
    "address": "Wetheriggs Lane, Penrith",
    "postcode": "CA11 8NG",
    "lat": 54.659299,
    "lng": -2.747784
  },
  {
    "id": "school-112397",
    "type": "school",
    "name": "The Nelson Thomlinson School",
    "address": "High Street, Wigton",
    "postcode": "CA7 9PX",
    "lat": 54.82167,
    "lng": -3.154375
  },
  {
    "id": "school-112398",
    "type": "school",
    "name": "St Benedict's Catholic High School",
    "address": "Red Lonning, Whitehaven",
    "postcode": "CA28 8UG",
    "lat": 54.543394,
    "lng": -3.559674
  },
  {
    "id": "school-112399",
    "type": "school",
    "name": "St John Henry Newman Catholic School",
    "address": "Scalegate Road, Carlisle",
    "postcode": "CA2 4NL",
    "lat": 54.883272,
    "lng": -2.893354
  },
  {
    "id": "school-112932",
    "type": "school",
    "name": "Chapel-en-le-Frith High School",
    "address": "Long Lane, High Peak",
    "postcode": "SK23 0TQ",
    "lat": 53.318324,
    "lng": -1.920792
  },
  {
    "id": "school-112936",
    "type": "school",
    "name": "New Mills School",
    "address": "Church Lane, High Peak",
    "postcode": "SK22 4NR",
    "lat": 53.366607,
    "lng": -1.994574
  },
  {
    "id": "school-119707",
    "type": "school",
    "name": "Ashton Community Science College",
    "address": "Aldwych Drive, Preston",
    "postcode": "PR2 1SL",
    "lat": 53.770264,
    "lng": -2.748706
  },
  {
    "id": "school-119714",
    "type": "school",
    "name": "Millfield Science & Performing Arts College",
    "address": "Belvedere Road, Thornton-Cleveleys",
    "postcode": "FY5 5DG",
    "lat": 53.865953,
    "lng": -2.99952
  },
  {
    "id": "school-119716",
    "type": "school",
    "name": "Ribblesdale School",
    "address": "Queens Road, Clitheroe",
    "postcode": "BB7 1EJ",
    "lat": 53.866653,
    "lng": -2.388975
  },
  {
    "id": "school-119722",
    "type": "school",
    "name": "Alder Grange School",
    "address": "Calder Road, Rossendale",
    "postcode": "BB4 8HW",
    "lat": 53.708205,
    "lng": -2.28174
  },
  {
    "id": "school-119753",
    "type": "school",
    "name": "Whitworth Community High School",
    "address": "Hall Street, ROCHDALE",
    "postcode": "OL12 8TS",
    "lat": 53.657549,
    "lng": -2.180509
  },
  {
    "id": "school-119759",
    "type": "school",
    "name": "Broughton High School",
    "address": "Woodplumpton Lane, Preston",
    "postcode": "PR3 5JJ",
    "lat": 53.807246,
    "lng": -2.725384
  },
  {
    "id": "school-119765",
    "type": "school",
    "name": "Penwortham Girls' High School",
    "address": "Cop Lane, Preston",
    "postcode": "PR1 0SR",
    "lat": 53.74766,
    "lng": -2.726147
  },
  {
    "id": "school-119767",
    "type": "school",
    "name": "Haslingden High School and Sixth Form",
    "address": "Broadway, Rossendale",
    "postcode": "BB4 4EY",
    "lat": 53.689199,
    "lng": -2.318853
  },
  {
    "id": "school-119771",
    "type": "school",
    "name": "Fleetwood High School",
    "address": "Broadway, FLEETWOOD",
    "postcode": "FY7 8HE",
    "lat": 53.911661,
    "lng": -3.033803
  },
  {
    "id": "school-119773",
    "type": "school",
    "name": "Moor Park High School and Sixth Form",
    "address": "Moor Park Avenue, Preston",
    "postcode": "PR1 6DT",
    "lat": 53.77078,
    "lng": -2.69119
  },
  {
    "id": "school-119774",
    "type": "school",
    "name": "Lathom High School : A Technology College",
    "address": "Glenburn Road, Skelmersdale",
    "postcode": "WN8 6JN",
    "lat": 53.560982,
    "lng": -2.790484
  },
  {
    "id": "school-119775",
    "type": "school",
    "name": "Balshaw's Church of England High School",
    "address": "Church Road, Leyland",
    "postcode": "PR25 3AH",
    "lat": 53.687387,
    "lng": -2.684826
  },
  {
    "id": "school-119779",
    "type": "school",
    "name": "Our Lady's Catholic High School",
    "address": "St Anthony's Drive, Preston",
    "postcode": "PR2 3SQ",
    "lat": 53.781346,
    "lng": -2.724209
  },
  {
    "id": "school-119780",
    "type": "school",
    "name": "Corpus Christi Catholic High School",
    "address": "St Vincent's Road, Preston",
    "postcode": "PR2 8QY",
    "lat": 53.785871,
    "lng": -2.705494
  },
  {
    "id": "school-119782",
    "type": "school",
    "name": "Our Lady Queen of Peace Catholic High School",
    "address": "Glenburn Road, Skelmersdale",
    "postcode": "WN8 6JW",
    "lat": 53.562449,
    "lng": -2.790285
  },
  {
    "id": "school-119784",
    "type": "school",
    "name": "Brownedge St Mary's Catholic High School",
    "address": "Station Road, Preston",
    "postcode": "PR5 6PB",
    "lat": 53.732683,
    "lng": -2.65938
  },
  {
    "id": "school-119785",
    "type": "school",
    "name": "Ss John Fisher and Thomas More Roman Catholic High School",
    "address": "Gibfield Road, Colne",
    "postcode": "BB8 8JT",
    "lat": 53.84595,
    "lng": -2.187262
  },
  {
    "id": "school-119788",
    "type": "school",
    "name": "St Bede's Catholic High School, Lytham",
    "address": "Talbot Road, Lytham St Annes",
    "postcode": "FY8 4JL",
    "lat": 53.74355,
    "lng": -2.953469
  },
  {
    "id": "school-119789",
    "type": "school",
    "name": "Saint Aidan's Church of England High School",
    "address": "Cartgate, Poulton-le-Fylde",
    "postcode": "FY6 0NP",
    "lat": 53.915855,
    "lng": -2.961775
  },
  {
    "id": "school-119792",
    "type": "school",
    "name": "St Bede's Catholic High School",
    "address": "St Anne's Road, Ormskirk",
    "postcode": "L39 4TA",
    "lat": 53.562909,
    "lng": -2.893441
  },
  {
    "id": "school-119793",
    "type": "school",
    "name": "St Bede's Roman Catholic High School, Blackburn",
    "address": "Green Lane, Blackburn",
    "postcode": "BB2 4SR",
    "lat": 53.726871,
    "lng": -2.515497
  },
  {
    "id": "school-119794",
    "type": "school",
    "name": "Hutton Church of England Grammar School",
    "address": "Liverpool Road, Preston",
    "postcode": "PR4 5SN",
    "lat": 53.732149,
    "lng": -2.762992
  },
  {
    "id": "school-119798",
    "type": "school",
    "name": "Our Lady's Catholic College",
    "address": "Morecambe Road, Lancaster",
    "postcode": "LA1 2RX",
    "lat": 54.054777,
    "lng": -2.80041
  },
  {
    "id": "school-119799",
    "type": "school",
    "name": "Cardinal Allen Catholic High School, Fleetwood",
    "address": "Melbourne Avenue, Fleetwood",
    "postcode": "FY7 8AY",
    "lat": 53.903588,
    "lng": -3.034897
  },
  {
    "id": "school-119800",
    "type": "school",
    "name": "St Cecilia's RC High School",
    "address": "Chapel Hill, Preston",
    "postcode": "PR3 2XA",
    "lat": 53.824648,
    "lng": -2.603725
  },
  {
    "id": "school-119802",
    "type": "school",
    "name": "All Hallows Catholic High School",
    "address": "Crabtree Avenue, Preston",
    "postcode": "PR1 0LN",
    "lat": 53.738599,
    "lng": -2.739288
  },
  {
    "id": "school-119803",
    "type": "school",
    "name": "Holy Cross Catholic High School",
    "address": "Myles Standish Way, Chorley",
    "postcode": "PR7 3LS",
    "lat": 53.637434,
    "lng": -2.628897
  },
  {
    "id": "school-119804",
    "type": "school",
    "name": "Mount Carmel Roman Catholic High School, Hyndburn",
    "address": "Wordsworth Road, Accrington",
    "postcode": "BB5 0LU",
    "lat": 53.744692,
    "lng": -2.376732
  },
  {
    "id": "school-119813",
    "type": "school",
    "name": "Baines School",
    "address": "Highcross Road, Poulton-le-Fylde",
    "postcode": "FY6 8BE",
    "lat": 53.836244,
    "lng": -2.9929
  },
  {
    "id": "school-119814",
    "type": "school",
    "name": "Archbishop Temple Church of England High School",
    "address": "St Vincent's Road, Preston",
    "postcode": "PR2 8RA",
    "lat": 53.782553,
    "lng": -2.7026
  },
  {
    "id": "school-119816",
    "type": "school",
    "name": "St Mary's Catholic High School",
    "address": "Royal Avenue, Leyland",
    "postcode": "PR25 1BS",
    "lat": 53.685288,
    "lng": -2.70884
  },
  {
    "id": "school-131310",
    "type": "school",
    "name": "Elthorne Park High School",
    "address": "Westlea Road, London",
    "postcode": "W7 2AH",
    "lat": 51.499463,
    "lng": -0.328038
  },
  {
    "id": "school-131512",
    "type": "school",
    "name": "All Hallows RC High School",
    "address": "150 Eccles Old Road, Salford",
    "postcode": "M6 8AA",
    "lat": 53.490872,
    "lng": -2.313294
  },
  {
    "id": "school-131726",
    "type": "school",
    "name": "Holy Family Roman Catholic and Church of England College",
    "address": "Pot Hall, Heywood",
    "postcode": "OL10 2AA",
    "lat": 53.586246,
    "lng": -2.223247
  },
  {
    "id": "school-131880",
    "type": "school",
    "name": "St Peter's RC High School",
    "address": "Kirkmanshulme Lane",
    "postcode": "M12 4WB",
    "lat": 53.459371,
    "lng": -2.190919
  },
  {
    "id": "school-134195",
    "type": "school",
    "name": "Manchester Mesivta School",
    "address": "Beechwood, Prestwich",
    "postcode": "M25 0PH",
    "lat": 53.524721,
    "lng": -2.275301
  },
  {
    "id": "school-134224",
    "type": "school",
    "name": "Manchester Academy",
    "address": "Moss Lane East, Manchester",
    "postcode": "M14 4PX",
    "lat": 53.457551,
    "lng": -2.23331
  },
  {
    "id": "school-134283",
    "type": "school",
    "name": "Alder Community High School",
    "address": "Mottram Old Road, Hyde",
    "postcode": "SK14 5NJ",
    "lat": 53.441493,
    "lng": -2.059758
  },
  {
    "id": "school-134646",
    "type": "school",
    "name": "Ladybridge High School",
    "address": "New York, Bolton",
    "postcode": "BL3 4NG",
    "lat": 53.566251,
    "lng": -2.473978
  },
  {
    "id": "school-134989",
    "type": "school",
    "name": "Pendle Vale College",
    "address": "Oxford Road, Nelson",
    "postcode": "BB9 8LF",
    "lat": 53.84325,
    "lng": -2.194987
  },
  {
    "id": "school-134993",
    "type": "school",
    "name": "Sandwell Academy",
    "address": "Halfords Lane, West Bromwich",
    "postcode": "B71 4LG",
    "lat": 52.508153,
    "lng": -1.966433
  },
  {
    "id": "school-134994",
    "type": "school",
    "name": "Shuttleworth College",
    "address": "Burnley Road, Burnley",
    "postcode": "BB12 8ST",
    "lat": 53.797311,
    "lng": -2.29796
  },
  {
    "id": "school-134996",
    "type": "school",
    "name": "Sir John Thursby Community College",
    "address": "Eastern Avenue, Burnley",
    "postcode": "BB10 2AT",
    "lat": 53.803275,
    "lng": -2.216486
  },
  {
    "id": "school-135003",
    "type": "school",
    "name": "Unity College",
    "address": "Townley Holmes, Burnley",
    "postcode": "BB11 3DF",
    "lat": 53.782414,
    "lng": -2.220249
  },
  {
    "id": "school-135071",
    "type": "school",
    "name": "Salford City Academy",
    "address": "Northfleet Road, Manchester",
    "postcode": "M30 7PQ",
    "lat": 53.478275,
    "lng": -2.379386
  },
  {
    "id": "school-135174",
    "type": "school",
    "name": "The Belvedere Academy",
    "address": "17 Belvidere Road, Liverpool",
    "postcode": "L8 3TF",
    "lat": 53.384492,
    "lng": -2.955607
  },
  {
    "id": "school-135262",
    "type": "school",
    "name": "Stockport Academy",
    "address": "Heathbank Road, Stockport",
    "postcode": "SK3 0UP",
    "lat": 53.399594,
    "lng": -2.182303
  },
  {
    "id": "school-135296",
    "type": "school",
    "name": "William Hulme's Grammar School",
    "address": "Spring Bridge Road, Manchester",
    "postcode": "M16 8PR",
    "lat": 53.445558,
    "lng": -2.247158
  },
  {
    "id": "school-135313",
    "type": "school",
    "name": "St Anne's Church of England Academy",
    "address": "Hollin Lane, Manchester",
    "postcode": "M24 6XN",
    "lat": 53.566589,
    "lng": -2.200975
  },
  {
    "id": "school-135479",
    "type": "school",
    "name": "All Saints Catholic High School",
    "address": "Roughwood Drive, Knowsley",
    "postcode": "L33 8XF",
    "lat": 53.485241,
    "lng": -2.880941
  },
  {
    "id": "school-135508",
    "type": "school",
    "name": "Dixons Ashton Academy",
    "address": "Broadoak Road, Ashton-under-Lyne",
    "postcode": "OL6 8RF",
    "lat": 53.504956,
    "lng": -2.080988
  },
  {
    "id": "school-135580",
    "type": "school",
    "name": "Darwen Aldridge Community Academy",
    "address": "Sudell Road, Darwen",
    "postcode": "BB3 3HD",
    "lat": 53.693822,
    "lng": -2.461657
  },
  {
    "id": "school-135620",
    "type": "school",
    "name": "Richard Rose Morton Academy",
    "address": "Wigton Road, Carlisle",
    "postcode": "CA2 6LB",
    "lat": 54.881166,
    "lng": -2.971033
  },
  {
    "id": "school-135621",
    "type": "school",
    "name": "Richard Rose Central Academy",
    "address": "Victoria Place, Carlisle",
    "postcode": "CA1 1LY",
    "lat": 54.895759,
    "lng": -2.921903
  },
  {
    "id": "school-135632",
    "type": "school",
    "name": "West Lakes Academy",
    "address": "Main Street, Egremont",
    "postcode": "CA22 2DQ",
    "lat": 54.484246,
    "lng": -3.528011
  },
  {
    "id": "school-135649",
    "type": "school",
    "name": "Accrington Academy",
    "address": "Queens Road West, Accrington",
    "postcode": "BB5 4FF",
    "lat": 53.761339,
    "lng": -2.371374
  },
  {
    "id": "school-135661",
    "type": "school",
    "name": "Oasis Academy MediaCityUK",
    "address": "King William Street, Manchester",
    "postcode": "M50 3UQ",
    "lat": 53.474958,
    "lng": -2.282046
  },
  {
    "id": "school-135770",
    "type": "school",
    "name": "Essa Academy",
    "address": "Lever Edge Lane, Bolton",
    "postcode": "BL3 3HH",
    "lat": 53.556249,
    "lng": -2.445076
  },
  {
    "id": "school-135864",
    "type": "school",
    "name": "Droylsden Academy",
    "address": "Manor Road, Manchester",
    "postcode": "M43 6QD",
    "lat": 53.482057,
    "lng": -2.155665
  },
  {
    "id": "school-135874",
    "type": "school",
    "name": "Manchester Enterprise Academy",
    "address": "Simonsway, Wythenshawe",
    "postcode": "M22 9RH",
    "lat": 53.380803,
    "lng": -2.26935
  },
  {
    "id": "school-135877",
    "type": "school",
    "name": "Birkenhead High School Academy",
    "address": "86 Devonshire Place, Prenton",
    "postcode": "CH43 1TY",
    "lat": 53.387629,
    "lng": -3.048913
  },
  {
    "id": "school-135936",
    "type": "school",
    "name": "Fulwood Academy",
    "address": "Black Bull Lane, Preston",
    "postcode": "PR2 9YR",
    "lat": 53.78691,
    "lng": -2.718157
  },
  {
    "id": "school-135940",
    "type": "school",
    "name": "Furness Academy",
    "address": "Park Drive, Barrow-in-Furness",
    "postcode": "LA13 9BB",
    "lat": 54.116459,
    "lng": -3.20945
  },
  {
    "id": "school-136027",
    "type": "school",
    "name": "Oasis Academy Oldham",
    "address": "Hollins Road, Oldham",
    "postcode": "OL8 4JZ",
    "lat": 53.523271,
    "lng": -2.127938
  },
  {
    "id": "school-136091",
    "type": "school",
    "name": "The Phoenix Collegiate",
    "address": "Clarkes Lane, West Bromwich",
    "postcode": "B71 2BX",
    "lat": 52.538223,
    "lng": -1.994928
  },
  {
    "id": "school-136105",
    "type": "school",
    "name": "Manchester Communication Academy",
    "address": "Silchester Drive, Manchester",
    "postcode": "M40 8NT",
    "lat": 53.501671,
    "lng": -2.214449
  },
  {
    "id": "school-136115",
    "type": "school",
    "name": "E-ACT the Oldham Academy North",
    "address": "Broadway, Oldham",
    "postcode": "OL2 5BF",
    "lat": 53.560069,
    "lng": -2.123822
  },
  {
    "id": "school-136135",
    "type": "school",
    "name": "Kearsley Academy",
    "address": "Springfield Road, Bolton",
    "postcode": "BL4 8HY",
    "lat": 53.538125,
    "lng": -2.385776
  },
  {
    "id": "school-136141",
    "type": "school",
    "name": "The Sutton Academy",
    "address": "Elton Head Road, St Helens",
    "postcode": "WA9 5AU",
    "lat": 53.426612,
    "lng": -2.729921
  },
  {
    "id": "school-136174",
    "type": "school",
    "name": "Co-op Academy Manchester",
    "address": "Plant Hill Road, Manchester",
    "postcode": "M9 0WQ",
    "lat": 53.528755,
    "lng": -2.220334
  },
  {
    "id": "school-136184",
    "type": "school",
    "name": "The Winsford Academy",
    "address": "Grange Lane, Winsford",
    "postcode": "CW7 2BT",
    "lat": 53.194854,
    "lng": -2.534467
  },
  {
    "id": "school-136185",
    "type": "school",
    "name": "Ormiston Bolingbroke Academy",
    "address": "Barnfield Avenue, Runcorn",
    "postcode": "WA7 6EP",
    "lat": 53.319218,
    "lng": -2.67033
  },
  {
    "id": "school-136273",
    "type": "school",
    "name": "Audenshaw School",
    "address": "Hazel Street, Manchester",
    "postcode": "M34 5NB",
    "lat": 53.466432,
    "lng": -2.117659
  },
  {
    "id": "school-136278",
    "type": "school",
    "name": "The Fallibroome Academy",
    "address": "Priory Lane, Macclesfield",
    "postcode": "SK10 4AF",
    "lat": 53.269742,
    "lng": -2.160261
  },
  {
    "id": "school-136279",
    "type": "school",
    "name": "Brine Leas School",
    "address": "Audlem Road, Nantwich",
    "postcode": "CW5 7DY",
    "lat": 53.05623,
    "lng": -2.512993
  },
  {
    "id": "school-136297",
    "type": "school",
    "name": "Urmston Grammar Academy",
    "address": "Newton Road, Manchester",
    "postcode": "M41 5UG",
    "lat": 53.450298,
    "lng": -2.359619
  },
  {
    "id": "school-136340",
    "type": "school",
    "name": "Sandbach High School and Sixth Form College",
    "address": "Middlewich Road, Sandbach",
    "postcode": "CW11 3NT",
    "lat": 53.145451,
    "lng": -2.37217
  },
  {
    "id": "school-136357",
    "type": "school",
    "name": "Queen Elizabeth School",
    "address": "Kirkby Lonsdale",
    "postcode": "LA6 2HJ",
    "lat": 54.201557,
    "lng": -2.602415
  },
  {
    "id": "school-136377",
    "type": "school",
    "name": "Wellington School",
    "address": "Wellington Road, Altrincham",
    "postcode": "WA15 7RH",
    "lat": 53.393811,
    "lng": -2.333591
  },
  {
    "id": "school-136378",
    "type": "school",
    "name": "Wellacre Technology Academy",
    "address": "Irlam Road, Manchester",
    "postcode": "M41 6AP",
    "lat": 53.446604,
    "lng": -2.393575
  },
  {
    "id": "school-136381",
    "type": "school",
    "name": "Lancaster Girls' Grammar School",
    "address": "Regent Street, Lancaster",
    "postcode": "LA1 1SF",
    "lat": 54.045544,
    "lng": -2.801928
  },
  {
    "id": "school-136390",
    "type": "school",
    "name": "Clitheroe Royal Grammar School",
    "address": "York Street, Clitheroe",
    "postcode": "BB7 2DJ",
    "lat": 53.87447,
    "lng": -2.38707
  },
  {
    "id": "school-136411",
    "type": "school",
    "name": "Birkenhead Park School",
    "address": "Park Road South, Birkenhead",
    "postcode": "CH43 4UY",
    "lat": 53.39041,
    "lng": -3.041356
  },
  {
    "id": "school-136421",
    "type": "school",
    "name": "Hope Academy",
    "address": "Ashton Road, Newton-le-Willows",
    "postcode": "WA12 0AQ",
    "lat": 53.461654,
    "lng": -2.623584
  },
  {
    "id": "school-136458",
    "type": "school",
    "name": "Altrincham Grammar School for Boys",
    "address": "Marlborough Road, Altrincham",
    "postcode": "WA14 2RS",
    "lat": 53.376216,
    "lng": -2.349825
  },
  {
    "id": "school-136498",
    "type": "school",
    "name": "Sale Grammar School",
    "address": "Marsland Road, Sale",
    "postcode": "M33 3NH",
    "lat": 53.417858,
    "lng": -2.3136
  },
  {
    "id": "school-136526",
    "type": "school",
    "name": "The Queen Katherine School",
    "address": "Appleby Road, Kendal",
    "postcode": "LA9 6PJ",
    "lat": 54.339297,
    "lng": -2.733889
  },
  {
    "id": "school-136543",
    "type": "school",
    "name": "The Bishops' Blue Coat Church of England High School",
    "address": "Vaughans Lane, Chester",
    "postcode": "CH3 5XF",
    "lat": 53.183967,
    "lng": -2.865011
  },
  {
    "id": "school-136593",
    "type": "school",
    "name": "Fairfield High School for Girls",
    "address": "Fairfield Avenue, Manchester",
    "postcode": "M43 6AB",
    "lat": 53.474864,
    "lng": -2.149867
  },
  {
    "id": "school-136618",
    "type": "school",
    "name": "Windsor High School and Sixth Form",
    "address": "Richmond Street, Halesowen",
    "postcode": "B63 4BB",
    "lat": 52.451266,
    "lng": -2.058689
  },
  {
    "id": "school-136645",
    "type": "school",
    "name": "Christleton High School",
    "address": "Village Road, Chester",
    "postcode": "CH3 7AD",
    "lat": 53.182909,
    "lng": -2.83184
  },
  {
    "id": "school-136655",
    "type": "school",
    "name": "Congleton High School",
    "address": "Box Lane, Congleton",
    "postcode": "CW12 4NS",
    "lat": 53.165187,
    "lng": -2.246113
  },
  {
    "id": "school-136671",
    "type": "school",
    "name": "Kirkbie Kendal School",
    "address": "Lound Road, Kendal",
    "postcode": "LA9 7EQ",
    "lat": 54.317293,
    "lng": -2.73977
  },
  {
    "id": "school-136717",
    "type": "school",
    "name": "Hodgson Academy",
    "address": "Moorland Road, Poulton-Le-Fylde",
    "postcode": "FY6 7EU",
    "lat": 53.847597,
    "lng": -2.979866
  },
  {
    "id": "school-136731",
    "type": "school",
    "name": "Ripley St Thomas Church of England Academy",
    "address": "Ashton Road, Lancaster",
    "postcode": "LA1 4RS",
    "lat": 54.039034,
    "lng": -2.800947
  },
  {
    "id": "school-136732",
    "type": "school",
    "name": "Queen Elizabeth Grammar School Penrith",
    "address": "Ullswater Road, Penrith",
    "postcode": "CA11 7EG",
    "lat": 54.659047,
    "lng": -2.75657
  },
  {
    "id": "school-136742",
    "type": "school",
    "name": "Lancaster Royal Grammar School",
    "address": "East Road, Lancaster",
    "postcode": "LA1 3EF",
    "lat": 54.047016,
    "lng": -2.788728
  },
  {
    "id": "school-136779",
    "type": "school",
    "name": "The Heath School",
    "address": "Clifton Road, Runcorn",
    "postcode": "WA7 4SY",
    "lat": 53.324679,
    "lng": -2.724892
  },
  {
    "id": "school-136780",
    "type": "school",
    "name": "St Anselm's College",
    "address": "Manor Hill, Prenton",
    "postcode": "CH43 1UQ",
    "lat": 53.389726,
    "lng": -3.047536
  },
  {
    "id": "school-136801",
    "type": "school",
    "name": "Preston Muslim Girls High School",
    "address": "Deepdale Mill Street, Preston",
    "postcode": "PR1 5BY",
    "lat": 53.76678,
    "lng": -2.685025
  },
  {
    "id": "school-136893",
    "type": "school",
    "name": "St Michael's Church of England High School",
    "address": "Astley Road, Chorley",
    "postcode": "PR7 1RS",
    "lat": 53.660551,
    "lng": -2.63481
  },
  {
    "id": "school-136895",
    "type": "school",
    "name": "The Oldershaw School",
    "address": "Valkyrie Road, Wallasey",
    "postcode": "CH45 4RJ",
    "lat": 53.422358,
    "lng": -3.048864
  },
  {
    "id": "school-136900",
    "type": "school",
    "name": "St Wilfrid's Church of England Academy",
    "address": "Duckworth Street, Blackburn",
    "postcode": "BB2 2JR",
    "lat": 53.742418,
    "lng": -2.493139
  },
  {
    "id": "school-136902",
    "type": "school",
    "name": "Keswick School",
    "address": "Vicarage Hill, Keswick",
    "postcode": "CA12 5QB",
    "lat": 54.607999,
    "lng": -3.145162
  },
  {
    "id": "school-136965",
    "type": "school",
    "name": "Flixton Girls School",
    "address": "Flixton Road, Manchester",
    "postcode": "M41 5DR",
    "lat": 53.449431,
    "lng": -2.369672
  },
  {
    "id": "school-136987",
    "type": "school",
    "name": "Co-op Academy Swinton",
    "address": "Sefton Road, Manchester",
    "postcode": "M27 6JU",
    "lat": 53.516377,
    "lng": -2.338987
  },
  {
    "id": "school-136997",
    "type": "school",
    "name": "Bowland High",
    "address": "Riversmead, Clitheroe",
    "postcode": "BB7 4QS",
    "lat": 53.911463,
    "lng": -2.351039
  },
  {
    "id": "school-137020",
    "type": "school",
    "name": "West Hill School",
    "address": "Thompson Cross, Stalybridge",
    "postcode": "SK15 1LX",
    "lat": 53.486268,
    "lng": -2.064373
  },
  {
    "id": "school-137039",
    "type": "school",
    "name": "The Hathershaw College",
    "address": "Bellfield Avenue, Oldham",
    "postcode": "OL8 3EP",
    "lat": 53.522228,
    "lng": -2.110422
  },
  {
    "id": "school-137046",
    "type": "school",
    "name": "King Edward VI Five Ways School",
    "address": "Scotland Lane, Birmingham",
    "postcode": "B32 4BT",
    "lat": 52.431725,
    "lng": -1.997882
  },
  {
    "id": "school-137107",
    "type": "school",
    "name": "Kirkby Stephen Grammar School",
    "address": "Christian Head, Kirkby Stephen",
    "postcode": "CA17 4HA",
    "lat": 54.474024,
    "lng": -2.351055
  },
  {
    "id": "school-137111",
    "type": "school",
    "name": "Lostock Hall Academy",
    "address": "Todd Lane North, Preston",
    "postcode": "PR5 5UR",
    "lat": 53.729757,
    "lng": -2.681148
  },
  {
    "id": "school-137130",
    "type": "school",
    "name": "Prenton High School for Girls",
    "address": "Hesketh Avenue, Birkenhead",
    "postcode": "CH42 6RR",
    "lat": 53.368595,
    "lng": -3.024305
  },
  {
    "id": "school-137133",
    "type": "school",
    "name": "The Blue Coat CofE School",
    "address": "Egerton Street, Oldham",
    "postcode": "OL1 3SQ",
    "lat": 53.545793,
    "lng": -2.10597
  },
  {
    "id": "school-137171",
    "type": "school",
    "name": "Wirral Grammar School for Girls",
    "address": "Heath Road, Wirral",
    "postcode": "CH63 3AF",
    "lat": 53.348214,
    "lng": -3.012743
  },
  {
    "id": "school-137205",
    "type": "school",
    "name": "Dallam School",
    "address": "Haverflatts Lane, Cumbria",
    "postcode": "LA7 7DD",
    "lat": 54.228549,
    "lng": -2.767101
  },
  {
    "id": "school-137243",
    "type": "school",
    "name": "West Kirby Grammar School",
    "address": "Graham Road, Wirral",
    "postcode": "CH48 5DP",
    "lat": 53.377782,
    "lng": -3.183772
  },
  {
    "id": "school-137251",
    "type": "school",
    "name": "Appleby Grammar School",
    "address": "Battlebarrow, Appleby-in-Westmorland",
    "postcode": "CA16 6XU",
    "lat": 54.583405,
    "lng": -2.49357
  },
  {
    "id": "school-137252",
    "type": "school",
    "name": "William Howard School",
    "address": "Longtown Road, Brampton",
    "postcode": "CA8 1AR",
    "lat": 54.943956,
    "lng": -2.741099
  },
  {
    "id": "school-137254",
    "type": "school",
    "name": "Caldew School",
    "address": "Dalston, Carlisle",
    "postcode": "CA5 7NN",
    "lat": 54.845553,
    "lng": -2.979321
  },
  {
    "id": "school-137269",
    "type": "school",
    "name": "Settlebeck School",
    "address": "Long Lane, Sedbergh",
    "postcode": "LA10 5AL",
    "lat": 54.322544,
    "lng": -2.518734
  },
  {
    "id": "school-137289",
    "type": "school",
    "name": "Altrincham Grammar School for Girls",
    "address": "Cavendish Road, Altrincham",
    "postcode": "WA14 2NL",
    "lat": 53.380954,
    "lng": -2.35905
  },
  {
    "id": "school-137294",
    "type": "school",
    "name": "The Crompton House Church of England Academy",
    "address": "Rochdale Road, Oldham",
    "postcode": "OL2 7HS",
    "lat": 53.581274,
    "lng": -2.106346
  },
  {
    "id": "school-137296",
    "type": "school",
    "name": "Bishop Rawstorne Church of England Academy",
    "address": "Highfield Road, Leyland",
    "postcode": "PR26 9HH",
    "lat": 53.661536,
    "lng": -2.76609
  },
  {
    "id": "school-137297",
    "type": "school",
    "name": "Birkdale High School",
    "address": "Windy Harbour Road, Southport",
    "postcode": "PR8 3DT",
    "lat": 53.611794,
    "lng": -3.022714
  },
  {
    "id": "school-137309",
    "type": "school",
    "name": "The King David High School",
    "address": "Eaton Road, Manchester",
    "postcode": "M8 5DY",
    "lat": 53.515782,
    "lng": -2.243871
  },
  {
    "id": "school-137338",
    "type": "school",
    "name": "Cartmel Priory CofE School",
    "address": "Headless Cross, Grange-over-Sands",
    "postcode": "LA11 7SA",
    "lat": 54.198116,
    "lng": -2.948526
  },
  {
    "id": "school-137342",
    "type": "school",
    "name": "Garstang Community Academy",
    "address": "Bowgreave, Preston",
    "postcode": "PR3 1YE",
    "lat": 53.88937,
    "lng": -2.764559
  },
  {
    "id": "school-137369",
    "type": "school",
    "name": "Trinity School",
    "address": "Strand Road, Carlisle",
    "postcode": "CA1 1JB",
    "lat": 54.896623,
    "lng": -2.930001
  },
  {
    "id": "school-137421",
    "type": "school",
    "name": "Accrington St Christopher's Church of England High School",
    "address": "Queen's Road West, Accrington",
    "postcode": "BB5 4AY",
    "lat": 53.760992,
    "lng": -2.375937
  },
  {
    "id": "school-137436",
    "type": "school",
    "name": "Formby High School",
    "address": "Freshfield Road, Liverpool",
    "postcode": "L37 3HW",
    "lat": 53.560645,
    "lng": -3.066657
  },
  {
    "id": "school-137448",
    "type": "school",
    "name": "Fred Longworth High School",
    "address": "Printshop Lane, Manchester",
    "postcode": "M29 8JN",
    "lat": 53.513679,
    "lng": -2.476544
  },
  {
    "id": "school-137449",
    "type": "school",
    "name": "Holmes Chapel Comprehensive School",
    "address": "Selkirk Drive, Crewe",
    "postcode": "CW4 7DX",
    "lat": 53.196636,
    "lng": -2.367613
  },
  {
    "id": "school-137476",
    "type": "school",
    "name": "Wirral Grammar School for Boys",
    "address": "Cross Lane, Wirral",
    "postcode": "CH63 3AQ",
    "lat": 53.34781,
    "lng": -3.011652
  },
  {
    "id": "school-137491",
    "type": "school",
    "name": "Sandbach School",
    "address": "Crewe Road, Sandbach",
    "postcode": "CW11 3NS",
    "lat": 53.142574,
    "lng": -2.369364
  },
  {
    "id": "school-137498",
    "type": "school",
    "name": "Maharishi Free School",
    "address": "Cobbs Brow Lane, Ormskirk",
    "postcode": "L40 6JJ",
    "lat": 53.569888,
    "lng": -2.781272
  },
  {
    "id": "school-137514",
    "type": "school",
    "name": "Chesterfield High School",
    "address": "Chesterfield Road, Liverpool",
    "postcode": "L23 9YB",
    "lat": 53.491208,
    "lng": -3.003213
  },
  {
    "id": "school-137520",
    "type": "school",
    "name": "Maghull High School",
    "address": "Ormonde Drive, Liverpool",
    "postcode": "L31 7AW",
    "lat": 53.506069,
    "lng": -2.949171
  },
  {
    "id": "school-137582",
    "type": "school",
    "name": "The Rudheath Senior Academy",
    "address": "Middlewich Road, Northwich",
    "postcode": "CW9 7DT",
    "lat": 53.255984,
    "lng": -2.482235
  },
  {
    "id": "school-137604",
    "type": "school",
    "name": "Greenbank High School",
    "address": "Hastings Road, Southport",
    "postcode": "PR8 2LT",
    "lat": 53.622263,
    "lng": -3.026339
  },
  {
    "id": "school-137612",
    "type": "school",
    "name": "Range High School",
    "address": "Stapleton Road, Liverpool",
    "postcode": "L37 2YN",
    "lat": 53.544464,
    "lng": -3.079638
  },
  {
    "id": "school-137768",
    "type": "school",
    "name": "Tarleton Academy",
    "address": "Hesketh Lane, Preston",
    "postcode": "PR4 6AQ",
    "lat": 53.685105,
    "lng": -2.829621
  },
  {
    "id": "school-137783",
    "type": "school",
    "name": "Lowton Church of England High School",
    "address": "Newton Road, Warrington",
    "postcode": "WA3 1DU",
    "lat": 53.475443,
    "lng": -2.544752
  },
  {
    "id": "school-137801",
    "type": "school",
    "name": "Trinity CofE High School",
    "address": "Higher Cambridge Street, Manchester",
    "postcode": "M15 6HP",
    "lat": 53.465436,
    "lng": -2.237496
  },
  {
    "id": "school-137815",
    "type": "school",
    "name": "Weatherhead High School",
    "address": "Breck Rd, Wallasey",
    "postcode": "CH44 3HS",
    "lat": 53.414105,
    "lng": -3.056034
  },
  {
    "id": "school-137843",
    "type": "school",
    "name": "Cheadle Hulme High School",
    "address": "Woods Lane, Cheadle",
    "postcode": "SK8 7JY",
    "lat": 53.363964,
    "lng": -2.185112
  },
  {
    "id": "school-137923",
    "type": "school",
    "name": "Hazel Grove High School",
    "address": "Jacksons Lane, Stockport",
    "postcode": "SK7 5JX",
    "lat": 53.37038,
    "lng": -2.133552
  },
  {
    "id": "school-137929",
    "type": "school",
    "name": "Upton Hall School FCJ",
    "address": "Upton, Wirral",
    "postcode": "CH49 6LJ",
    "lat": 53.385221,
    "lng": -3.098657
  },
  {
    "id": "school-137973",
    "type": "school",
    "name": "Montgomery Academy",
    "address": "All Hallows Road, Blackpool",
    "postcode": "FY2 0AZ",
    "lat": 53.855411,
    "lng": -3.036308
  },
  {
    "id": "school-138002",
    "type": "school",
    "name": "Knutsford Academy",
    "address": "Bexton Road, Knutsford",
    "postcode": "WA16 0EA",
    "lat": 53.300674,
    "lng": -2.379881
  },
  {
    "id": "school-138097",
    "type": "school",
    "name": "Cedar Mount Academy",
    "address": "Gorton Education Village, Gorton",
    "postcode": "M18 7DT",
    "lat": 53.450254,
    "lng": -2.17371
  },
  {
    "id": "school-138110",
    "type": "school",
    "name": "Hawkley Hall High School",
    "address": "Carr Lane, Wigan",
    "postcode": "WN3 5NY",
    "lat": 53.523068,
    "lng": -2.634307
  },
  {
    "id": "school-138123",
    "type": "school",
    "name": "Ashton-on-Mersey School",
    "address": "Cecil Avenue, Sale",
    "postcode": "M33 5BP",
    "lat": 53.419158,
    "lng": -2.337897
  },
  {
    "id": "school-138124",
    "type": "school",
    "name": "Broadoak School",
    "address": "Warburton Lane, Manchester",
    "postcode": "M31 4BU",
    "lat": 53.413097,
    "lng": -2.428308
  },
  {
    "id": "school-138134",
    "type": "school",
    "name": "Saint Ambrose College",
    "address": "Hale Road, Altrincham",
    "postcode": "WA15 0HE",
    "lat": 53.370273,
    "lng": -2.318316
  },
  {
    "id": "school-138148",
    "type": "school",
    "name": "Hartford Church of England High School",
    "address": "Hartford Campus Chester Road, Northwich",
    "postcode": "CW8 1LH",
    "lat": 53.248278,
    "lng": -2.537246
  },
  {
    "id": "school-138183",
    "type": "school",
    "name": "Bellerive FCJ Catholic College",
    "address": "1 Aigburth Drive, Liverpool",
    "postcode": "L17 3AA",
    "lat": 53.386177,
    "lng": -2.946186
  },
  {
    "id": "school-138220",
    "type": "school",
    "name": "Tauheedul Islam Boys' High School",
    "address": "Sumner Street, Blackburn",
    "postcode": "BB2 2LD",
    "lat": 53.741983,
    "lng": -2.487523
  },
  {
    "id": "school-138233",
    "type": "school",
    "name": "Atherton High School",
    "address": "Hamilton Street, Atherton",
    "postcode": "M46 0AY",
    "lat": 53.52099,
    "lng": -2.491469
  },
  {
    "id": "school-138260",
    "type": "school",
    "name": "King's Leadership Academy Hawthornes",
    "address": "Fernhill Road, Bootle",
    "postcode": "L20 6AQ",
    "lat": 53.463025,
    "lng": -2.981503
  },
  {
    "id": "school-138318",
    "type": "school",
    "name": "Neston High School",
    "address": "Raby Park Road, Neston",
    "postcode": "CH64 9NH",
    "lat": 53.29657,
    "lng": -3.053718
  },
  {
    "id": "school-138355",
    "type": "school",
    "name": "Hilbre High School",
    "address": "Frankby Road, Wirral",
    "postcode": "CH48 6EQ",
    "lat": 53.375733,
    "lng": -3.159916
  },
  {
    "id": "school-138464",
    "type": "school",
    "name": "Loreto Grammar School",
    "address": "Dunham Road, Altrincham",
    "postcode": "WA14 4AH",
    "lat": 53.388002,
    "lng": -2.355831
  },
  {
    "id": "school-138483",
    "type": "school",
    "name": "Tarporley High School and Sixth Form College",
    "address": "Eaton Road, Tarporley",
    "postcode": "CW6 0BL",
    "lat": 53.153226,
    "lng": -2.663868
  },
  {
    "id": "school-138544",
    "type": "school",
    "name": "Albany Academy",
    "address": "Bolton Road, Chorley",
    "postcode": "PR7 3AY",
    "lat": 53.642849,
    "lng": -2.617858
  },
  {
    "id": "school-138562",
    "type": "school",
    "name": "King's Leadership Academy Warrington",
    "address": "Hillock Lane, Warrington",
    "postcode": "WA1 4PF",
    "lat": 53.402072,
    "lng": -2.538128
  },
  {
    "id": "school-138586",
    "type": "school",
    "name": "Nishkam High School",
    "address": "Great King Street North, Birmingham",
    "postcode": "B19 2LF",
    "lat": 52.495326,
    "lng": -1.905957
  },
  {
    "id": "school-138614",
    "type": "school",
    "name": "Altrincham College",
    "address": "Green Lane, Altrincham",
    "postcode": "WA15 8QW",
    "lat": 53.383772,
    "lng": -2.322656
  },
  {
    "id": "school-138647",
    "type": "school",
    "name": "Parklands High School",
    "address": "Southport Road, Chorley",
    "postcode": "PR7 1LL",
    "lat": 53.655727,
    "lng": -2.644317
  },
  {
    "id": "school-138662",
    "type": "school",
    "name": "Eaton Bank Academy",
    "address": "Jackson Road, Congleton",
    "postcode": "CW12 1NT",
    "lat": 53.175053,
    "lng": -2.200921
  },
  {
    "id": "school-138696",
    "type": "school",
    "name": "West Derby School",
    "address": "364 West Derby Rd, Liverpool",
    "postcode": "L13 7HQ",
    "lat": 53.425158,
    "lng": -2.921992
  },
  {
    "id": "school-138698",
    "type": "school",
    "name": "Beis Yaakov High School",
    "address": "69 Broom Lane, Salford",
    "postcode": "M7 4FF",
    "lat": 53.508871,
    "lng": -2.260299
  },
  {
    "id": "school-138699",
    "type": "school",
    "name": "The Byrchall High School",
    "address": "Warrington Road, Wigan",
    "postcode": "WN4 9PQ",
    "lat": 53.481132,
    "lng": -2.639287
  },
  {
    "id": "school-138732",
    "type": "school",
    "name": "Lymm High School",
    "address": "Oughtrington Lane, Lymm",
    "postcode": "WA13 0RB",
    "lat": 53.37897,
    "lng": -2.457944
  },
  {
    "id": "school-138743",
    "type": "school",
    "name": "The County High School, Leftwich",
    "address": "Granville Road, Northwich",
    "postcode": "CW9 8EZ",
    "lat": 53.24161,
    "lng": -2.505811
  },
  {
    "id": "school-138787",
    "type": "school",
    "name": "Childwall Sports & Science Academy",
    "address": "Queen's Drive, Liverpool",
    "postcode": "L15 6XZ",
    "lat": 53.398864,
    "lng": -2.898168
  },
  {
    "id": "school-138850",
    "type": "school",
    "name": "St Margaret's Church of England Academy",
    "address": "Aigburth Road, Liverpool",
    "postcode": "L17 6AB",
    "lat": 53.368413,
    "lng": -2.92777
  },
  {
    "id": "school-138853",
    "type": "school",
    "name": "Woodchurch High School",
    "address": "Carr Bridge Road, Wirral",
    "postcode": "CH49 7NG",
    "lat": 53.375283,
    "lng": -3.074497
  },
  {
    "id": "school-138936",
    "type": "school",
    "name": "The Wilnecote School",
    "address": "Tinkers Green Road, Tamworth",
    "postcode": "B77 5LF",
    "lat": 52.604873,
    "lng": -1.664017
  },
  {
    "id": "school-138948",
    "type": "school",
    "name": "Penwortham Priory Academy",
    "address": "Crow Hills Road, Preston",
    "postcode": "PR1 0JE",
    "lat": 53.749334,
    "lng": -2.740554
  },
  {
    "id": "school-139031",
    "type": "school",
    "name": "St John Plessington Catholic College",
    "address": "Old Chester Road, Wirral",
    "postcode": "CH63 7LF",
    "lat": 53.359008,
    "lng": -3.005711
  },
  {
    "id": "school-139130",
    "type": "school",
    "name": "Colne Primet Academy",
    "address": "Dent Street, Colne",
    "postcode": "BB8 8JF",
    "lat": 53.848872,
    "lng": -2.186697
  },
  {
    "id": "school-139139",
    "type": "school",
    "name": "All Hallows Catholic College",
    "address": "Brooklands Avenue, Macclesfield",
    "postcode": "SK11 8LB",
    "lat": 53.256157,
    "lng": -2.140002
  },
  {
    "id": "school-139144",
    "type": "school",
    "name": "Calday Grange Grammar School",
    "address": "Grammar School Lane, Wirral",
    "postcode": "CH48 8GG",
    "lat": 53.36734,
    "lng": -3.161312
  },
  {
    "id": "school-139148",
    "type": "school",
    "name": "Chorlton High School",
    "address": "Nell Lane, Manchester",
    "postcode": "M21 7SL",
    "lat": 53.436238,
    "lng": -2.263031
  },
  {
    "id": "school-139152",
    "type": "school",
    "name": "Great Sankey High School",
    "address": "Barrow Hall Lane, Warrington",
    "postcode": "WA5 3AA",
    "lat": 53.399908,
    "lng": -2.659549
  },
  {
    "id": "school-139196",
    "type": "school",
    "name": "Beamont Collegiate Academy",
    "address": "Long Lane, Warrington",
    "postcode": "WA2 8PX",
    "lat": 53.406899,
    "lng": -2.58597
  },
  {
    "id": "school-139290",
    "type": "school",
    "name": "Academy@Worden",
    "address": "Redwood Avenue, Leyland",
    "postcode": "PR25 1RN",
    "lat": 53.693292,
    "lng": -2.711322
  },
  {
    "id": "school-139294",
    "type": "school",
    "name": "Dixons Pennine Academy",
    "address": "Huddersfield Road, Stalybridge",
    "postcode": "SK15 3RR",
    "lat": 53.48636,
    "lng": -2.036867
  },
  {
    "id": "school-139343",
    "type": "school",
    "name": "The Catholic High School, Chester",
    "address": "Old Wrexham Road, Chester",
    "postcode": "CH4 7HS",
    "lat": 53.177382,
    "lng": -2.891246
  },
  {
    "id": "school-139368",
    "type": "school",
    "name": "Wade Deacon High School",
    "address": "Birchfield Road, Widnes",
    "postcode": "WA8 7TD",
    "lat": 53.374933,
    "lng": -2.733682
  },
  {
    "id": "school-139456",
    "type": "school",
    "name": "Saint Paul's Catholic High School",
    "address": "Firbank Road, Manchester",
    "postcode": "M23 2YS",
    "lat": 53.384345,
    "lng": -2.277176
  },
  {
    "id": "school-139588",
    "type": "school",
    "name": "Liverpool Life Sciences UTC",
    "address": "41 Greenland Street, Liverpool",
    "postcode": "L1 0BS",
    "lat": 53.39435,
    "lng": -2.977305
  },
  {
    "id": "school-139589",
    "type": "school",
    "name": "The Studio School Liverpool",
    "address": "41 Greenland Street, Liverpool",
    "postcode": "L1 0BS",
    "lat": 53.39435,
    "lng": -2.977305
  },
  {
    "id": "school-139675",
    "type": "school",
    "name": "Unity Academy Blackpool",
    "address": "Warbreck Hill Road, Blackpool",
    "postcode": "FY2 0TS",
    "lat": 53.835752,
    "lng": -3.03827
  },
  {
    "id": "school-139686",
    "type": "school",
    "name": "Liverpool College",
    "address": "Queen's Drive, Liverpool",
    "postcode": "L18 8BG",
    "lat": 53.381375,
    "lng": -2.922128
  },
  {
    "id": "school-139730",
    "type": "school",
    "name": "Connell Co-Op College",
    "address": "301 Alan Turing Way, Manchester",
    "postcode": "M11 3BS",
    "lat": 53.478266,
    "lng": -2.19126
  },
  {
    "id": "school-139735",
    "type": "school",
    "name": "All Saints Catholic College",
    "address": "Birch Lane, Dukinfield",
    "postcode": "SK16 5AP",
    "lat": 53.47168,
    "lng": -2.074853
  },
  {
    "id": "school-139764",
    "type": "school",
    "name": "St Thomas More Catholic High School",
    "address": "Dane Bank Avenue, Crewe",
    "postcode": "CW2 8AE",
    "lat": 53.087295,
    "lng": -2.459217
  },
  {
    "id": "school-139840",
    "type": "school",
    "name": "Birchwood Community High School",
    "address": "Brock Road, Warrington",
    "postcode": "WA3 7PT",
    "lat": 53.416509,
    "lng": -2.528093
  },
  {
    "id": "school-139924",
    "type": "school",
    "name": "Darwen Aldridge Enterprise Studio",
    "address": "Police Street, Darwen",
    "postcode": "BB3 1AF",
    "lat": 53.696165,
    "lng": -2.469378
  },
  {
    "id": "school-139953",
    "type": "school",
    "name": "Sir William Stanier School",
    "address": "Coronation Street, Crewe",
    "postcode": "CW1 4EB",
    "lat": 53.104872,
    "lng": -2.430125
  },
  {
    "id": "school-140001",
    "type": "school",
    "name": "Kirkby High School",
    "address": "Bracknell Avenue, Liverpool",
    "postcode": "L32 9PP",
    "lat": 53.472893,
    "lng": -2.888927
  },
  {
    "id": "school-140055",
    "type": "school",
    "name": "Wardle Academy",
    "address": "Birch Road, Rochdale",
    "postcode": "OL12 9RD",
    "lat": 53.641752,
    "lng": -2.126269
  },
  {
    "id": "school-140091",
    "type": "school",
    "name": "Hollingworth Academy",
    "address": "Cornfield Street, Rochdale",
    "postcode": "OL16 3DR",
    "lat": 53.608543,
    "lng": -2.101139
  },
  {
    "id": "school-140154",
    "type": "school",
    "name": "Madeley High School",
    "address": "Newcastle Road, Crewe",
    "postcode": "CW3 9JJ",
    "lat": 53.000759,
    "lng": -2.337304
  },
  {
    "id": "school-140500",
    "type": "school",
    "name": "Smithills School",
    "address": "Smithills Dean Road, Bolton",
    "postcode": "BL1 6JS",
    "lat": 53.598601,
    "lng": -2.453667
  },
  {
    "id": "school-140600",
    "type": "school",
    "name": "Energy Coast UTC",
    "address": "Blackwood Road, Workington",
    "postcode": "CA14 4JW",
    "lat": 54.615777,
    "lng": -3.519027
  },
  {
    "id": "school-140759",
    "type": "school",
    "name": "St George's School A Church of England Academy",
    "address": "Cherry Tree Road, Blackpool",
    "postcode": "FY4 4PH",
    "lat": 53.79766,
    "lng": -3.013519
  },
  {
    "id": "school-140791",
    "type": "school",
    "name": "Tytherington School",
    "address": "Manchester Road, Macclesfield",
    "postcode": "SK10 2EE",
    "lat": 53.26929,
    "lng": -2.125574
  },
  {
    "id": "school-140813",
    "type": "school",
    "name": "Cheshire Studio School",
    "address": "West Street, Crewe",
    "postcode": "CW1 2PZ",
    "lat": 53.100805,
    "lng": -2.440974
  },
  {
    "id": "school-140864",
    "type": "school",
    "name": "Ormiston Chadwick Academy",
    "address": "Liverpool Road, Widnes",
    "postcode": "WA8 7HU",
    "lat": 53.371859,
    "lng": -2.758042
  },
  {
    "id": "school-140879",
    "type": "school",
    "name": "Witton Park Academy",
    "address": "Buncer Lane, Blackburn",
    "postcode": "BB2 6TD",
    "lat": 53.74181,
    "lng": -2.509448
  },
  {
    "id": "school-140959",
    "type": "school",
    "name": "Eden Boys' School, Bolton",
    "address": "Wolfenden Street, Bolton",
    "postcode": "BL1 3QE",
    "lat": 53.592532,
    "lng": -2.434639
  },
  {
    "id": "school-141028",
    "type": "school",
    "name": "Burnley High School",
    "address": "Byron Street, Burnley",
    "postcode": "BB12 6NX",
    "lat": 53.795232,
    "lng": -2.291812
  },
  {
    "id": "school-141041",
    "type": "school",
    "name": "Walney School",
    "address": "Sandy Gap Lane, Barrow-in-Furness",
    "postcode": "LA14 3JT",
    "lat": 54.104607,
    "lng": -3.257213
  },
  {
    "id": "school-141063",
    "type": "school",
    "name": "St Augustine's Catholic High School",
    "address": "Stonepits Lane, Redditch",
    "postcode": "B97 5LX",
    "lat": 52.27486,
    "lng": -1.942746
  },
  {
    "id": "school-141103",
    "type": "school",
    "name": "LIPA School",
    "address": "Upper Duke Street, Liverpool",
    "postcode": "L1 7BT",
    "lat": 53.398875,
    "lng": -2.973528
  },
  {
    "id": "school-141106",
    "type": "school",
    "name": "Chetwynde School",
    "address": "Rating Lane, Barrow-in-Furness",
    "postcode": "LA13 0NY",
    "lat": 54.131843,
    "lng": -3.202796
  },
  {
    "id": "school-141132",
    "type": "school",
    "name": "Blackpool Aspire Academy",
    "address": "Blackpool Old Road, Blackpool",
    "postcode": "FY3 7LS",
    "lat": 53.836796,
    "lng": -3.013932
  },
  {
    "id": "school-141165",
    "type": "school",
    "name": "Queen Elizabeth's Grammar School",
    "address": "West Park Road, Blackburn",
    "postcode": "BB2 6DF",
    "lat": 53.753172,
    "lng": -2.494539
  },
  {
    "id": "school-141196",
    "type": "school",
    "name": "Levenshulme High School",
    "address": "Crossley Road, Manchester",
    "postcode": "M19 1FS",
    "lat": 53.437224,
    "lng": -2.194056
  },
  {
    "id": "school-141248",
    "type": "school",
    "name": "North Chadderton School",
    "address": "Chadderton Hall Road, Oldham",
    "postcode": "OL9 0BN",
    "lat": 53.555157,
    "lng": -2.150257
  },
  {
    "id": "school-141257",
    "type": "school",
    "name": "St Mary's Catholic Academy",
    "address": "St Walburga's Road, Blackpool",
    "postcode": "FY3 7EQ",
    "lat": 53.82667,
    "lng": -3.019674
  },
  {
    "id": "school-141264",
    "type": "school",
    "name": "Whalley Range 11-18 High School",
    "address": "Wilbraham Road, Manchester",
    "postcode": "M16 8GW",
    "lat": 53.442487,
    "lng": -2.245574
  },
  {
    "id": "school-141321",
    "type": "school",
    "name": "Darwen Vale High School",
    "address": "Blackburn Road, Darwen",
    "postcode": "BB3 0AL",
    "lat": 53.71495,
    "lng": -2.467753
  },
  {
    "id": "school-141499",
    "type": "school",
    "name": "Workington Academy",
    "address": "Stainburn Road, Workington",
    "postcode": "CA14 4EB",
    "lat": 54.641588,
    "lng": -3.531551
  },
  {
    "id": "school-141565",
    "type": "school",
    "name": "Tauheedul Islam Girls' High School",
    "address": "Preston New Road, Blackburn",
    "postcode": "BB2 7AD",
    "lat": 53.7539,
    "lng": -2.511733
  },
  {
    "id": "school-141598",
    "type": "school",
    "name": "Bridgewater High School",
    "address": "Broomfields Road, Warrington",
    "postcode": "WA4 3AE",
    "lat": 53.362477,
    "lng": -2.573713
  },
  {
    "id": "school-141941",
    "type": "school",
    "name": "University Collegiate School",
    "address": "85 Deane Road, Bolton",
    "postcode": "BL3 5AG",
    "lat": 53.573155,
    "lng": -2.438382
  },
  {
    "id": "school-141971",
    "type": "school",
    "name": "Eden Boys' School, Preston",
    "address": "Adelaide Street, Preston",
    "postcode": "PR1 4BD",
    "lat": 53.759598,
    "lng": -2.683391
  },
  {
    "id": "school-142042",
    "type": "school",
    "name": "St Philip Howard Catholic Voluntary Academy",
    "address": "Sunlaws Street, Glossop",
    "postcode": "SK13 8DR",
    "lat": 53.441662,
    "lng": -1.955704
  },
  {
    "id": "school-142073",
    "type": "school",
    "name": "Irlam and Cadishead Academy",
    "address": "Station Road, Manchester",
    "postcode": "M44 5ZR",
    "lat": 53.436243,
    "lng": -2.431492
  },
  {
    "id": "school-142088",
    "type": "school",
    "name": "Pleckgate High School",
    "address": "Pleckgate Road, Blackburn",
    "postcode": "BB1 8QA",
    "lat": 53.767685,
    "lng": -2.48688
  },
  {
    "id": "school-142232",
    "type": "school",
    "name": "Sharples School",
    "address": "Hill Cot Road, Bolton",
    "postcode": "BL1 8SN",
    "lat": 53.607003,
    "lng": -2.422801
  },
  {
    "id": "school-142237",
    "type": "school",
    "name": "Shavington Academy",
    "address": "Rope Lane, Shavington",
    "postcode": "CW2 5DH",
    "lat": 53.067213,
    "lng": -2.456451
  },
  {
    "id": "school-142296",
    "type": "school",
    "name": "Little Lever School",
    "address": "Church Street, Bolton",
    "postcode": "BL3 1BT",
    "lat": 53.561625,
    "lng": -2.382457
  },
  {
    "id": "school-142306",
    "type": "school",
    "name": "Cockermouth School",
    "address": "Castlegate Drive, Cockermouth",
    "postcode": "CA13 9HF",
    "lat": 54.667095,
    "lng": -3.349706
  },
  {
    "id": "school-142340",
    "type": "school",
    "name": "Bolton Muslim Girls School",
    "address": "Swan Lane, Bolton",
    "postcode": "BL3 6TQ",
    "lat": 53.565933,
    "lng": -2.43953
  },
  {
    "id": "school-142469",
    "type": "school",
    "name": "Highfield Leadership Academy",
    "address": "Highfield Road, Blackpool",
    "postcode": "FY4 3JZ",
    "lat": 53.787658,
    "lng": -3.027837
  },
  {
    "id": "school-142509",
    "type": "school",
    "name": "The Kingsway School",
    "address": "Foxland Road, Cheadle",
    "postcode": "SK8 4QX",
    "lat": 53.38672,
    "lng": -2.225194
  },
  {
    "id": "school-142543",
    "type": "school",
    "name": "Church Hill Middle School",
    "address": "Wood Piece Lane, Redditch",
    "postcode": "B98 9LR",
    "lat": 52.316849,
    "lng": -1.90211
  },
  {
    "id": "school-142762",
    "type": "school",
    "name": "Co-op Academy North Manchester",
    "address": "300 Victoria Avenue East, Manchester",
    "postcode": "M9 7SS",
    "lat": 53.526394,
    "lng": -2.186739
  },
  {
    "id": "school-142856",
    "type": "school",
    "name": "West Craven High School",
    "address": "Kelbrook Road, Barnoldswick",
    "postcode": "BB18 5TB",
    "lat": 53.912247,
    "lng": -2.178667
  },
  {
    "id": "school-142890",
    "type": "school",
    "name": "Crewe Engineering and Design UTC",
    "address": "West Street, Crewe",
    "postcode": "CW1 2PZ",
    "lat": 53.100578,
    "lng": -2.441449
  },
  {
    "id": "school-142899",
    "type": "school",
    "name": "UTC Warrington",
    "address": "Dallam Lane, Warrington",
    "postcode": "WA2 7NG",
    "lat": 53.392359,
    "lng": -2.593997
  },
  {
    "id": "school-143104",
    "type": "school",
    "name": "North Cestrian School",
    "address": "Dunham Road, Altrincham",
    "postcode": "WA14 4AJ",
    "lat": 53.38797,
    "lng": -2.354507
  },
  {
    "id": "school-143260",
    "type": "school",
    "name": "Parrs Wood High School",
    "address": "Wilmslow Road, Manchester",
    "postcode": "M20 5PG",
    "lat": 53.407201,
    "lng": -2.218682
  },
  {
    "id": "school-143319",
    "type": "school",
    "name": "Dixons Middleton Academy",
    "address": "Kenyon Lane, Manchester",
    "postcode": "M24 2GT",
    "lat": 53.547432,
    "lng": -2.178998
  },
  {
    "id": "school-143554",
    "type": "school",
    "name": "St Mary's Catholic College, A Voluntary Academy",
    "address": "Wallasey Village, Wallasey",
    "postcode": "CH45 3LN",
    "lat": 53.42355,
    "lng": -3.063508
  },
  {
    "id": "school-143749",
    "type": "school",
    "name": "Queen Elizabeth Studio School",
    "address": "Kirkby Lonsdale",
    "postcode": "LA6 2HJ",
    "lat": 54.201557,
    "lng": -2.602415
  },
  {
    "id": "school-143772",
    "type": "school",
    "name": "Harper Green School",
    "address": "Harper Green Road, Bolton",
    "postcode": "BL4 0DH",
    "lat": 53.55024,
    "lng": -2.410914
  },
  {
    "id": "school-143773",
    "type": "school",
    "name": "Rivington and Blackrod High School",
    "address": "Rivington Lane, Bolton",
    "postcode": "BL6 7RU",
    "lat": 53.610101,
    "lng": -2.547768
  },
  {
    "id": "school-143794",
    "type": "school",
    "name": "Southlands High School",
    "address": "Clover Road, Chorley",
    "postcode": "PR7 2NJ",
    "lat": 53.641287,
    "lng": -2.64806
  },
  {
    "id": "school-143812",
    "type": "school",
    "name": "Standish Community High School",
    "address": "Kenyon Road, Wigan",
    "postcode": "WN6 0NX",
    "lat": 53.590577,
    "lng": -2.672592
  },
  {
    "id": "school-143817",
    "type": "school",
    "name": "Queen's Park High School",
    "address": "Queens Park Road, Chester",
    "postcode": "CH4 7AE",
    "lat": 53.184121,
    "lng": -2.884426
  },
  {
    "id": "school-143848",
    "type": "school",
    "name": "Unsworth Academy",
    "address": "Parr Lane, Bury",
    "postcode": "BL9 8LP",
    "lat": 53.561742,
    "lng": -2.270528
  },
  {
    "id": "school-144044",
    "type": "school",
    "name": "Canon Slade School",
    "address": "Bradshaw Brow, Bolton",
    "postcode": "BL2 3BP",
    "lat": 53.601895,
    "lng": -2.407682
  },
  {
    "id": "school-144046",
    "type": "school",
    "name": "St James's Church of England High School",
    "address": "Lucas Road, Bolton",
    "postcode": "BL4 9RU",
    "lat": 53.545115,
    "lng": -2.416524
  },
  {
    "id": "school-144199",
    "type": "school",
    "name": "Moorside High School",
    "address": "57 Deans Road, Manchester",
    "postcode": "M27 0AP",
    "lat": 53.507818,
    "lng": -2.345629
  },
  {
    "id": "school-144200",
    "type": "school",
    "name": "Ellesmere Park High School",
    "address": "Wentworth Road, Manchester",
    "postcode": "M30 9BP",
    "lat": 53.492438,
    "lng": -2.332812
  },
  {
    "id": "school-144327",
    "type": "school",
    "name": "Rainford High School",
    "address": "Higher Lane, St Helens",
    "postcode": "WA11 8NY",
    "lat": 53.508064,
    "lng": -2.781703
  },
  {
    "id": "school-144356",
    "type": "school",
    "name": "The Hyndburn Academy",
    "address": "Stourton Street, Blackburn",
    "postcode": "BB1 4ED",
    "lat": 53.771064,
    "lng": -2.418105
  },
  {
    "id": "school-144463",
    "type": "school",
    "name": "Rochdale Sixth Form College",
    "address": "College Road, Rochdale",
    "postcode": "OL12 6HY",
    "lat": 53.616843,
    "lng": -2.163069
  },
  {
    "id": "school-144494",
    "type": "school",
    "name": "The East Manchester Academy",
    "address": "60 Grey Mare Lane, Manchester",
    "postcode": "M11 3DS",
    "lat": 53.477417,
    "lng": -2.193607
  },
  {
    "id": "school-144508",
    "type": "school",
    "name": "Waterhead Academy",
    "address": "Huddersfield Road, Oldham",
    "postcode": "OL4 3NY",
    "lat": 53.55036,
    "lng": -2.06918
  },
  {
    "id": "school-144519",
    "type": "school",
    "name": "Dean Trust Wigan",
    "address": "Wigan",
    "postcode": "WN5 0DQ",
    "lat": 53.540386,
    "lng": -2.687356
  },
  {
    "id": "school-144617",
    "type": "school",
    "name": "The Grange School",
    "address": "Latham Avenue, Runcorn",
    "postcode": "WA7 5DX",
    "lat": 53.334458,
    "lng": -2.713268
  },
  {
    "id": "school-144618",
    "type": "school",
    "name": "Stanley High School",
    "address": "Fleetwood Road, Southport",
    "postcode": "PR9 9TF",
    "lat": 53.669296,
    "lng": -2.973711
  },
  {
    "id": "school-144627",
    "type": "school",
    "name": "Co-op Academy Failsworth",
    "address": "Brierley Avenue, Manchester",
    "postcode": "M35 9HA",
    "lat": 53.506494,
    "lng": -2.145531
  },
  {
    "id": "school-144646",
    "type": "school",
    "name": "Bay Leadership Academy",
    "address": "Osborne Road, Morecambe",
    "postcode": "LA3 1AB",
    "lat": 54.059725,
    "lng": -2.877116
  },
  {
    "id": "school-144742",
    "type": "school",
    "name": "Chester International School",
    "address": "Queens Park Campus, Queens Park Road, Chester",
    "postcode": "CH4 7AE",
    "lat": 53.185639,
    "lng": -2.883499
  },
  {
    "id": "school-144744",
    "type": "school",
    "name": "Eden Boys' Leadership Academy, Manchester",
    "address": "38 Rayburn Way, Manchester",
    "postcode": "M8 8DT",
    "lat": 53.496447,
    "lng": -2.229875
  },
  {
    "id": "school-144745",
    "type": "school",
    "name": "Eden Girls' Leadership Academy, Manchester",
    "address": "40 Rayburn Way, Manchester",
    "postcode": "M8 8DT",
    "lat": 53.498111,
    "lng": -2.22904
  },
  {
    "id": "school-144755",
    "type": "school",
    "name": "Manchester Enterprise Academy Central",
    "address": "Lytham Road, Manchester",
    "postcode": "M14 6PL",
    "lat": 53.445912,
    "lng": -2.202468
  },
  {
    "id": "school-144782",
    "type": "school",
    "name": "Priestley College",
    "address": "Loushers Lane, Warrington",
    "postcode": "WA4 6RD",
    "lat": 53.379333,
    "lng": -2.582975
  },
  {
    "id": "school-144799",
    "type": "school",
    "name": "Sir Thomas Boteler Church of England High School",
    "address": "Grammar School Road, Warrington",
    "postcode": "WA4 1JL",
    "lat": 53.379431,
    "lng": -2.564439
  },
  {
    "id": "school-144829",
    "type": "school",
    "name": "Birkenhead Sixth Form College",
    "address": "Park Road West, Wirral",
    "postcode": "CH43 8SQ",
    "lat": 53.394682,
    "lng": -3.053418
  },
  {
    "id": "school-145002",
    "type": "school",
    "name": "Oldham Sixth Form College",
    "address": "Union Street West, Oldham",
    "postcode": "OL8 1XU",
    "lat": 53.538411,
    "lng": -2.117194
  },
  {
    "id": "school-145019",
    "type": "school",
    "name": "Kingsbury School - A Specialist Science and Mathematics Academy",
    "address": "Tamworth Road, Kingsbury",
    "postcode": "B78 2LF",
    "lat": 52.565955,
    "lng": -1.681755
  },
  {
    "id": "school-145082",
    "type": "school",
    "name": "Carnforth High School",
    "address": "Kellet Road, Carnforth",
    "postcode": "LA5 9LS",
    "lat": 54.125794,
    "lng": -2.759386
  },
  {
    "id": "school-145120",
    "type": "school",
    "name": "Lordswood Boys' School",
    "address": "Hagley Road, Birmingham",
    "postcode": "B17 8BJ",
    "lat": 52.471667,
    "lng": -1.963619
  },
  {
    "id": "school-145133",
    "type": "school",
    "name": "Reddish Vale High School",
    "address": "Reddish Vale Road, Stockport",
    "postcode": "SK5 7HD",
    "lat": 53.436971,
    "lng": -2.151932
  },
  {
    "id": "school-145157",
    "type": "school",
    "name": "Penketh High School",
    "address": "Heath Road, Warrington",
    "postcode": "WA5 2BY",
    "lat": 53.38788,
    "lng": -2.64631
  },
  {
    "id": "school-145314",
    "type": "school",
    "name": "Bolton St Catherine's Academy",
    "address": "Stitch MI Lane, Bolton",
    "postcode": "BL2 4HU",
    "lat": 53.592236,
    "lng": -2.387538
  },
  {
    "id": "school-145723",
    "type": "school",
    "name": "Oasis Academy Leesbrook",
    "address": "Roxbury Avenue, Oldham",
    "postcode": "OL4 5JE",
    "lat": 53.534683,
    "lng": -2.081407
  },
  {
    "id": "school-145748",
    "type": "school",
    "name": "Sir John Deane's Sixth Form College",
    "address": "Monarch Drive, Northwich",
    "postcode": "CW9 8AF",
    "lat": 53.250539,
    "lng": -2.513801
  },
  {
    "id": "school-145863",
    "type": "school",
    "name": "Armfield Academy",
    "address": "488 Lytham Road, Blackpool",
    "postcode": "FY4 1TL",
    "lat": 53.789206,
    "lng": -3.046426
  },
  {
    "id": "school-145873",
    "type": "school",
    "name": "CHS South",
    "address": "451 Mauldeth Road West, Manchester",
    "postcode": "M21 7SX",
    "lat": 53.436843,
    "lng": -2.257886
  },
  {
    "id": "school-145893",
    "type": "school",
    "name": "Laurus Cheadle Hulme",
    "address": "Cheadle Road, Cheadle",
    "postcode": "SK8 5GB",
    "lat": 53.380863,
    "lng": -2.202686
  },
  {
    "id": "school-146087",
    "type": "school",
    "name": "The Westleigh School",
    "address": "Westleigh Lane, Leigh",
    "postcode": "WN7 5NL",
    "lat": 53.514202,
    "lng": -2.527573
  },
  {
    "id": "school-146128",
    "type": "school",
    "name": "St Thomas More Catholic Voluntary Academy",
    "address": "Palace Fields, Buxton",
    "postcode": "SK17 6AF",
    "lat": 53.26223,
    "lng": -1.912244
  },
  {
    "id": "school-146228",
    "type": "school",
    "name": "Colne Park High School",
    "address": "Venables Avenue, Colne",
    "postcode": "BB8 7DP",
    "lat": 53.86375,
    "lng": -2.154113
  },
  {
    "id": "school-146239",
    "type": "school",
    "name": "Wright Robinson College",
    "address": "Abbey Hey Lane, Manchester",
    "postcode": "M18 8RL",
    "lat": 53.466259,
    "lng": -2.151238
  },
  {
    "id": "school-146276",
    "type": "school",
    "name": "Marsden Heights Community College",
    "address": "Edge End Lane, Nelson",
    "postcode": "BB9 0PR",
    "lat": 53.826907,
    "lng": -2.22144
  },
  {
    "id": "school-146282",
    "type": "school",
    "name": "Burscough Priory Academy",
    "address": "Trevor Road, Ormskirk",
    "postcode": "L40 7RZ",
    "lat": 53.600869,
    "lng": -2.844352
  },
  {
    "id": "school-146303",
    "type": "school",
    "name": "AldridgeUTC@MediaCityUK",
    "address": "100- 102 Broadway, Salford",
    "postcode": "M50 2UW",
    "lat": 53.475124,
    "lng": -2.294975
  },
  {
    "id": "school-146315",
    "type": "school",
    "name": "Co-op Academy Bebington",
    "address": "Higher Bebington Road, Wirral",
    "postcode": "CH63 2PS",
    "lat": 53.352675,
    "lng": -3.013555
  },
  {
    "id": "school-146316",
    "type": "school",
    "name": "E-ACT Royton and Crompton Academy",
    "address": "Blackshaw Lane, Oldham",
    "postcode": "OL2 6NT",
    "lat": 53.567839,
    "lng": -2.101751
  },
  {
    "id": "school-146387",
    "type": "school",
    "name": "Poynton High School",
    "address": "Yew Tree Lane, Stockport",
    "postcode": "SK12 1PU",
    "lat": 53.343704,
    "lng": -2.110185
  },
  {
    "id": "school-146404",
    "type": "school",
    "name": "Co-op Academy Walkden",
    "address": "Old Clough Lane, Manchester",
    "postcode": "M28 7JB",
    "lat": 53.513697,
    "lng": -2.384046
  },
  {
    "id": "school-146529",
    "type": "school",
    "name": "Tottington High School",
    "address": "Laurel Street, Bury",
    "postcode": "BL8 3LY",
    "lat": 53.611854,
    "lng": -2.335866
  },
  {
    "id": "school-146634",
    "type": "school",
    "name": "The Whitehaven Academy",
    "address": "Cleator Moor Road, Whitehaven",
    "postcode": "CA28 8TY",
    "lat": 54.538901,
    "lng": -3.556086
  },
  {
    "id": "school-146742",
    "type": "school",
    "name": "Ellesmere Port Church of England College",
    "address": "164 Whitby Road, Ellesmere Port",
    "postcode": "CH65 6EA",
    "lat": 53.276993,
    "lng": -2.905541
  },
  {
    "id": "school-146765",
    "type": "school",
    "name": "Padgate Academy",
    "address": "Insall Road, Warrington",
    "postcode": "WA2 0LN",
    "lat": 53.410319,
    "lng": -2.558995
  },
  {
    "id": "school-146793",
    "type": "school",
    "name": "The Albion Academy",
    "address": "1 London Street, Salford",
    "postcode": "M6 6QT",
    "lat": 53.494696,
    "lng": -2.275589
  },
  {
    "id": "school-146797",
    "type": "school",
    "name": "Dean Trust Rose Bridge",
    "address": "Holt Street, Wigan",
    "postcode": "WN1 3HD",
    "lat": 53.546231,
    "lng": -2.609114
  },
  {
    "id": "school-146816",
    "type": "school",
    "name": "Ashton Sixth Form College",
    "address": "Darnton Road, Ashton-Under-Lyne",
    "postcode": "OL6 9RL",
    "lat": 53.491817,
    "lng": -2.074044
  },
  {
    "id": "school-146936",
    "type": "school",
    "name": "Blackburn Central High School",
    "address": "Haslingden Road, Blackburn",
    "postcode": "BB2 3HJ",
    "lat": 53.738444,
    "lng": -2.468696
  },
  {
    "id": "school-146970",
    "type": "school",
    "name": "Hazel Wood High School",
    "address": "Hazel Avenue, Bury",
    "postcode": "BL9 7QT",
    "lat": 53.593343,
    "lng": -2.272846
  },
  {
    "id": "school-147018",
    "type": "school",
    "name": "The Valley Leadership Academy",
    "address": "Fearns Moss, Bacup",
    "postcode": "OL13 0TG",
    "lat": 53.695257,
    "lng": -2.238076
  },
  {
    "id": "school-147077",
    "type": "school",
    "name": "King's Leadership Academy Bolton",
    "address": "Freshfield Avenue, Bolton",
    "postcode": "BL3 3HL",
    "lat": 53.555077,
    "lng": -2.438512
  },
  {
    "id": "school-147115",
    "type": "school",
    "name": "Morecambe Bay Academy",
    "address": "Dallam Avenue, Morecambe",
    "postcode": "LA4 5BG",
    "lat": 54.07529,
    "lng": -2.848907
  },
  {
    "id": "school-147157",
    "type": "school",
    "name": "Glossopdale School and Sixth Form",
    "address": "Newshaw Lane, Glossop",
    "postcode": "SK13 2DA",
    "lat": 53.456256,
    "lng": -1.969305
  },
  {
    "id": "school-147182",
    "type": "school",
    "name": "West Bromwich Collegiate Academy",
    "address": "Kelvin Way, West Bromwich",
    "postcode": "B70 7LE",
    "lat": 52.509102,
    "lng": -2.001665
  },
  {
    "id": "school-147260",
    "type": "school",
    "name": "Lancaster High School",
    "address": "Crag Road, Lancaster",
    "postcode": "LA1 3LS",
    "lat": 54.054199,
    "lng": -2.781668
  },
  {
    "id": "school-147369",
    "type": "school",
    "name": "Matthew Moss High School",
    "address": "Matthew Moss Lane, Rochdale",
    "postcode": "OL11 3LU",
    "lat": 53.601498,
    "lng": -2.187841
  },
  {
    "id": "school-147565",
    "type": "school",
    "name": "All Saints' Roman Catholic High School, a Voluntary Academy",
    "address": "Haslingden Road, Rossendale",
    "postcode": "BB4 6SJ",
    "lat": 53.697163,
    "lng": -2.305326
  },
  {
    "id": "school-147581",
    "type": "school",
    "name": "Blessed Trinity Roman Catholic College, A Voluntary Academy",
    "address": "Ormerod Road, Burnley",
    "postcode": "BB10 3AA",
    "lat": 53.793672,
    "lng": -2.227444
  },
  {
    "id": "school-147654",
    "type": "school",
    "name": "The Oaks Academy",
    "address": "Buchan Grove, Crewe",
    "postcode": "CW2 7NQ",
    "lat": 53.09122,
    "lng": -2.455556
  },
  {
    "id": "school-147683",
    "type": "school",
    "name": "Sandymoor Ormiston Academy",
    "address": "Sandymoor Ormiston Academy, Runcorn",
    "postcode": "WA7 1QU",
    "lat": 53.343243,
    "lng": -2.653431
  },
  {
    "id": "school-147757",
    "type": "school",
    "name": "Starbank School",
    "address": "Hob Moor Road, Birmingham",
    "postcode": "B10 9BT",
    "lat": 52.471404,
    "lng": -1.834984
  },
  {
    "id": "school-147875",
    "type": "school",
    "name": "Newhouse Academy",
    "address": "Newhouse Road, Heywood",
    "postcode": "OL10 2NT",
    "lat": 53.582008,
    "lng": -2.215611
  },
  {
    "id": "school-147883",
    "type": "school",
    "name": "The Heys School",
    "address": "Heys Road, Manchester",
    "postcode": "M25 1JZ",
    "lat": 53.534617,
    "lng": -2.276316
  },
  {
    "id": "school-147942",
    "type": "school",
    "name": "St Anne's RC Voluntary Academy",
    "address": "Glenfield Road, Stockport",
    "postcode": "SK4 2QP",
    "lat": 53.420865,
    "lng": -2.169437
  },
  {
    "id": "school-148026",
    "type": "school",
    "name": "St Antony's Roman Catholic School, a Voluntary Academy",
    "address": "Bradfield Road, Manchester",
    "postcode": "M41 9PD",
    "lat": 53.449126,
    "lng": -2.335937
  },
  {
    "id": "school-148049",
    "type": "school",
    "name": "St Gabriel's RC High School, a Voluntary Academy",
    "address": "Bridge Road, Bury",
    "postcode": "BL9 0TZ",
    "lat": 53.58878,
    "lng": -2.305058
  },
  {
    "id": "school-148050",
    "type": "school",
    "name": "St Monica's RC High School, a Voluntary Academy",
    "address": "Bury Old Road, Manchester",
    "postcode": "M25 1JH",
    "lat": 53.526371,
    "lng": -2.265355
  },
  {
    "id": "school-148097",
    "type": "school",
    "name": "Woodhey High School",
    "address": "Bolton Road West, Bury",
    "postcode": "BL0 9QZ",
    "lat": 53.634256,
    "lng": -2.328951
  },
  {
    "id": "school-148254",
    "type": "school",
    "name": "Ormskirk School",
    "address": "Wigan Road, Ormskirk",
    "postcode": "L39 2AT",
    "lat": 53.566202,
    "lng": -2.86503
  },
  {
    "id": "school-148327",
    "type": "school",
    "name": "Werneth School",
    "address": "Harrytown, Stockport",
    "postcode": "SK6 3BX",
    "lat": 53.412489,
    "lng": -2.104931
  },
  {
    "id": "school-148393",
    "type": "school",
    "name": "The Lowry Academy",
    "address": "Hilton Lane, Manchester",
    "postcode": "M28 0SY",
    "lat": 53.52184,
    "lng": -2.409055
  },
  {
    "id": "school-148430",
    "type": "school",
    "name": "Rayner Stephens High School",
    "address": "Yew Tree Lane, Dukinfield",
    "postcode": "SK16 5BL",
    "lat": 53.469148,
    "lng": -2.069756
  },
  {
    "id": "school-148431",
    "type": "school",
    "name": "Longdendale High School",
    "address": "Spring Street, Hyde",
    "postcode": "SK14 8LW",
    "lat": 53.463559,
    "lng": -1.997258
  },
  {
    "id": "school-148521",
    "type": "school",
    "name": "Turves Green Boys' School",
    "address": "Turves Green, Birmingham",
    "postcode": "B31 4BS",
    "lat": 52.398247,
    "lng": -1.968912
  },
  {
    "id": "school-148522",
    "type": "school",
    "name": "Outwood Academy Haydock",
    "address": "Clipsley Lane, St. Helens",
    "postcode": "WA11 0JG",
    "lat": 53.465815,
    "lng": -2.676569
  },
  {
    "id": "school-148526",
    "type": "school",
    "name": "Outwood Academy Hindley",
    "address": "Mornington Road, Wigan",
    "postcode": "WN2 4LG",
    "lat": 53.531997,
    "lng": -2.562015
  },
  {
    "id": "school-148534",
    "type": "school",
    "name": "Saint Edmund Arrowsmith Catholic Academy",
    "address": "Cumber Lane, Prescot",
    "postcode": "L35 2XG",
    "lat": 53.416303,
    "lng": -2.78205
  },
  {
    "id": "school-148544",
    "type": "school",
    "name": "Co-op Academy Belle Vue",
    "address": "450 Hyde Road, Manchester",
    "postcode": "M12 4BA",
    "lat": 53.463036,
    "lng": -2.186657
  },
  {
    "id": "school-148596",
    "type": "school",
    "name": "Edgar Wood Academy",
    "address": "Heywood Old Road, Heywood",
    "postcode": "OL10 2QN",
    "lat": 53.562273,
    "lng": -2.222169
  },
  {
    "id": "school-148684",
    "type": "school",
    "name": "King Edward VI Northfield School for Girls",
    "address": "Turves Green, Birmingham",
    "postcode": "B31 4BP",
    "lat": 52.401151,
    "lng": -1.966896
  },
  {
    "id": "school-148688",
    "type": "school",
    "name": "Mossley Hollins High School",
    "address": "Huddersfield Road, Ashton-under-Lyne",
    "postcode": "OL5 9DP",
    "lat": 53.519489,
    "lng": -2.026563
  },
  {
    "id": "school-148693",
    "type": "school",
    "name": "Middlewich High School",
    "address": "King Edward Street, Middlewich",
    "postcode": "CW10 9BU",
    "lat": 53.190127,
    "lng": -2.446515
  },
  {
    "id": "school-148702",
    "type": "school",
    "name": "St Bernards Catholic High School, Barrow",
    "address": "Rating Lane, Barrow-in-Furness",
    "postcode": "LA13 9LE",
    "lat": 54.129447,
    "lng": -3.198854
  },
  {
    "id": "school-148703",
    "type": "school",
    "name": "St Josephs Catholic High School, Workington",
    "address": "Harrington Road, Workington",
    "postcode": "CA14 3EE",
    "lat": 54.639581,
    "lng": -3.543099
  },
  {
    "id": "school-148790",
    "type": "school",
    "name": "Kingsway Park High School",
    "address": "Turf Hill Road, Rochdale",
    "postcode": "OL16 4XA",
    "lat": 53.603689,
    "lng": -2.137129
  },
  {
    "id": "school-148847",
    "type": "school",
    "name": "Oulder Hill Leadership Academy",
    "address": "Hudsons Walk, Rochdale",
    "postcode": "OL11 5EF",
    "lat": 53.617251,
    "lng": -2.185855
  },
  {
    "id": "school-148866",
    "type": "school",
    "name": "Bury Church of England High School",
    "address": "Haslam Brow, Bury",
    "postcode": "BL9 0TS",
    "lat": 53.585524,
    "lng": -2.302104
  },
  {
    "id": "school-148921",
    "type": "school",
    "name": "Rhyddings",
    "address": "Haworth Street, Accrington",
    "postcode": "BB5 3EA",
    "lat": 53.745299,
    "lng": -2.389506
  },
  {
    "id": "school-148922",
    "type": "school",
    "name": "The Hollins",
    "address": "Hollins Lane, Accrington",
    "postcode": "BB5 2QY",
    "lat": 53.738015,
    "lng": -2.35267
  },
  {
    "id": "school-148965",
    "type": "school",
    "name": "Dixons Brooklands Academy",
    "address": "Moor Road, Manchester",
    "postcode": "M23 9BP",
    "lat": 53.40186,
    "lng": -2.294875
  },
  {
    "id": "school-149031",
    "type": "school",
    "name": "St Augustine of Canterbury Catholic Academy",
    "address": "Boardmans Lane, St. Helens",
    "postcode": "WA11 9BB",
    "lat": 53.45887,
    "lng": -2.705364
  },
  {
    "id": "school-149032",
    "type": "school",
    "name": "Blessed Carlo Acutis Catholic and Church of England Academy",
    "address": "Grangeway, Runcorn",
    "postcode": "WA7 5YH",
    "lat": 53.325551,
    "lng": -2.709951
  },
  {
    "id": "school-149047",
    "type": "school",
    "name": "Sacred Heart Catholic Academy",
    "address": "Liverpool Road, Liverpool",
    "postcode": "L23 5TF",
    "lat": 53.486431,
    "lng": -3.02063
  },
  {
    "id": "school-149099",
    "type": "school",
    "name": "Lancaster University School of Mathematics",
    "address": "67-69 London Road, Preston",
    "postcode": "PR1 4BA",
    "lat": 53.759093,
    "lng": -2.68355
  },
  {
    "id": "school-149137",
    "type": "school",
    "name": "The Brian Clarke Church of England Academy",
    "address": "Bloom Street, Oldham",
    "postcode": "OL9 6BP",
    "lat": 53.541473,
    "lng": -2.120266
  },
  {
    "id": "school-149437",
    "type": "school",
    "name": "Ridgeway Secondary School",
    "address": "Evesham Road, Redditch",
    "postcode": "B96 6BD",
    "lat": 52.252675,
    "lng": -1.937545
  },
  {
    "id": "school-149457",
    "type": "school",
    "name": "St Augustine's Roman Catholic High School, a Voluntary Academy",
    "address": "Elker Lane, Clitheroe",
    "postcode": "BB7 9JA",
    "lat": 53.815391,
    "lng": -2.425169
  },
  {
    "id": "school-149461",
    "type": "school",
    "name": "Saint John Henry Newman Roman Catholic College, A Voluntary Academy",
    "address": "Off Canon Dolan Way, Oldham",
    "postcode": "OL9 9QY",
    "lat": 53.537717,
    "lng": -2.15104
  },
  {
    "id": "school-149614",
    "type": "school",
    "name": "Weaverham High School",
    "address": "Lime Avenue, Northwich",
    "postcode": "CW8 3HT",
    "lat": 53.260001,
    "lng": -2.579417
  },
  {
    "id": "school-149631",
    "type": "school",
    "name": "Ellesmere Port Catholic High School, a Voluntary Academy",
    "address": "Capenhurst Lane, Ellesmere Port",
    "postcode": "CH65 7AQ",
    "lat": 53.270854,
    "lng": -2.912505
  },
  {
    "id": "school-149632",
    "type": "school",
    "name": "Holland Park School",
    "address": "Airlie Gardens, London",
    "postcode": "W8 7AF",
    "lat": 51.504379,
    "lng": -0.199025
  },
  {
    "id": "school-149645",
    "type": "school",
    "name": "Buxton Community School",
    "address": "College Road, Buxton",
    "postcode": "SK17 9EA",
    "lat": 53.250306,
    "lng": -1.919628
  },
  {
    "id": "school-149682",
    "type": "school",
    "name": "North Bromsgrove High School",
    "address": "School Drive, Bromsgrove",
    "postcode": "B60 1BA",
    "lat": 52.337154,
    "lng": -2.051242
  },
  {
    "id": "school-149697",
    "type": "school",
    "name": "Dixons Newall Green Academy",
    "address": "Greenbrow Road, Manchester",
    "postcode": "M23 2SX",
    "lat": 53.383565,
    "lng": -2.287591
  },
  {
    "id": "school-149751",
    "type": "school",
    "name": "Windsor Olympus Academy",
    "address": "Perrott Street, Birmingham",
    "postcode": "B18 4LX",
    "lat": 52.497857,
    "lng": -1.940483
  },
  {
    "id": "school-149767",
    "type": "school",
    "name": "Star Salford Academy",
    "address": "124 Longshaw Drive, Worsley",
    "postcode": "M28 0BB",
    "lat": 53.527016,
    "lng": -2.417221
  },
  {
    "id": "school-149828",
    "type": "school",
    "name": "Meols Cop High School",
    "address": "Meols Cop Road, Southport",
    "postcode": "PR8 6JS",
    "lat": 53.638467,
    "lng": -2.973031
  },
  {
    "id": "school-149873",
    "type": "school",
    "name": "St Cuthbert's Roman Catholic High School, a Voluntary Academy",
    "address": "Shaw Road, Rochdale",
    "postcode": "OL16 4RX",
    "lat": 53.59006,
    "lng": -2.137598
  },
  {
    "id": "school-149936",
    "type": "school",
    "name": "Priestnall School",
    "address": "Priestnall Road, Stockport",
    "postcode": "SK4 3HP",
    "lat": 53.417548,
    "lng": -2.19812
  },
  {
    "id": "school-149983",
    "type": "school",
    "name": "Up Holland High School",
    "address": "Sandbrook Road, Wigan",
    "postcode": "WN5 7AL",
    "lat": 53.528719,
    "lng": -2.717614
  },
  {
    "id": "school-150009",
    "type": "school",
    "name": "Abraham Moss Community School",
    "address": "Crescent Road, Manchester",
    "postcode": "M8 5UF",
    "lat": 53.511567,
    "lng": -2.234346
  },
  {
    "id": "school-150092",
    "type": "school",
    "name": "Longridge High School",
    "address": "Preston Road, Preston",
    "postcode": "PR3 3AR",
    "lat": 53.825852,
    "lng": -2.605794
  },
  {
    "id": "school-150227",
    "type": "school",
    "name": "Falinge Park High School",
    "address": "Falinge Road, Rochdale",
    "postcode": "OL12 6LD",
    "lat": 53.624793,
    "lng": -2.167667
  },
  {
    "id": "school-150261",
    "type": "school",
    "name": "Bacup and Rawtenstall Grammar School",
    "address": "Glen Road, Rossendale",
    "postcode": "BB4 7BJ",
    "lat": 53.693209,
    "lng": -2.245956
  },
  {
    "id": "school-150308",
    "type": "school",
    "name": "Our Lady and St John RC High School, a Voluntary Academy",
    "address": "North Road, Blackburn",
    "postcode": "BB1 1PY",
    "lat": 53.741332,
    "lng": -2.451715
  },
  {
    "id": "school-150311",
    "type": "school",
    "name": "King's Leadership Academy Wavertree",
    "address": "Stephenson Way, Liverpool",
    "postcode": "L13 1HD",
    "lat": 53.404036,
    "lng": -2.926078
  },
  {
    "id": "school-150373",
    "type": "school",
    "name": "Notre Dame Catholic Academy",
    "address": "180 Great Homer Street, Liverpool",
    "postcode": "L5 5AF",
    "lat": 53.425241,
    "lng": -2.97702
  },
  {
    "id": "school-150434",
    "type": "school",
    "name": "Wellfield Academy",
    "address": "Yewlands Drive, Leyland",
    "postcode": "PR25 2TP",
    "lat": 53.694412,
    "lng": -2.698057
  },
  {
    "id": "school-150483",
    "type": "school",
    "name": "The Macclesfield Academy",
    "address": "Park Lane, Macclesfield",
    "postcode": "SK11 8JR",
    "lat": 53.249879,
    "lng": -2.134811
  },
  {
    "id": "school-150510",
    "type": "school",
    "name": "Walton-Le-Dale High School",
    "address": "Brindle Road, Preston",
    "postcode": "PR5 6RN",
    "lat": 53.73633,
    "lng": -2.653403
  },
  {
    "id": "school-150607",
    "type": "school",
    "name": "Lytham St Annes High School",
    "address": "Albany Road, Lytham St. Annes",
    "postcode": "FY8 4GW",
    "lat": 53.747076,
    "lng": -2.996301
  },
  {
    "id": "school-150613",
    "type": "school",
    "name": "The Blackpool Sixth Form College",
    "address": "Blackpool Old Road, Blackpool",
    "postcode": "FY3 7LR",
    "lat": 53.839923,
    "lng": -3.015209
  },
  {
    "id": "school-150615",
    "type": "school",
    "name": "Christ The King Catholic High School",
    "address": "Lawrence Avenue, Preston",
    "postcode": "PR1 4PR",
    "lat": 53.75042,
    "lng": -2.686533
  },
  {
    "id": "school-150715",
    "type": "school",
    "name": "Star Radcliffe Academy",
    "address": "Spring Lane, Radcliffe",
    "postcode": "M26 2SZ",
    "lat": 53.564071,
    "lng": -2.321052
  },
  {
    "id": "school-150833",
    "type": "school",
    "name": "De La Salle School",
    "address": "Mill Brow, St. Helens",
    "postcode": "WA10 4QH",
    "lat": 53.455228,
    "lng": -2.768276
  },
  {
    "id": "school-150868",
    "type": "school",
    "name": "Buile Hill Academy",
    "address": "Eccles Old Road, Salford",
    "postcode": "M6 8RD",
    "lat": 53.493654,
    "lng": -2.30127
  },
  {
    "id": "school-150956",
    "type": "school",
    "name": "Gateacre School",
    "address": "Hedgefield Road, Liverpool",
    "postcode": "L25 2RW",
    "lat": 53.391319,
    "lng": -2.859389
  },
  {
    "id": "school-150966",
    "type": "school",
    "name": "Carr Hill High School",
    "address": "Royal Avenue, Preston",
    "postcode": "PR4 2ST",
    "lat": 53.779272,
    "lng": -2.866051
  },
  {
    "id": "school-151027",
    "type": "school",
    "name": "Philips High School",
    "address": "Higher Lane, Manchester",
    "postcode": "M45 7PH",
    "lat": 53.546062,
    "lng": -2.298049
  },
  {
    "id": "school-151031",
    "type": "school",
    "name": "Marple Hall School",
    "address": "Hill Top Drive, Stockport",
    "postcode": "SK6 6LB",
    "lat": 53.397517,
    "lng": -2.087071
  },
  {
    "id": "school-151354",
    "type": "school",
    "name": "South Wirral High School",
    "address": "Plymyard Avenue, Wirral",
    "postcode": "CH62 8EH",
    "lat": 53.310948,
    "lng": -2.977411
  },
  {
    "id": "school-151356",
    "type": "school",
    "name": "Mount St Joseph RC High School a Voluntary Academy",
    "address": "Greenland Road, Bolton",
    "postcode": "BL4 0HT",
    "lat": 53.554952,
    "lng": -2.420832
  },
  {
    "id": "school-151361",
    "type": "school",
    "name": "Saddleworth School",
    "address": "Huddersfield Road, Oldham",
    "postcode": "OL3 5NU",
    "lat": 53.551224,
    "lng": -2.002174
  },
  {
    "id": "school-151443",
    "type": "school",
    "name": "South Shore Academy",
    "address": "St Annes Road, Blackpool",
    "postcode": "FY4 2AR",
    "lat": 53.795928,
    "lng": -3.042539
  },
  {
    "id": "school-151485",
    "type": "school",
    "name": "Denton Community Academy",
    "address": "Taylor Lane, Manchester",
    "postcode": "M34 3NG",
    "lat": 53.458535,
    "lng": -2.121493
  },
  {
    "id": "school-151559",
    "type": "school",
    "name": "Todmorden High School, A SHARE Academy",
    "address": "Ewood Lane, Todmorden",
    "postcode": "OL14 7DG",
    "lat": 53.720641,
    "lng": -2.108788
  },
  {
    "id": "school-151610",
    "type": "school",
    "name": "The Radclyffe School",
    "address": "Hunt Lane, Oldham",
    "postcode": "OL9 0LS",
    "lat": 53.545087,
    "lng": -2.152183
  },
  {
    "id": "school-151627",
    "type": "school",
    "name": "Hyde High School",
    "address": "Old Road, Hyde",
    "postcode": "SK14 4SP",
    "lat": 53.460196,
    "lng": -2.081822
  },