[
  {
    "id": "school-100341",
    "type": "school",
    "name": "Wormholt Park Primary School",
    "address": "Bryony Road, London",
    "postcode": "W12 0SR",
    "lat": 51.511163,
    "lng": -0.237154
  },
  {
    "id": "school-100373",
    "type": "school",
    "name": "Ravenscourt Park Preparatory School",
    "address": "16 Ravenscourt Avenue, London",
    "postcode": "W6 0SL",
    "lat": 51.493595,
    "lng": -0.236852
  },
  {
    "id": "school-100382",
    "type": "school",
    "name": "Cambridge School",
    "address": "61, Bryony Rd, London",
    "postcode": "W12 0SP",
    "lat": 51.511175,
    "lng": -0.234905
  },
  {
    "id": "school-100488",
    "type": "school",
    "name": "Thomas Jones Primary School",
    "address": "St Mark's Road, London",
    "postcode": "W11 1RQ",
    "lat": 51.515226,
    "lng": -0.209668
  },
  {
    "id": "school-100497",
    "type": "school",
    "name": "St Mary Abbots CofE Primary School",
    "address": "2 Kensington Church Court, London",
    "postcode": "W8 4SP",
    "lat": 51.501605,
    "lng": -0.190618
  },
  {
    "id": "school-100527",
    "type": "school",
    "name": "St James Senior Girls' School",
    "address": "Earsby Street",
    "postcode": "W14 8SH",
    "lat": 51.494386,
    "lng": -0.207761
  },
  {
    "id": "school-100532",
    "type": "school",
    "name": "Instituto Espanol Canada Blanch",
    "address": "317 Portobello Road, London",
    "postcode": "W10 5SZ",
    "lat": 51.519847,
    "lng": -0.207252
  },
  {
    "id": "school-101861",
    "type": "school",
    "name": "South Acton Childrens Centre",
    "address": "Castle Close, London",
    "postcode": "W3 8RX",
    "lat": 51.50329,
    "lng": -0.271942
  },
  {
    "id": "school-101867",
    "type": "school",
    "name": "Acton Gardens Primary School",
    "address": "Osborne Road, London",
    "postcode": "W3 8SJ",
    "lat": 51.502522,
    "lng": -0.271654
  },
  {
    "id": "school-101870",
    "type": "school",
    "name": "North Ealing Primary School",
    "address": "Pitshanger Lane, London",
    "postcode": "W5 1RP",
    "lat": 51.525587,
    "lng": -0.31598
  },
  {
    "id": "school-101873",
    "type": "school",
    "name": "St John's Primary School",
    "address": "St John's Primary School, London",
    "postcode": "W13 0SE",
    "lat": 51.511534,
    "lng": -0.322494
  },
  {
    "id": "school-101877",
    "type": "school",
    "name": "Mayfield Primary School",
    "address": "High Lane, London",
    "postcode": "W7 3RT",
    "lat": 51.520175,
    "lng": -0.346438
  },
  {
    "id": "school-101895",
    "type": "school",
    "name": "Derwentwater Primary School",
    "address": "Shakespeare Road, London",
    "postcode": "W3 6SA",
    "lat": 51.509703,
    "lng": -0.267678
  },
  {
    "id": "school-101923",
    "type": "school",
    "name": "St Gregory's Catholic Primary School",
    "address": "Woodfield Road, London",
    "postcode": "W5 1SL",
    "lat": 51.523911,
    "lng": -0.305114
  },
  {
    "id": "school-102472",
    "type": "school",
    "name": "Cavendish Primary School",
    "address": "Edensor Road, London",
    "postcode": "W4 2RG",
    "lat": 51.481017,
    "lng": -0.255774
  },
  {
    "id": "school-103120",
    "type": "school",
    "name": "Bordesley Green East Nursery School",
    "address": "358 Bordesley Green East, Birmingham",
    "postcode": "B33 8QB",
    "lat": 52.477654,
    "lng": -1.811267
  },
  {
    "id": "school-103121",
    "type": "school",
    "name": "Brearley Nursery School",
    "address": "Brearley Street, Birmingham",
    "postcode": "B19 3XJ",
    "lat": 52.49168,
    "lng": -1.899528
  },
  {
    "id": "school-103122",
    "type": "school",
    "name": "Garretts Green Nursery School",
    "address": "117 Garretts Green Lane, Birmingham",
    "postcode": "B26 2JL",
    "lat": 52.466649,
    "lng": -1.790071
  },
  {
    "id": "school-103123",
    "type": "school",
    "name": "Perry Beeches Nursery School",
    "address": "256 Beeches Road, Birmingham",
    "postcode": "B42 2PX",
    "lat": 52.539274,
    "lng": -1.906246
  },
  {
    "id": "school-103125",
    "type": "school",
    "name": "Highfield Nursery School",
    "address": "Highfield Road, Birmingham",
    "postcode": "B8 3QF",
    "lat": 52.49282,
    "lng": -1.848058
  },
  {
    "id": "school-103131",
    "type": "school",
    "name": "Rubery Nursery School",
    "address": "Leybrook Road, Birmingham",
    "postcode": "B45 9PB",
    "lat": 52.396561,
    "lng": -2.002249
  },
  {
    "id": "school-103133",
    "type": "school",
    "name": "Weoley Castle Nursery School",
    "address": "109 Weoley Castle Road, Birmingham",
    "postcode": "B29 5QD",
    "lat": 52.437466,
    "lng": -1.966899
  },
  {
    "id": "school-103135",
    "type": "school",
    "name": "Gracelands Nursery School",
    "address": "Grace Road, Birmingham",
    "postcode": "B11 1ED",
    "lat": 52.462623,
    "lng": -1.865679
  },
  {
    "id": "school-103145",
    "type": "school",
    "name": "Osborne Nursery School",
    "address": "Station Road, Birmingham",
    "postcode": "B23 6UB",
    "lat": 52.526826,
    "lng": -1.835926
  },
  {
    "id": "school-103162",
    "type": "school",
    "name": "Barford Primary School",
    "address": "Barford Road, Birmingham",
    "postcode": "B16 0EF",
    "lat": 52.484079,
    "lng": -1.933477
  },
  {
    "id": "school-103163",
    "type": "school",
    "name": "Beeches Junior School",
    "address": "Beeches Junior School, Beeches Road, Birmingham",
    "postcode": "B42 2PY",
    "lat": 52.540245,
    "lng": -1.906392
  },
  {
    "id": "school-103172",
    "type": "school",
    "name": "Bordesley Green Primary School",
    "address": "Marchmont Road, Birmingham",
    "postcode": "B9 5XX",
    "lat": 52.478295,
    "lng": -1.837535
  },
  {
    "id": "school-103201",
    "type": "school",
    "name": "Gilbertstone Primary School",
    "address": "Clay Lane, Birmingham",
    "postcode": "B26 1EH",
    "lat": 52.454235,
    "lng": -1.8076
  },
  {
    "id": "school-103214",
    "type": "school",
    "name": "Hawthorn Primary School",
    "address": "Hawthorn Road, Birmingham",
    "postcode": "B44 8QR",
    "lat": 52.535425,
    "lng": -1.875689
  },
  {
    "id": "school-103227",
    "type": "school",
    "name": "Lozells Junior and Infant School and Nursery",
    "address": "Wheeler Street, Birmingham",
    "postcode": "B19 2EP",
    "lat": 52.499331,
    "lng": -1.900232
  },
  {
    "id": "school-103237",
    "type": "school",
    "name": "Nelson Primary School",
    "address": "King Edward's Road, Birmingham",
    "postcode": "B1 2PJ",
    "lat": 52.48074,
    "lng": -1.9145
  },
  {
    "id": "school-103246",
    "type": "school",
    "name": "Raddlebarn Primary School",
    "address": "Gristhorpe Road, Birmingham",
    "postcode": "B29 7TD",
    "lat": 52.436431,
    "lng": -1.926208
  },
  {
    "id": "school-103248",
    "type": "school",
    "name": "Rednal Hill Junior School",
    "address": "Irwin Avenue, Birmingham",
    "postcode": "B45 8QY",
    "lat": 52.390905,
    "lng": -2.000059
  },
  {
    "id": "school-103249",
    "type": "school",
    "name": "Rednal Hill Infant School",
    "address": "Irwin Avenue, Birmingham",
    "postcode": "B45 8QY",
    "lat": 52.390905,
    "lng": -2.000059
  },
  {
    "id": "school-103255",
    "type": "school",
    "name": "Sladefield Infant School",
    "address": "Bamville Road, Birmingham",
    "postcode": "B8 2TJ",
    "lat": 52.492033,
    "lng": -1.830856
  },
  {
    "id": "school-103256",
    "type": "school",
    "name": "Somerville Primary (NC) School",
    "address": "Somerville Road, Birmingham",
    "postcode": "B10 9EN",
    "lat": 52.470557,
    "lng": -1.85367
  },
  {
    "id": "school-103257",
    "type": "school",
    "name": "Stanville Primary School",
    "address": "Stanville Road, Birmingham",
    "postcode": "B26 3YN",
    "lat": 52.461321,
    "lng": -1.777423
  },
  {
    "id": "school-103265",
    "type": "school",
    "name": "Ladypool Primary School",
    "address": "Stratford Road, Birmingham",
    "postcode": "B11 1QT",
    "lat": 52.460788,
    "lng": -1.872779
  },
  {
    "id": "school-103281",
    "type": "school",
    "name": "Yardley Wood Community Primary School",
    "address": "School Road, Birmingham",
    "postcode": "B14 4ER",
    "lat": 52.415412,
    "lng": -1.859205
  },
  {
    "id": "school-103289",
    "type": "school",
    "name": "Bellfield Infant School (NC)",
    "address": "Vineyard Road, Birmingham",
    "postcode": "B31 1PT",
    "lat": 52.41623,
    "lng": -1.971649
  },
  {
    "id": "school-103291",
    "type": "school",
    "name": "Bellfield Junior School",
    "address": "Vineyard Road, Birmingham",
    "postcode": "B31 1PT",
    "lat": 52.41623,
    "lng": -1.971649
  },
  {
    "id": "school-103298",
    "type": "school",
    "name": "Chilcote Primary School",
    "address": "Chilcote Close, Birmingham",
    "postcode": "B28 0PB",
    "lat": 52.416056,
    "lng": -1.842219
  },
  {
    "id": "school-103300",
    "type": "school",
    "name": "Blakesley Hall Primary School",
    "address": "Yardley Green Road, Birmingham",
    "postcode": "B33 8TH",
    "lat": 52.474925,
    "lng": -1.814209
  },
  {
    "id": "school-103310",
    "type": "school",
    "name": "Woodgate Primary School",
    "address": "Lutley Grove, Birmingham",
    "postcode": "B32 3PN",
    "lat": 52.436886,
    "lng": -2.004752
  },
  {
    "id": "school-103318",
    "type": "school",
    "name": "Featherstone Primary School",
    "address": "Glenville Drive, Birmingham",
    "postcode": "B23 6PR",
    "lat": 52.525566,
    "lng": -1.848726
  },
  {
    "id": "school-103320",
    "type": "school",
    "name": "Glenmead Primary School",
    "address": "Glenmead Road, Birmingham",
    "postcode": "B44 8UQ",
    "lat": 52.541246,
    "lng": -1.898618
  },
  {
    "id": "school-103326",
    "type": "school",
    "name": "Water Mill Primary School",
    "address": "Water Mill Close, Birmingham",
    "postcode": "B29 6TS",
    "lat": 52.445181,
    "lng": -1.945675
  },
  {
    "id": "school-103332",
    "type": "school",
    "name": "Chad Vale Primary School",
    "address": "Nursery Road, Birmingham",
    "postcode": "B15 3JU",
    "lat": 52.463837,
    "lng": -1.944018
  },
  {
    "id": "school-103349",
    "type": "school",
    "name": "Wylde Green Primary School",
    "address": "Green Lanes, Sutton Coldfield",
    "postcode": "B73 5JL",
    "lat": 52.537408,
    "lng": -1.829045
  },
  {
    "id": "school-103353",
    "type": "school",
    "name": "Maney Hill Primary School",
    "address": "Maney Hill Road, Sutton Coldfield",
    "postcode": "B72 1JU",
    "lat": 52.550288,
    "lng": -1.814643
  },
  {
    "id": "school-103381",
    "type": "school",
    "name": "Elms Farm Community Primary School",
    "address": "Dorncliffe Avenue, Birmingham",
    "postcode": "B33 0PJ",
    "lat": 52.463396,
    "lng": -1.771775
  },
  {
    "id": "school-103383",
    "type": "school",
    "name": "Bells Farm Primary School",
    "address": "Bells Farm Close, Birmingham",
    "postcode": "B14 5QP",
    "lat": 52.406404,
    "lng": -1.905808
  },
  {
    "id": "school-103384",
    "type": "school",
    "name": "Nelson Mandela School",
    "address": "Colville Road, Birmingham",
    "postcode": "B12 8EH",
    "lat": 52.456041,
    "lng": -1.873102
  },
  {
    "id": "school-103390",
    "type": "school",
    "name": "Coppice Primary School",
    "address": "Trinity Road, Sutton Coldfield",
    "postcode": "B75 6TJ",
    "lat": 52.580088,
    "lng": -1.823196
  },
  {
    "id": "school-103398",
    "type": "school",
    "name": "Moseley Church of England Primary School",
    "address": "Oxford Road, Birmingham",
    "postcode": "B13 9EH",
    "lat": 52.442672,
    "lng": -1.882925
  },
  {
    "id": "school-103404",
    "type": "school",
    "name": "St Matthew's CofE Primary School",
    "address": "Duddeston Manor Road, Birmingham",
    "postcode": "B7 4JR",
    "lat": 52.488817,
    "lng": -1.876822
  },
  {
    "id": "school-103406",
    "type": "school",
    "name": "St Saviour's C of E Primary School",
    "address": "Alum Rock Road, Birmingham",
    "postcode": "B8 1JB",
    "lat": 52.491194,
    "lng": -1.855988
  },
  {
    "id": "school-103423",
    "type": "school",
    "name": "Christ The King Catholic Primary School",
    "address": "Warren Farm Road, Birmingham",
    "postcode": "B44 0QN",
    "lat": 52.542914,
    "lng": -1.875285
  },
  {
    "id": "school-103425",
    "type": "school",
    "name": "English Martyrs' Catholic Primary School",
    "address": "Evelyn Road, Birmingham",
    "postcode": "B11 3JW",
    "lat": 52.450643,
    "lng": -1.862227
  },
  {
    "id": "school-103430",
    "type": "school",
    "name": "Our Lady of Lourdes Catholic Primary School",
    "address": "Trittiford Road, Birmingham",
    "postcode": "B13 0EU",
    "lat": 52.421849,
    "lng": -1.858876
  },
  {
    "id": "school-103434",
    "type": "school",
    "name": "St Anne's Catholic Primary School",
    "address": "Lowe Street, Birmingham",
    "postcode": "B12 0ER",
    "lat": 52.470045,
    "lng": -1.87817
  },
  {
    "id": "school-103439",
    "type": "school",
    "name": "St Patrick and St Edmund's Catholic Primary School",
    "address": "Dudley Road, Birmingham",
    "postcode": "B18 7QW",
    "lat": 52.485884,
    "lng": -1.93019
  },
  {
    "id": "school-103444",
    "type": "school",
    "name": "King David Primary School",
    "address": "Alcester Road, Birmingham",
    "postcode": "B13 8EY",
    "lat": 52.443514,
    "lng": -1.889058
  },
  {
    "id": "school-103445",
    "type": "school",
    "name": "Bournville Village Primary",
    "address": "Linden Road, Birmingham",
    "postcode": "B30 1JY",
    "lat": 52.429334,
    "lng": -1.935413
  },
  {
    "id": "school-103447",
    "type": "school",
    "name": "St Edward's Catholic Primary School",
    "address": "Greenland Road, Birmingham",
    "postcode": "B29 7PN",
    "lat": 52.438484,
    "lng": -1.916435
  },
  {
    "id": "school-103460",
    "type": "school",
    "name": "St Bernadette's Catholic Primary School",
    "address": "Hobmoor Road, Birmingham",
    "postcode": "B25 8QL",
    "lat": 52.469061,
    "lng": -1.824908
  },
  {
    "id": "school-103462",
    "type": "school",
    "name": "St Bernard's Catholic Primary School",
    "address": "Wake Green Road, Birmingham",
    "postcode": "B13 9QE",
    "lat": 52.436587,
    "lng": -1.859947
  },
  {
    "id": "school-103463",
    "type": "school",
    "name": "St Jude's Catholic Primary School",
    "address": "St Jude's Close, Birmingham",
    "postcode": "B14 5PD",
    "lat": 52.405562,
    "lng": -1.888154
  },
  {
    "id": "school-103470",
    "type": "school",
    "name": "St Cuthbert's RC Junior and Infant (NC) School",
    "address": "Gumbleberrys Close, Birmingham",
    "postcode": "B8 2PS",
    "lat": 52.485827,
    "lng": -1.817109
  },
  {
    "id": "school-103479",
    "type": "school",
    "name": "Holly Hill Methodist CofE Infant School",
    "address": "New Street, Birmingham",
    "postcode": "B45 0EU",
    "lat": 52.404229,
    "lng": -2.015524
  },
  {
    "id": "school-103483",
    "type": "school",
    "name": "Hodge Hill Girls' School",
    "address": "Bromford Road, Birmingham",
    "postcode": "B36 8EY",
    "lat": 52.502216,
    "lng": -1.816334
  },
  {
    "id": "school-103486",
    "type": "school",
    "name": "Kings Heath Secondary School",
    "address": "Chamberlain Road, Birmingham",
    "postcode": "B13 0QP",
    "lat": 52.42305,
    "lng": -1.878962
  },
  {
    "id": "school-103493",
    "type": "school",
    "name": "Bordesley Green Girls' School & Sixth Form",
    "address": "Bordesley Green Road, Birmingham",
    "postcode": "B9 4TR",
    "lat": 52.48059,
    "lng": -1.852709
  },
  {
    "id": "school-103497",
    "type": "school",
    "name": "Queensbridge School",
    "address": "Queensbridge Road, Birmingham",
    "postcode": "B13 8QB",
    "lat": 52.440721,
    "lng": -1.891949
  },
  {
    "id": "school-103498",
    "type": "school",
    "name": "Selly Park Girls' School",
    "address": "5 Selly Park Road, Birmingham",
    "postcode": "B29 7PH",
    "lat": 52.436219,
    "lng": -1.917249
  },
  {
    "id": "school-103509",
    "type": "school",
    "name": "Holte School",
    "address": "Wheeler Street, Birmingham",
    "postcode": "B19 2EP",
    "lat": 52.500446,
    "lng": -1.900053
  },
  {
    "id": "school-103519",
    "type": "school",
    "name": "Moseley School and Sixth Form",
    "address": "Wake Green Road, Birmingham",
    "postcode": "B13 9UU",
    "lat": 52.440259,
    "lng": -1.862642
  },
  {
    "id": "school-103543",
    "type": "school",
    "name": "Walmley Junior School",
    "address": "Walmley Ash Road, Sutton Coldfield",
    "postcode": "B76 1JB",
    "lat": 52.535168,
    "lng": -1.789465
  },
  {
    "id": "school-103544",
    "type": "school",
    "name": "Walmley Infant School",
    "address": "Walmley Ash Road, Sutton Coldfield",
    "postcode": "B76 1JB",
    "lat": 52.535168,
    "lng": -1.789465
  },
  {
    "id": "school-103560",
    "type": "school",
    "name": "Bishop Challoner Catholic College",
    "address": "Institute Road, Birmingham",
    "postcode": "B14 7EG",
    "lat": 52.432643,
    "lng": -1.888379
  },
  {
    "id": "school-103566",
    "type": "school",
    "name": "Priory School",
    "address": "Sir Harrys Road",
    "postcode": "B15 2UR",
    "lat": 52.460717,
    "lng": -1.913596
  },
  {
    "id": "school-103567",
    "type": "school",
    "name": "Edgbaston High School for Girls",
    "address": "Westbourne Road, Birmingham",
    "postcode": "B15 3TS",
    "lat": 52.466237,
    "lng": -1.926938
  },
  {
    "id": "school-103572",
    "type": "school",
    "name": "Norfolk House School",
    "address": "4 Norfolk Road, Birmingham",
    "postcode": "B15 3PS",
    "lat": 52.470175,
    "lng": -1.942096
  },
  {
    "id": "school-103576",
    "type": "school",
    "name": "Highclare School",
    "address": "10 Sutton Road, West Midlands",
    "postcode": "B23 6QL",
    "lat": 52.527652,
    "lng": -1.834994
  },
  {
    "id": "school-103584",
    "type": "school",
    "name": "King Edward's School",
    "address": "Edgbaston Park Road, Birmingham",
    "postcode": "B15 2UA",
    "lat": 52.450212,
    "lng": -1.922093
  },
  {
    "id": "school-103585",
    "type": "school",
    "name": "King Edward VI High School for Girls",
    "address": "Edgbaston Park Road, Birmingham",
    "postcode": "B15 2UB",
    "lat": 52.450429,
    "lng": -1.923918
  },
  {
    "id": "school-103591",
    "type": "school",
    "name": "Birchfield Independent Girls' School",
    "address": "30 Beacon Hill, Birmingham",
    "postcode": "B6 6JU",
    "lat": 52.506956,
    "lng": -1.890401
  },
  {
    "id": "school-103605",
    "type": "school",
    "name": "Uffculme School",
    "address": "Yew Tree Road, Birmingham",
    "postcode": "B13 8QG",
    "lat": 52.441599,
    "lng": -1.898553
  },
  {
    "id": "school-103606",
    "type": "school",
    "name": "Baskerville School",
    "address": "Fellows Lane, Birmingham",
    "postcode": "B17 9TS",
    "lat": 52.457497,
    "lng": -1.964499
  },
  {
    "id": "school-103614",
    "type": "school",
    "name": "Priestley Smith School",
    "address": "Perry Beeches Campus, Birmingham",
    "postcode": "B42 2PY",
    "lat": 52.540245,
    "lng": -1.906392
  },
  {
    "id": "school-103622",
    "type": "school",
    "name": "The Pines Special School",
    "address": "Marsh Hill, Birmingham",
    "postcode": "B23 7EY",
    "lat": 52.523155,
    "lng": -1.862177
  },
  {
    "id": "school-103625",
    "type": "school",
    "name": "Fox Hollies School",
    "address": "Highbury Community Campus, Birmingham",
    "postcode": "B13 8QB",
    "lat": 52.44046,
    "lng": -1.89164
  },
  {
    "id": "school-103626",
    "type": "school",
    "name": "Cherry Oak School",
    "address": "60 Frederick Road, Birmingham",
    "postcode": "B29 6PB",
    "lat": 52.440522,
    "lng": -1.941002
  },
  {
    "id": "school-103630",
    "type": "school",
    "name": "Langley School",
    "address": "Trinity Road, Sutton Coldfield",
    "postcode": "B75 6TJ",
    "lat": 52.580583,
    "lng": -1.823416
  },
  {
    "id": "school-103632",
    "type": "school",
    "name": "Lindsworth School",
    "address": "Monyhull Hall Road, Birmingham",
    "postcode": "B30 3QA",
    "lat": 52.410099,
    "lng": -1.904227
  },
  {
    "id": "school-103633",
    "type": "school",
    "name": "Hillfields Nursery School",
    "address": "Clifton Street, Coventry",
    "postcode": "CV1 5GR",
    "lat": 52.414117,
    "lng": -1.498313
  },
  {
    "id": "school-103639",
    "type": "school",
    "name": "Hollyfast Primary School",
    "address": "Hollyfast Road, Coventry",
    "postcode": "CV6 2AH",
    "lat": 52.428736,
    "lng": -1.540038
  },
  {
    "id": "school-103641",
    "type": "school",
    "name": "Earlsdon Primary School",
    "address": "Earlsdon Avenue North, Coventry",
    "postcode": "CV5 6FZ",
    "lat": 52.400225,
    "lng": -1.528781
  },
  {
    "id": "school-103642",
    "type": "school",
    "name": "Edgewick Community Primary School",
    "address": "Cross Road, Coventry",
    "postcode": "CV6 5GP",
    "lat": 52.431551,
    "lng": -1.49404
  },
  {
    "id": "school-103643",
    "type": "school",
    "name": "Gosford Park Primary School",
    "address": "Humber Avenue, Coventry",
    "postcode": "CV1 2SF",
    "lat": 52.404318,
    "lng": -1.488133
  },
  {
    "id": "school-103648",
    "type": "school",
    "name": "Longford Park Primary School",
    "address": "Windmill Road, Coventry",
    "postcode": "CV6 7AT",
    "lat": 52.444306,
    "lng": -1.482961
  },
  {
    "id": "school-103652",
    "type": "school",
    "name": "St Christopher Primary School",
    "address": "Allesley Old Road, Coventry",
    "postcode": "CV5 9JG",
    "lat": 52.412991,
    "lng": -1.549053
  },
  {
    "id": "school-103655",
    "type": "school",
    "name": "Whitley Abbey Primary School",
    "address": "Ashington Grove, Coventry",
    "postcode": "CV3 4DE",
    "lat": 52.38646,
    "lng": -1.483652
  },
  {
    "id": "school-103656",
    "type": "school",
    "name": "Allesley Hall Primary School",
    "address": "Winsford Avenue, Coventry",
    "postcode": "CV5 9NG",
    "lat": 52.415038,
    "lng": -1.562634
  },
  {
    "id": "school-103658",
    "type": "school",
    "name": "Ernesford Grange Primary School",
    "address": "Foxton Road, Coventry",
    "postcode": "CV3 2HN",
    "lat": 52.398696,
    "lng": -1.451421
  },
  {
    "id": "school-103662",
    "type": "school",
    "name": "Allesley Primary School",
    "address": "Antrim Close, Coventry",
    "postcode": "CV5 9FY",
    "lat": 52.427201,
    "lng": -1.566926
  },
  {
    "id": "school-103663",
    "type": "school",
    "name": "Grangehurst Primary School",
    "address": "Anderton Road, Coventry",
    "postcode": "CV6 6JN",
    "lat": 52.450265,
    "lng": -1.474194
  },
  {
    "id": "school-103664",
    "type": "school",
    "name": "Grange Farm Primary School",
    "address": "Dewsbury Avenue, Coventry",
    "postcode": "CV3 6NF",
    "lat": 52.382971,
    "lng": -1.517547
  },
  {
    "id": "school-103665",
    "type": "school",
    "name": "Eastern Green Junior School",
    "address": "Sutton Avenue, Coventry",
    "postcode": "CV5 7EG",
    "lat": 52.417707,
    "lng": -1.595209
  },
  {
    "id": "school-103666",
    "type": "school",
    "name": "Park Hill Primary School",
    "address": "Lower Eastern Green Lane, Coventry",
    "postcode": "CV5 7LR",
    "lat": 52.416074,
    "lng": -1.573167
  },
  {
    "id": "school-103667",
    "type": "school",
    "name": "Cannon Park Primary School",
    "address": "Bransford Avenue, Coventry",
    "postcode": "CV4 7PS",
    "lat": 52.382704,
    "lng": -1.545527
  },
  {
    "id": "school-103671",
    "type": "school",
    "name": "Sowe Valley Primary School",
    "address": "Princethorpe Way, Coventry",
    "postcode": "CV3 2QX",
    "lat": 52.393826,
    "lng": -1.456156
  },
  {
    "id": "school-103672",
    "type": "school",
    "name": "Broad Heath Community Primary School",
    "address": "Hanford Close, Coventry",
    "postcode": "CV6 5DP",
    "lat": 52.423914,
    "lng": -1.495304
  },
  {
    "id": "school-103673",
    "type": "school",
    "name": "Joseph Cash Primary School",
    "address": "Owenford Road, Coventry",
    "postcode": "CV6 3FS",
    "lat": 52.428667,
    "lng": -1.50737
  },
  {
    "id": "school-103674",
    "type": "school",
    "name": "Whoberley Hall Primary School",
    "address": "Overdale Road, Coventry",
    "postcode": "CV5 8AJ",
    "lat": 52.410056,
    "lng": -1.552715
  },
  {
    "id": "school-103676",
    "type": "school",
    "name": "Holbrook Primary School",
    "address": "Gateside Road, Coventry",
    "postcode": "CV6 6FR",
    "lat": 52.438259,
    "lng": -1.496273
  },
  {
    "id": "school-103679",
    "type": "school",
    "name": "Stoke Primary School",
    "address": "Briton Road, Coventry",
    "postcode": "CV2 4LF",
    "lat": 52.413024,
    "lng": -1.478416
  },
  {
    "id": "school-103680",
    "type": "school",
    "name": "Coundon Primary School",
    "address": "Forfield Road, Coventry",
    "postcode": "CV6 1FQ",
    "lat": 52.41981,
    "lng": -1.538469
  },
  {
    "id": "school-103681",
    "type": "school",
    "name": "Aldermoor Farm Primary School",
    "address": "Acorn Street, Coventry",
    "postcode": "CV3 1DP",
    "lat": 52.398086,
    "lng": -1.473654
  },
  {
    "id": "school-103682",
    "type": "school",
    "name": "Ravensdale Primary School",
    "address": "Ravensdale Road, Coventry",
    "postcode": "CV2 5GQ",
    "lat": 52.412118,
    "lng": -1.462827
  },
  {
    "id": "school-103684",
    "type": "school",
    "name": "Stoke Heath Primary School",
    "address": "Heath Crescent, Coventry",
    "postcode": "CV2 4PR",
    "lat": 52.421606,
    "lng": -1.481433
  },
  {
    "id": "school-103685",
    "type": "school",
    "name": "Whitmore Park Primary School",
    "address": "Halford Lane, Coventry",
    "postcode": "CV6 2HG",
    "lat": 52.437979,
    "lng": -1.5242
  },
  {
    "id": "school-103686",
    "type": "school",
    "name": "Stivichall Primary School",
    "address": "Coat of Arms Bridge Road, Coventry",
    "postcode": "CV3 6PY",
    "lat": 52.387061,
    "lng": -1.521764
  },
  {
    "id": "school-103690",
    "type": "school",
    "name": "John Gulson Primary School",
    "address": "George Street, Coventry",
    "postcode": "CV1 4HB",
    "lat": 52.418084,
    "lng": -1.500797
  },
  {
    "id": "school-103691",
    "type": "school",
    "name": "Manor Park Primary School",
    "address": "Ulverscroft Road, Coventry",
    "postcode": "CV3 5EZ",
    "lat": 52.390643,
    "lng": -1.507456
  },
  {
    "id": "school-103692",
    "type": "school",
    "name": "Templars Primary School",
    "address": "Templar Avenue, Coventry",
    "postcode": "CV4 9DA",
    "lat": 52.400144,
    "lng": -1.571351
  },
  {
    "id": "school-103696",
    "type": "school",
    "name": "Wyken Croft Primary School",
    "address": "Wyken Croft, Coventry",
    "postcode": "CV2 3AA",
    "lat": 52.420124,
    "lng": -1.45395
  },
  {
    "id": "school-103697",
    "type": "school",
    "name": "Moseley Primary School",
    "address": "Moseley Avenue, Coventry",
    "postcode": "CV6 1AB",
    "lat": 52.414742,
    "lng": -1.525479
  },
  {
    "id": "school-103698",
    "type": "school",
    "name": "John Shelton Community Primary School",
    "address": "Briscoe Road, Coventry",
    "postcode": "CV6 4JP",
    "lat": 52.448944,
    "lng": -1.505628
  },
  {
    "id": "school-103702",
    "type": "school",
    "name": "All Saints Church of England Primary School",
    "address": "Strathmore Avenue, Coventry",
    "postcode": "CV1 2AF",
    "lat": 52.400773,
    "lng": -1.495877
  },
  {
    "id": "school-103703",
    "type": "school",
    "name": "St Andrew's Church of England Infant School",
    "address": "Church Lane, Coventry",
    "postcode": "CV5 7BX",
    "lat": 52.419783,
    "lng": -1.600058
  },
  {
    "id": "school-103711",
    "type": "school",
    "name": "St Osburg's Catholic Primary School",
    "address": "Upper Hill Street, Coventry",
    "postcode": "CV1 4AP",
    "lat": 52.410252,
    "lng": -1.517926
  },
  {
    "id": "school-103712",
    "type": "school",
    "name": "Our Lady of the Assumption Catholic Primary School",
    "address": "Hawthorn Lane, Coventry",
    "postcode": "CV4 9LB",
    "lat": 52.402173,
    "lng": -1.582959
  },
  {
    "id": "school-103719",
    "type": "school",
    "name": "St Anne's Catholic Primary School",
    "address": "Chace Avenue, Coventry",
    "postcode": "CV3 3AD",
    "lat": 52.387929,
    "lng": -1.470159
  },
  {
    "id": "school-103724",
    "type": "school",
    "name": "All Souls' Catholic Primary School",
    "address": "Abercorn Road, Coventry",
    "postcode": "CV5 8ED",
    "lat": 52.405407,
    "lng": -1.536282
  },
  {
    "id": "school-103726",
    "type": "school",
    "name": "Holy Family Catholic Primary School",
    "address": "Holy Family Catholic Primary, Coventry",
    "postcode": "CV6 2GU",
    "lat": 52.444931,
    "lng": -1.520387
  },
  {
    "id": "school-103747",
    "type": "school",
    "name": "Pattison College",
    "address": "90 Binley Road",
    "postcode": "CV3 1FQ",
    "lat": 52.40519,
    "lng": -1.477729
  },
  {
    "id": "school-103750",
    "type": "school",
    "name": "King Henry VIII School",
    "address": "Warwick Road",
    "postcode": "CV3 6AQ",
    "lat": 52.399562,
    "lng": -1.515882
  },
  {
    "id": "school-103751",
    "type": "school",
    "name": "Bablake School",
    "address": "Coundon Road",
    "postcode": "CV1 4AU",
    "lat": 52.413568,
    "lng": -1.519743
  },
  {
    "id": "school-103753",
    "type": "school",
    "name": "Lote Tree Primary School",
    "address": "643 Foleshill Road, Coventry",
    "postcode": "CV6 5JQ",
    "lat": 52.431459,
    "lng": -1.495777
  },
  {
    "id": "school-103760",
    "type": "school",
    "name": "Sherbourne Fields School",
    "address": "Rowington Close, Coventry",
    "postcode": "CV6 1PR",
    "lat": 52.420174,
    "lng": -1.546495
  },
  {
    "id": "school-103763",
    "type": "school",
    "name": "Tiverton School",
    "address": "Ashington Grove, Coventry",
    "postcode": "CV3 4DE",
    "lat": 52.38546,
    "lng": -1.483164
  },
  {
    "id": "school-103766",
    "type": "school",
    "name": "Netherton Park Nursery School",
    "address": "Netherton Park, Dudley",
    "postcode": "DY2 9QF",
    "lat": 52.492442,
    "lng": -2.079646
  },
  {
    "id": "school-103776",
    "type": "school",
    "name": "Brierley Hill Primary School",
    "address": "Mill Street, Brierley Hill",
    "postcode": "DY5 2TD",
    "lat": 52.477988,
    "lng": -2.118082
  },
  {
    "id": "school-103777",
    "type": "school",
    "name": "Brockmoor Primary School",
    "address": "Belle Isle, Brierley Hill",
    "postcode": "DY5 3UZ",
    "lat": 52.48321,
    "lng": -2.128051
  },
  {
    "id": "school-103778",
    "type": "school",
    "name": "Brook Primary School",
    "address": "George Street, Stourbridge",
    "postcode": "DY8 5YN",
    "lat": 52.472161,
    "lng": -2.150796
  },
  {
    "id": "school-103779",
    "type": "school",
    "name": "Maidensbridge Primary School",
    "address": "Beachcroft Road, Kingswinford",
    "postcode": "DY6 0HX",
    "lat": 52.510202,
    "lng": -2.176744
  },
  {
    "id": "school-103780",
    "type": "school",
    "name": "Mount Pleasant Primary School",
    "address": "Mount Pleasant, Brierley Hill",
    "postcode": "DY5 2YN",
    "lat": 52.473274,
    "lng": -2.111076
  },
  {
    "id": "school-103781",
    "type": "school",
    "name": "Dawley Brook Primary School",
    "address": "Dubarry Avenue, Kingswinford",
    "postcode": "DY6 9BP",
    "lat": 52.500534,
    "lng": -2.172286
  },
  {
    "id": "school-103784",
    "type": "school",
    "name": "Red Hall Primary School",
    "address": "Zoar Street, Dudley",
    "postcode": "DY3 2PA",
    "lat": 52.51736,
    "lng": -2.126279
  },
  {
    "id": "school-103790",
    "type": "school",
    "name": "Crestwood Park Primary School",
    "address": "Lapwood Avenue, Kingswinford",
    "postcode": "DY6 8RP",
    "lat": 52.49194,
    "lng": -2.144118
  },
  {
    "id": "school-103791",
    "type": "school",
    "name": "Peters Hill Primary School",
    "address": "Peters Hill Road, Brierley Hill",
    "postcode": "DY5 2QH",
    "lat": 52.462888,
    "lng": -2.13076
  },
  {
    "id": "school-103792",
    "type": "school",
    "name": "Blanford Mere Primary School",
    "address": "Mimosa Walk, Kingswinford",
    "postcode": "DY6 7EA",
    "lat": 52.502981,
    "lng": -2.158416
  },
  {
    "id": "school-103800",
    "type": "school",
    "name": "Wollescote Primary School",
    "address": "Drummond Road, Stourbridge",
    "postcode": "DY9 8YA",
    "lat": 52.453202,
    "lng": -2.105771
  },
  {
    "id": "school-103801",
    "type": "school",
    "name": "Caslon Primary Community School",
    "address": "Beeches View Avenue, Halesowen",
    "postcode": "B63 2ES",
    "lat": 52.451922,
    "lng": -2.087917
  },
  {
    "id": "school-103805",
    "type": "school",
    "name": "The Ridge Primary School",
    "address": "Gregory Road, Stourbridge",
    "postcode": "DY8 3NF",
    "lat": 52.455931,
    "lng": -2.170802
  },
  {
    "id": "school-103806",
    "type": "school",
    "name": "Amblecote Primary School",
    "address": "School Drive, Stourbridge",
    "postcode": "DY8 4DQ",
    "lat": 52.467038,
    "lng": -2.149145
  },
  {
    "id": "school-103810",
    "type": "school",
    "name": "Cotwall End Primary School",
    "address": "Cotwall End Road, Dudley",
    "postcode": "DY3 3YG",
    "lat": 52.536944,
    "lng": -2.124463
  },
  {
    "id": "school-103813",
    "type": "school",
    "name": "Russells Hall Primary School",
    "address": "Overfield Road, Dudley",
    "postcode": "DY1 2NX",
    "lat": 52.507553,
    "lng": -2.115406
  },
  {
    "id": "school-103818",
    "type": "school",
    "name": "Ashwood Park Primary School",
    "address": "Bells Lane, Stourbridge",
    "postcode": "DY8 5DJ",
    "lat": 52.471818,
    "lng": -2.165077
  },
  {
    "id": "school-103819",
    "type": "school",
    "name": "Bromley Hills Primary School",
    "address": "Granville Drive, Kingswinford",
    "postcode": "DY6 8LW",
    "lat": 52.489367,
    "lng": -2.15224
  },
  {
    "id": "school-103821",
    "type": "school",
    "name": "Roberts Primary School",
    "address": "Roberts Primary School,  Robert Street, Dudley",
    "postcode": "DY3 2AZ",
    "lat": 52.520766,
    "lng": -2.118742
  },
  {
    "id": "school-103823",
    "type": "school",
    "name": "Wrens Nest Primary School",
    "address": "Marigold Crescent, Dudley",
    "postcode": "DY1 3NX",
    "lat": 52.523858,
    "lng": -2.100546
  },
  {
    "id": "school-103827",
    "type": "school",
    "name": "Straits Primary School",
    "address": "Longfellow Road, Dudley",
    "postcode": "DY3 3EE",
    "lat": 52.526706,
    "lng": -2.138748
  },
  {
    "id": "school-103828",
    "type": "school",
    "name": "Belle Vue Primary School",
    "address": "Lawnswood Road, Stourbridge",
    "postcode": "DY8 5BZ",
    "lat": 52.480863,
    "lng": -2.171148
  },
  {
    "id": "school-103829",
    "type": "school",
    "name": "Dingle Community Primary School",
    "address": "Madeley Road, Kingswinford",
    "postcode": "DY6 8PF",
    "lat": 52.485779,
    "lng": -2.146189
  },
  {
    "id": "school-103830",
    "type": "school",
    "name": "Quarry Bank Primary School",
    "address": "High Street, Brierley Hill",
    "postcode": "DY5 2AD",
    "lat": 52.472125,
    "lng": -2.099706
  },
  {
    "id": "school-103832",
    "type": "school",
    "name": "Glynne Primary School",
    "address": "Cot Lane, Kingswinford",
    "postcode": "DY6 9TH",
    "lat": 52.487769,
    "lng": -2.170424
  },
  {
    "id": "school-103834",
    "type": "school",
    "name": "Milking Bank Primary School",
    "address": "Milking Bank Primary School, DUDLEY",
    "postcode": "DY1 2SL",
    "lat": 52.515082,
    "lng": -2.111299
  },
  {
    "id": "school-103836",
    "type": "school",
    "name": "St Mark's CofE Primary School",
    "address": "High Street, Brierley Hill",
    "postcode": "DY5 4DZ",
    "lat": 52.500714,
    "lng": -2.129428
  },
  {
    "id": "school-103839",
    "type": "school",
    "name": "Oldswinford C of E Primary School",
    "address": "Field Lane, Stourbridge",
    "postcode": "DY8 2JQ",
    "lat": 52.445963,
    "lng": -2.141908
  },
  {
    "id": "school-103840",
    "type": "school",
    "name": "St Margaret's At Hasbury CofE Primary School",
    "address": "Hagley Road, Halesowen",
    "postcode": "B63 4QD",
    "lat": 52.443776,
    "lng": -2.059856
  },
  {
    "id": "school-103846",
    "type": "school",
    "name": "Cradley CofE Primary School",
    "address": "Church Road, Halesowen",
    "postcode": "B63 2UL",
    "lat": 52.462758,
    "lng": -2.085716
  },
  {
    "id": "school-103851",
    "type": "school",
    "name": "St James's CofE Primary School",
    "address": "Kingsway, Stourbridge",
    "postcode": "DY8 4RU",
    "lat": 52.465792,
    "lng": -2.166629
  },
  {
    "id": "school-103854",
    "type": "school",
    "name": "Summerhill School",
    "address": "Lodge Lane, Kingswinford",
    "postcode": "DY6 9XE",
    "lat": 52.494732,
    "lng": -2.17979
  },
  {
    "id": "school-103855",
    "type": "school",
    "name": "The Dormston School",
    "address": "Mill Bank, Dudley",
    "postcode": "DY3 1SN",
    "lat": 52.540818,
    "lng": -2.117204
  },
  {
    "id": "school-103869",
    "type": "school",
    "name": "Alder Coppice Primary School",
    "address": "Northway, Dudley",
    "postcode": "DY3 3PS",
    "lat": 52.545064,
    "lng": -2.131564
  },
  {
    "id": "school-103870",
    "type": "school",
    "name": "Old Swinford Hospital",
    "address": "Heath Lane, Stourbridge",
    "postcode": "DY8 1QX",
    "lat": 52.450376,
    "lng": -2.142834
  },
  {
    "id": "school-103876",
    "type": "school",
    "name": "Elmfield Rudolf Steiner School Limited",
    "address": "14 Love Lane, Stourbridge",
    "postcode": "DY8 2EA",
    "lat": 52.44505,
    "lng": -2.145907
  },
  {
    "id": "school-103877",
    "type": "school",
    "name": "Sutton School",
    "address": "Scotts Green Close, Dudley",
    "postcode": "DY1 2DU",
    "lat": 52.50466,
    "lng": -2.103508
  },
  {
    "id": "school-103880",
    "type": "school",
    "name": "The Old Park School",
    "address": "Thorns Road, Brierley Hill",
    "postcode": "DY5 2JY",
    "lat": 52.465333,
    "lng": -2.113882
  },
  {
    "id": "school-103882",
    "type": "school",
    "name": "Rosewood School",
    "address": "Bell Street, Bilston",
    "postcode": "WV14 8XJ",
    "lat": 52.549972,
    "lng": -2.083083
  },
  {
    "id": "school-103883",
    "type": "school",
    "name": "Pens Meadow School",
    "address": "Tiled House Lane, Pensnett",
    "postcode": "DY5 4LN",
    "lat": 52.493251,
    "lng": -2.138436
  },
  {
    "id": "school-103887",
    "type": "school",
    "name": "Albright Education Centre",
    "address": "South Tipton Campus Site, Tipton",
    "postcode": "DY4 7NR",
    "lat": 52.531947,
    "lng": -2.048623
  },
  {
    "id": "school-103905",
    "type": "school",
    "name": "Hargate Primary School",
    "address": "Hargate Lane, West Bromwich",
    "postcode": "B71 1PG",
    "lat": 52.524377,
    "lng": -1.993912
  },
  {
    "id": "school-103906",
    "type": "school",
    "name": "Albert Pritchard Infant School",
    "address": "Crew Road, Wednesbury",
    "postcode": "WS10 9QG",
    "lat": 52.561878,
    "lng": -2.012201
  },
  {
    "id": "school-103909",
    "type": "school",
    "name": "Old Park Primary School",
    "address": "Old Park Road, Wednesbury",
    "postcode": "WS10 9LX",
    "lat": 52.561256,
    "lng": -2.02272
  },
  {
    "id": "school-103910",
    "type": "school",
    "name": "Park Hill Primary School",
    "address": "Coronation Road, Wednesbury",
    "postcode": "WS10 0TJ",
    "lat": 52.55803,
    "lng": -1.996297
  },
  {
    "id": "school-103913",
    "type": "school",
    "name": "Wood Green Junior School",
    "address": "Hobs Road, Wednesbury",
    "postcode": "WS10 9BW",
    "lat": 52.55963,
    "lng": -2.014487
  },
  {
    "id": "school-103915",
    "type": "school",
    "name": "Great Bridge Primary School",
    "address": "Mount Street, Tipton",
    "postcode": "DY4 7DE",
    "lat": 52.532823,
    "lng": -2.03764
  },
  {
    "id": "school-103919",
    "type": "school",
    "name": "Ocker Hill Infant School",
    "address": "Gospel Oak Road, Tipton",
    "postcode": "DY4 0DS",
    "lat": 52.543297,
    "lng": -2.038932
  },
  {
    "id": "school-103925",
    "type": "school",
    "name": "Glebefields Primary School",
    "address": "Sandgate Road, Tipton",
    "postcode": "DY4 0SX",
    "lat": 52.542922,
    "lng": -2.05421
  },
  {
    "id": "school-103953",
    "type": "school",
    "name": "Perryfields Primary School",
    "address": "Apsley Road, Oldbury",
    "postcode": "B68 0QY",
    "lat": 52.465036,
    "lng": -2.01079
  },
  {
    "id": "school-103960",
    "type": "school",
    "name": "Tividale Hall Primary School",
    "address": "Regent Road, Oldbury",
    "postcode": "B69 1TR",
    "lat": 52.507568,
    "lng": -2.057099
  },
  {
    "id": "school-103969",
    "type": "school",
    "name": "Lodge Primary School",
    "address": "Oak Lane, West Bromwich",
    "postcode": "B70 8PN",
    "lat": 52.517247,
    "lng": -2.002211
  },
  {
    "id": "school-103970",
    "type": "school",
    "name": "Joseph Turner Primary School",
    "address": "Powis Avenue, Tipton",
    "postcode": "DY4 0RN",
    "lat": 52.535534,
    "lng": -2.04792
  },
  {
    "id": "school-103974",
    "type": "school",
    "name": "Yew Tree Primary School",
    "address": "Birchfield Way, Walsall",
    "postcode": "WS5 4DX",
    "lat": 52.559973,
    "lng": -1.954739
  },
  {
    "id": "school-103977",
    "type": "school",
    "name": "Hall Green Primary School",
    "address": "Westminster Road, West Bromwich",
    "postcode": "B71 2JQ",
    "lat": 52.545452,
    "lng": -1.990193
  },
  {
    "id": "school-103978",
    "type": "school",
    "name": "Langley Primary School",
    "address": "Titford Road, Oldbury",
    "postcode": "B69 4QB",
    "lat": 52.49138,
    "lng": -2.013949
  },
  {
    "id": "school-103979",
    "type": "school",
    "name": "Ryders Green Primary School",
    "address": "Claypit Lane, West Bromwich",
    "postcode": "B70 9UJ",
    "lat": 52.523783,
    "lng": -2.012102
  },
  {
    "id": "school-103982",
    "type": "school",
    "name": "Ferndale Primary School",
    "address": "Ferndale Avenue, Birmingham",
    "postcode": "B43 5QF",
    "lat": 52.538951,
    "lng": -1.933718
  },
  {
    "id": "school-103987",
    "type": "school",
    "name": "St Martin's CofE Primary School",
    "address": "Lower Church Lane, Tipton",
    "postcode": "DY4 7PG",
    "lat": 52.528,
    "lng": -2.049002
  },
  {
    "id": "school-103990",
    "type": "school",
    "name": "All Saints CofE Primary School",
    "address": "Wilford Road, West Bromwich",
    "postcode": "B71 1QN",
    "lat": 52.531012,
    "lng": -1.992584
  },
  {
    "id": "school-104018",
    "type": "school",
    "name": "Holly Lodge High School College of Science",
    "address": "Holly Lane, Smethwick",
    "postcode": "B67 7JG",
    "lat": 52.497799,
    "lng": -1.986889
  },
  {
    "id": "school-104039",
    "type": "school",
    "name": "Blossomfield Infant and Nursery School",
    "address": "Eastcote Close, Solihull",
    "postcode": "B90 3QX",
    "lat": 52.410595,
    "lng": -1.815171
  },
  {
    "id": "school-104040",
    "type": "school",
    "name": "Burman Infant School",
    "address": "Velsheda Road, Solihull",
    "postcode": "B90 2JW",
    "lat": 52.405644,
    "lng": -1.835067
  },
  {
    "id": "school-104049",
    "type": "school",
    "name": "Sharmans Cross Junior School",
    "address": "Sharmans Cross Road, Solihull",
    "postcode": "B91 1PH",
    "lat": 52.413993,
    "lng": -1.803511
  },
  {
    "id": "school-104053",
    "type": "school",
    "name": "Woodlands Infant School",
    "address": "Woodlands Lane, Solihull",
    "postcode": "B90 2PX",
    "lat": 52.398816,
    "lng": -1.826274
  },
  {
    "id": "school-104065",
    "type": "school",
    "name": "Tidbury Green School",
    "address": "Dickens Heath Road, Solihull",
    "postcode": "B90 1QW",
    "lat": 52.38029,
    "lng": -1.849737
  },
  {
    "id": "school-104076",
    "type": "school",
    "name": "Olton Primary School",
    "address": "Lyndon Road, Solihull",
    "postcode": "B92 7QF",
    "lat": 52.445234,
    "lng": -1.796118
  },
  {
    "id": "school-104084",
    "type": "school",
    "name": "Monkspath Junior and Infant School",
    "address": "Farmhouse Way, Solihull",
    "postcode": "B90 4EH",
    "lat": 52.389836,
    "lng": -1.784249
  },
  {
    "id": "school-104087",
    "type": "school",
    "name": "Meriden Church of England Primary School",
    "address": "Fillongley Road, Coventry",
    "postcode": "CV7 7LW",
    "lat": 52.439368,
    "lng": -1.642929
  },
  {
    "id": "school-104092",
    "type": "school",
    "name": "St Alphege Church of England Junior School",
    "address": "Widney Manor Road, Solihull",
    "postcode": "B91 3JG",
    "lat": 52.405597,
    "lng": -1.774411
  },
  {
    "id": "school-104093",
    "type": "school",
    "name": "Berkswell Church of England Voluntary Aided Primary School",
    "address": "Church Lane, Coventry",
    "postcode": "CV7 7BJ",
    "lat": 52.409231,
    "lng": -1.640365
  },
  {
    "id": "school-104105",
    "type": "school",
    "name": "Bishop Wilson Church of England Primary School",
    "address": "10 Craig Croft, Birmingham",
    "postcode": "B37 7TR",
    "lat": 52.478434,
    "lng": -1.727255
  },
  {
    "id": "school-104131",
    "type": "school",
    "name": "Reynalds Cross School",
    "address": "Kineton Green Road, Solihull",
    "postcode": "B92 7ER",
    "lat": 52.427775,
    "lng": -1.813702
  },
  {
    "id": "school-104132",
    "type": "school",
    "name": "Forest Oak School",
    "address": "Windward Way, Birmingham",
    "postcode": "B36 0UE",
    "lat": 52.497473,
    "lng": -1.745611
  },
  {
    "id": "school-104133",
    "type": "school",
    "name": "Merstone School",
    "address": "Windward Way, Birmingham",
    "postcode": "B36 0UE",
    "lat": 52.497473,
    "lng": -1.745611
  },
  {
    "id": "school-104134",
    "type": "school",
    "name": "Sandbank Nursery School",
    "address": "Elmore Row, Walsall",
    "postcode": "WS3 2HR",
    "lat": 52.616084,
    "lng": -2.005643
  },
  {
    "id": "school-104135",
    "type": "school",
    "name": "Fullbrook Nursery School",
    "address": "West Bromwich Road, Walsall",
    "postcode": "WS5 4NN",
    "lat": 52.566525,
    "lng": -1.978989
  },
  {
    "id": "school-104136",
    "type": "school",
    "name": "Rowley View Nursery School",
    "address": "149 Dangerfield Lane, Wednesbury",
    "postcode": "WS10 7RU",
    "lat": 52.562367,
    "lng": -2.038344
  },
  {
    "id": "school-104137",
    "type": "school",
    "name": "Valley Nursery School",
    "address": "Blakenall Heath, Walsall",
    "postcode": "WS3 1HT",
    "lat": 52.614223,
    "lng": -1.988966
  },
  {
    "id": "school-104138",
    "type": "school",
    "name": "Millfields Nursery School",
    "address": "Lichfield Road, Walsall",
    "postcode": "WS3 3LU",
    "lat": 52.623205,
    "lng": -1.997341
  },
  {
    "id": "school-104139",
    "type": "school",
    "name": "Lane Head Nursery School",
    "address": "High Road, Willenhall",
    "postcode": "WV12 4JQ",
    "lat": 52.600983,
    "lng": -2.035174
  },
  {
    "id": "school-104140",
    "type": "school",
    "name": "Alumwell Nursery School",
    "address": "Primley Avenue, Walsall",
    "postcode": "WS2 9UP",
    "lat": 52.584805,
    "lng": -2.00679
  },
  {
    "id": "school-104141",
    "type": "school",
    "name": "Ogley Hay Nursery School",
    "address": "Brickiln Street, Walsall",
    "postcode": "WS8 6AU",
    "lat": 52.646128,
    "lng": -1.928131
  },
  {
    "id": "school-104142",
    "type": "school",
    "name": "Alumwell Junior School",
    "address": "Primley Avenue, Walsall",
    "postcode": "WS2 9UP",
    "lat": 52.585407,
    "lng": -2.006628
  },
  {
    "id": "school-104143",
    "type": "school",
    "name": "Alumwell Infant School",
    "address": "Primley Avenue, Walsall",
    "postcode": "WS2 9UP",
    "lat": 52.585407,
    "lng": -2.006628
  },
  {
    "id": "school-104147",
    "type": "school",
    "name": "Butts Primary School",
    "address": "Butts Road, Walsall",
    "postcode": "WS4 2AH",
    "lat": 52.591051,
    "lng": -1.975641
  },
  {
    "id": "school-104153",
    "type": "school",
    "name": "Elmore Green Primary School",
    "address": "Elmore Green Road, Walsall",
    "postcode": "WS3 2HW",
    "lat": 52.615994,
    "lng": -2.006692
  },
  {
    "id": "school-104157",
    "type": "school",
    "name": "Leamore Primary School",
    "address": "Bloxwich Road, Walsall",
    "postcode": "WS3 2BB",
    "lat": 52.610033,
    "lng": -1.995909
  },
  {
    "id": "school-104160",
    "type": "school",
    "name": "Palfrey Junior School",
    "address": "Dale Street, Walsall",
    "postcode": "WS1 4AH",
    "lat": 52.57255,
    "lng": -1.986984
  },
  {
    "id": "school-104162",
    "type": "school",
    "name": "Whitehall Junior Community School",
    "address": "Delves Road, Walsall",
    "postcode": "WS1 3JY",
    "lat": 52.570731,
    "lng": -1.971358
  },
  {
    "id": "school-104169",
    "type": "school",
    "name": "Lower Farm Primary School",
    "address": "Bakewell Close, Walsall",
    "postcode": "WS3 3QH",
    "lat": 52.628464,
    "lng": -1.996897
  },
  {
    "id": "school-104175",
    "type": "school",
    "name": "King Charles Primary School",
    "address": "Wilkes Avenue, Walsall",
    "postcode": "WS2 0JN",
    "lat": 52.587582,
    "lng": -2.017906
  },
  {
    "id": "school-104176",
    "type": "school",
    "name": "Pinfold Street Primary School",
    "address": "Pinfold Street Extension, Wednesbury",
    "postcode": "WS10 8PU",
    "lat": 52.564731,
    "lng": -2.040146
  },
  {
    "id": "school-104178",
    "type": "school",
    "name": "Salisbury Primary School",
    "address": "Salisbury Street, Wednesbury",
    "postcode": "WS10 8BQ",
    "lat": 52.57164,
    "lng": -2.022474
  },
  {
    "id": "school-104179",
    "type": "school",
    "name": "Kings Hill Primary School",
    "address": "Old Park Road, Wednesbury",
    "postcode": "WS10 9JG",
    "lat": 52.565085,
    "lng": -2.025938
  },
  {
    "id": "school-104187",
    "type": "school",
    "name": "New Invention Infant School",
    "address": "Cannock Road, Willenhall",
    "postcode": "WV12 5SA",
    "lat": 52.608867,
    "lng": -2.039818
  },
  {
    "id": "school-104188",
    "type": "school",
    "name": "Short Heath Junior School",
    "address": "Pennine Way, Willenhall",
    "postcode": "WV12 4DS",
    "lat": 52.597729,
    "lng": -2.034935
  },
  {
    "id": "school-104189",
    "type": "school",
    "name": "County Bridge Primary School",
    "address": "Anson Road, Walsall",
    "postcode": "WS2 0DH",
    "lat": 52.583489,
    "lng": -2.027661
  },
  {
    "id": "school-104191",
    "type": "school",
    "name": "Pool Hayes Primary School",
    "address": "Bridgnorth Grove, Willenhall",
    "postcode": "WV12 4RX",
    "lat": 52.604062,
    "lng": -2.049013
  },
  {
    "id": "school-104198",
    "type": "school",
    "name": "Whetstone Field Primary School",
    "address": "Beaufort Way, Walsall",
    "postcode": "WS9 0HJ",
    "lat": 52.594746,
    "lng": -1.916123
  },
  {
    "id": "school-104202",
    "type": "school",
    "name": "Watling Street Primary School",
    "address": "Watling Street, Walsall",
    "postcode": "WS8 7LW",
    "lat": 52.655744,
    "lng": -1.937253
  },
  {
    "id": "school-104203",
    "type": "school",
    "name": "Millfield Primary School",
    "address": "Catshill Road, Walsall",
    "postcode": "WS8 6BN",
    "lat": 52.643192,
    "lng": -1.920746
  },
  {
    "id": "school-104207",
    "type": "school",
    "name": "Radleys Primary School",
    "address": "Kings Road, Walsall",
    "postcode": "WS4 1JJ",
    "lat": 52.607783,
    "lng": -1.947837
  },
  {
    "id": "school-104214",
    "type": "school",
    "name": "Pelsall Village School",
    "address": "Old Town Lane, Walsall",
    "postcode": "WS3 4NJ",
    "lat": 52.629648,
    "lng": -1.971645
  },
  {
    "id": "school-104223",
    "type": "school",
    "name": "Holy Trinity Church of England Primary School",
    "address": "Church Street, Walsall",
    "postcode": "WS8 7EG",
    "lat": 52.63895,
    "lng": -1.93908
  },
  {
    "id": "school-104225",
    "type": "school",
    "name": "Rosedale Church of England C Infant School",
    "address": "Stroud Avenue, Willenhall",
    "postcode": "WV12 4EG",
    "lat": 52.5979,
    "lng": -2.033429
  },
  {
    "id": "school-104226",
    "type": "school",
    "name": "St Giles Church of England Primary School",
    "address": "Walsall Street, Willenhall",
    "postcode": "WV13 2ER",
    "lat": 52.583797,
    "lng": -2.048489
  },
  {
    "id": "school-104227",
    "type": "school",
    "name": "St Michael's Church of England C Primary School",
    "address": "Maple Road, Walsall",
    "postcode": "WS3 4JJ",
    "lat": 52.623723,
    "lng": -1.971102
  },
  {
    "id": "school-104228",
    "type": "school",
    "name": "St John's Church of England Primary School",
    "address": "Brook Lane, Walsall",
    "postcode": "WS9 9NA",
    "lat": 52.626698,
    "lng": -1.927055
  },
  {
    "id": "school-104230",
    "type": "school",
    "name": "Blue Coat Church of England Aided Junior School",
    "address": "Springhill Road, Walsall",
    "postcode": "WS1 2LP",
    "lat": 52.580855,
    "lng": -1.972385
  },
  {
    "id": "school-104231",
    "type": "school",
    "name": "Blue Coat Church of England Aided Infant School",
    "address": "Hanch Place, Walsall",
    "postcode": "WS1 3AF",
    "lat": 52.579624,
    "lng": -1.97426
  },
  {
    "id": "school-104232",
    "type": "school",
    "name": "St Mary's The Mount Catholic Primary School",
    "address": "Jesson Road, Walsall",
    "postcode": "WS1 3AY",
    "lat": 52.575828,
    "lng": -1.969362
  },
  {
    "id": "school-104233",
    "type": "school",
    "name": "St Patrick's Catholic Primary School, Walsall",
    "address": "Blue Lane East, Walsall",
    "postcode": "WS2 8HN",
    "lat": 52.589381,
    "lng": -1.984883
  },
  {
    "id": "school-104234",
    "type": "school",
    "name": "St Peter's Catholic Primary School, Bloxwich",
    "address": "Lichfield Road, Walsall",
    "postcode": "WS3 3LY",
    "lat": 52.620238,
    "lng": -2.000488
  },
  {
    "id": "school-104235",
    "type": "school",
    "name": "St Joseph's Catholic Primary School, Darlaston",
    "address": "Rough Hay Road, Wednesbury",
    "postcode": "WS10 8HN",
    "lat": 52.57241,
    "lng": -2.036597
  },
  {
    "id": "school-104236",
    "type": "school",
    "name": "St Thomas of Canterbury Catholic Primary School",
    "address": "Dartmouth Avenue, Walsall",
    "postcode": "WS3 1SP",
    "lat": 52.603746,
    "lng": -1.976165
  },
  {
    "id": "school-104239",
    "type": "school",
    "name": "St Francis Catholic Primary School",
    "address": "Mill Road, Walsall",
    "postcode": "WS4 1RH",
    "lat": 52.61736,
    "lng": -1.950735
  },
  {
    "id": "school-104240",
    "type": "school",
    "name": "St Mary of the Angels Catholic Primary School",
    "address": "Weston Crescent, Walsall",
    "postcode": "WS9 0HA",
    "lat": 52.598565,
    "lng": -1.912956
  },
  {
    "id": "school-104241",
    "type": "school",
    "name": "St Anne's Catholic Primary School, Streetly",
    "address": "Blackwood Road, Sutton Coldfield",
    "postcode": "B74 3PL",
    "lat": 52.578982,
    "lng": -1.889602
  },
  {
    "id": "school-104255",
    "type": "school",
    "name": "St Francis of Assisi Catholic College",
    "address": "Erdington Road, Walsall",
    "postcode": "WS9 0RN",
    "lat": 52.598482,
    "lng": -1.910122
  },
  {
    "id": "school-104259",
    "type": "school",
    "name": "St Thomas More Catholic School, Willenhall",
    "address": "Darlaston Lane, Willenhall",
    "postcode": "WV14 7BL",
    "lat": 52.572917,
    "lng": -2.052019
  },
  {
    "id": "school-104265",
    "type": "school",
    "name": "Mayfield Preparatory School",
    "address": "Sutton Road",
    "postcode": "WS1 2PD",
    "lat": 52.578624,
    "lng": -1.967206
  },
  {
    "id": "school-104266",
    "type": "school",
    "name": "Hydesville Tower School",
    "address": "25, Broadway North",
    "postcode": "WS1 2QG",
    "lat": 52.587543,
    "lng": -1.96869
  },
  {
    "id": "school-104269",
    "type": "school",
    "name": "Castle School",
    "address": "Odell Road, Walsall",
    "postcode": "WS3 2ED",
    "lat": 52.606905,
    "lng": -2.000665
  },
  {
    "id": "school-104271",
    "type": "school",
    "name": "Jane Lane School",
    "address": "Churchill Road, Walsall",
    "postcode": "WS2 0JH",
    "lat": 52.590495,
    "lng": -2.014822
  },
  {
    "id": "school-104274",
    "type": "school",
    "name": "Old Hall School",
    "address": "Bentley Lane, Walsall",
    "postcode": "WS2 7LU",
    "lat": 52.599287,
    "lng": -2.02305
  },
  {
    "id": "school-104278",
    "type": "school",
    "name": "Low Hill Nursery School",
    "address": "Jenks Avenue, Wolverhampton",
    "postcode": "WV10 9JN",
    "lat": 52.611247,
    "lng": -2.11333
  },
  {
    "id": "school-104279",
    "type": "school",
    "name": "Ashmore Park Nursery School",
    "address": "Griffiths Drive, Wolverhampton",
    "postcode": "WV11 2LH",
    "lat": 52.613426,
    "lng": -2.058462
  },
  {
    "id": "school-104280",
    "type": "school",
    "name": "Eastfield Nursery School",
    "address": "Griffin Street, Wolverhampton",
    "postcode": "WV1 2HH",
    "lat": 52.583482,
    "lng": -2.104535
  },
  {
    "id": "school-104281",
    "type": "school",
    "name": "Phoenix Nursery School",
    "address": "Phoenix Street, Wolverhampton",
    "postcode": "WV2 3JS",
    "lat": 52.569719,
    "lng": -2.121412
  },
  {
    "id": "school-104283",
    "type": "school",
    "name": "Windsor Nursery School",
    "address": "Parkfield Road, Wolverhampton",
    "postcode": "WV4 6EL",
    "lat": 52.565797,
    "lng": -2.105393
  },
  {
    "id": "school-104285",
    "type": "school",
    "name": "Bushbury Nursery School",
    "address": "Bushbury Lane, Wolverhampton",
    "postcode": "WV10 8JP",
    "lat": 52.619816,
    "lng": -2.112923
  },
  {
    "id": "school-104290",
    "type": "school",
    "name": "Bushbury Hill Primary School",
    "address": "Old Fallings Lane, Wolverhampton",
    "postcode": "WV10 8BY",
    "lat": 52.617124,
    "lng": -2.106786
  },
  {
    "id": "school-104297",
    "type": "school",
    "name": "Whitgreave Primary School",
    "address": "Goodyear Avenue, Wolverhampton",
    "postcode": "WV10 9JP",
    "lat": 52.611541,
    "lng": -2.11559
  },
  {
    "id": "school-104302",
    "type": "school",
    "name": "Graiseley Primary School",
    "address": "Pool Street, Wolverhampton",
    "postcode": "WV2 4NE",
    "lat": 52.576047,
    "lng": -2.131628
  },
  {
    "id": "school-104304",
    "type": "school",
    "name": "Rakegate Primary School",
    "address": "Rakegate Close, Wolverhampton",
    "postcode": "WV10 6US",
    "lat": 52.61882,
    "lng": -2.136542
  },
  {
    "id": "school-104310",
    "type": "school",
    "name": "Claregate Primary School",
    "address": "Chester Avenue, Wolverhampton",
    "postcode": "WV6 9JU",
    "lat": 52.606967,
    "lng": -2.153563
  },
  {
    "id": "school-104311",
    "type": "school",
    "name": "Castlecroft Primary School",
    "address": "Windmill Crescent, Wolverhampton",
    "postcode": "WV3 8HS",
    "lat": 52.578678,
    "lng": -2.181477
  },
  {
    "id": "school-104315",
    "type": "school",
    "name": "Loxdale Primary School",
    "address": "Dudley Street, Bilston",
    "postcode": "WV14 0AU",
    "lat": 52.559482,
    "lng": -2.073128
  },
  {
    "id": "school-104317",
    "type": "school",
    "name": "Stowlawn Primary School",
    "address": "Green Park Avenue, Bilston",
    "postcode": "WV14 6EH",
    "lat": 52.576061,
    "lng": -2.086556
  },
  {
    "id": "school-104320",
    "type": "school",
    "name": "Long Knowle Primary School",
    "address": "Blackwood Avenue, Wolverhampton",
    "postcode": "WV11 1EB",
    "lat": 52.612051,
    "lng": -2.087292
  },
  {
    "id": "school-104322",
    "type": "school",
    "name": "Wood End Primary School",
    "address": "Wood End Road, Wolverhampton",
    "postcode": "WV11 1YQ",
    "lat": 52.610015,
    "lng": -2.08045
  },
  {
    "id": "school-104323",
    "type": "school",
    "name": "Stow Heath Primary School",
    "address": "Hill Road, Willenhall",
    "postcode": "WV13 3TT",
    "lat": 52.580529,
    "lng": -2.073975
  },
  {
    "id": "school-104325",
    "type": "school",
    "name": "Wilkinson Primary School",
    "address": "Walter Road, Bilston",
    "postcode": "WV14 8UR",
    "lat": 52.554253,
    "lng": -2.066438
  },
  {
    "id": "school-104327",
    "type": "school",
    "name": "Lanesfield Primary School",
    "address": "Newman Avenue, Wolverhampton",
    "postcode": "WV4 6BZ",
    "lat": 52.557087,
    "lng": -2.102421
  },
  {
    "id": "school-104332",
    "type": "school",
    "name": "Uplands Junior School",
    "address": "Finchfield Road West, Wolverhampton",
    "postcode": "WV3 8BA",
    "lat": 52.578674,
    "lng": -2.165684
  },
  {
    "id": "school-104342",
    "type": "school",
    "name": "Eastfield Primary School",
    "address": "Colliery Road, Wolverhampton",
    "postcode": "WV1 2QY",
    "lat": 52.584462,
    "lng": -2.105142
  },
  {
    "id": "school-104345",
    "type": "school",
    "name": "Wodensfield Primary School",
    "address": "Woden Avenue, Wolverhampton",
    "postcode": "WV11 1PW",
    "lat": 52.604165,
    "lng": -2.088266
  },
  {
    "id": "school-104362",
    "type": "school",
    "name": "Christ Church (Church of England) Infant and Nursery School",
    "address": "Shaw Lane, Wolverhampton",
    "postcode": "WV6 8EL",
    "lat": 52.589682,
    "lng": -2.182186
  },
  {
    "id": "school-104366",
    "type": "school",
    "name": "Christ Church (Church of England) Junior School",
    "address": "Woodcote Road, Wolverhampton",
    "postcode": "WV6 8LG",
    "lat": 52.593746,
    "lng": -2.176106
  },
  {
    "id": "school-104372",
    "type": "school",
    "name": "St Luke's Church of England Aided Primary School",
    "address": "Park Street South, Wolverhampton",
    "postcode": "WV2 3AE",
    "lat": 52.570989,
    "lng": -2.127599
  },
  {
    "id": "school-104378",
    "type": "school",
    "name": "Holy Trinity Catholic Primary School",
    "address": "Fraser Street, Bilston",
    "postcode": "WV14 7PD",
    "lat": 52.566651,
    "lng": -2.068655
  },
  {
    "id": "school-104382",
    "type": "school",
    "name": "St Paul's Church of England Aided Primary School",
    "address": "Emsworth Crescent, Wolverhampton",
    "postcode": "WV9 5NR",
    "lat": 52.620916,
    "lng": -2.143167
  },
  {
    "id": "school-104387",
    "type": "school",
    "name": "St Matthias School",
    "address": "Deans Road, Wolverhampton",
    "postcode": "WV1 2BH",
    "lat": 52.585187,
    "lng": -2.086117
  },
  {
    "id": "school-104395",
    "type": "school",
    "name": "Colton Hills Community School",
    "address": "Jeremy Road, Wolverhampton",
    "postcode": "WV4 5DG",
    "lat": 52.560812,
    "lng": -2.135064
  },
  {
    "id": "school-104407",
    "type": "school",
    "name": "Tettenhall College Incorporated",
    "address": "Wood Road, Wolverhampton",
    "postcode": "WV6 8QX",
    "lat": 52.595594,
    "lng": -2.166649
  },
  {
    "id": "school-104408",
    "type": "school",
    "name": "Newbridge Preparatory School",
    "address": "51 Newbridge Crescent, Wolverhampton",
    "postcode": "WV6 0LH",
    "lat": 52.593833,
    "lng": -2.158832
  },
  {
    "id": "school-104411",
    "type": "school",
    "name": "Wolverhampton Grammar School",
    "address": "Compton Road, Wolverhampton",
    "postcode": "WV3 9RB",
    "lat": 52.585378,
    "lng": -2.147878
  },
  {
    "id": "school-104412",
    "type": "school",
    "name": "Penn Fields School",
    "address": "Boundary Way, Wolverhampton",
    "postcode": "WV4 4NT",
    "lat": 52.565596,
    "lng": -2.176008
  },
  {
    "id": "school-104415",
    "type": "school",
    "name": "Green Park School",
    "address": "Green Park Avenue, Bilston",
    "postcode": "WV14 6EH",
    "lat": 52.575243,
    "lng": -2.086791
  },
  {
    "id": "school-106849",
    "type": "school",
    "name": "Thornhill Primary School",
    "address": "Clough Bank, Rotherham",
    "postcode": "S61 1TD",
    "lat": 53.434179,
    "lng": -1.370932
  },
  {
    "id": "school-107046",
    "type": "school",
    "name": "Halfway Junior School",
    "address": "Halfway Centre, Sheffield",
    "postcode": "S20 4TA",
    "lat": 53.323831,
    "lng": -1.351069
  },
  {
    "id": "school-107117",
    "type": "school",
    "name": "Deepcar St John's Church of England Junior School",
    "address": "St Margaret Avenue, Sheffield",
    "postcode": "S36 2TE",
    "lat": 53.473523,
    "lng": -1.576207
  },
  {
    "id": "school-111039",
    "type": "school",
    "name": "Scholar Green Primary School",
    "address": "Congleton Road, Stoke-on-Trent",
    "postcode": "ST7 3HF",
    "lat": 53.108749,
    "lng": -2.249749
  },
  {
    "id": "school-111159",
    "type": "school",
    "name": "Rode Heath Primary School",
    "address": "Heath Avenue, Stoke-on-Trent",
    "postcode": "ST7 3RY",
    "lat": 53.113285,
    "lng": -2.287353
  },
  {
    "id": "school-111255",
    "type": "school",
    "name": "Woodcocks' Well CofE Primary School",
    "address": "Church Street, Stoke-on-Trent",
    "postcode": "ST7 3NQ",
    "lat": 53.107926,
    "lng": -2.220702
  },
  {
    "id": "school-111339",
    "type": "school",
    "name": "St Gabriel's Catholic Primary School",
    "address": "Well Lane, Stoke-on-Trent",
    "postcode": "ST7 2PG",
    "lat": 53.093211,
    "lng": -2.3088
  },
  {
    "id": "school-112651",
    "type": "school",
    "name": "Deer Park Primary School",
    "address": "New Road, Chesterfield",
    "postcode": "S42 6TD",
    "lat": 53.199513,
    "lng": -1.438721
  },
  {
    "id": "school-112659",
    "type": "school",
    "name": "Cavendish Junior School",
    "address": "Edmund Street, Chesterfield",
    "postcode": "S41 8TD",
    "lat": 53.260495,
    "lng": -1.43356
  },
  {
    "id": "school-112798",
    "type": "school",
    "name": "Barlow CofE Primary School",
    "address": "Millcross Lane, Dronfield",
    "postcode": "S18 7TA",
    "lat": 53.271734,
    "lng": -1.48755
  },
  {
    "id": "school-112858",
    "type": "school",
    "name": "Stoney Middleton CofE (C) Primary School",
    "address": "High Street, Hope Valley",
    "postcode": "S32 4TL",
    "lat": 53.274993,
    "lng": -1.656836
  },
  {
    "id": "school-113003",
    "type": "school",
    "name": "Abbotsholme School",
    "address": "Rocester, Uttoxeter",
    "postcode": "ST14 5BS",
    "lat": 52.944109,
    "lng": -1.824008
  },
  {
    "id": "school-115661",
    "type": "school",
    "name": "Willersey Church of England Primary School",
    "address": "Church Street, Broadway",
    "postcode": "WR12 7PN",
    "lat": 52.054885,
    "lng": -1.84507
  },
  {
    "id": "school-116645",
    "type": "school",
    "name": "Almeley Primary School",
    "address": "Almeley, Hereford",
    "postcode": "HR3 6LH",
    "lat": 52.158283,
    "lng": -2.971436
  },
  {
    "id": "school-116646",
    "type": "school",
    "name": "Crown Meadow First School & Nursery",
    "address": "Birmingham Road, Birmingham",
    "postcode": "B48 7TA",
    "lat": 52.354629,
    "lng": -1.961101
  },
  {
    "id": "school-116650",
    "type": "school",
    "name": "Ashton-under-Hill First School",
    "address": "Elmley Road, Evesham",
    "postcode": "WR11 7SW",
    "lat": 52.039287,
    "lng": -2.00331
  },
  {
    "id": "school-116656",
    "type": "school",
    "name": "Broadway First School",
    "address": "Lime Tree Avenue, Broadway",
    "postcode": "WR12 7BD",
    "lat": 52.040231,
    "lng": -1.85384
  },
  {
    "id": "school-116661",
    "type": "school",
    "name": "Lickey End First School",
    "address": "School Lane, Bromsgrove",
    "postcode": "B60 1JG",
    "lat": 52.350986,
    "lng": -2.043139
  },
  {
    "id": "school-116668",
    "type": "school",
    "name": "Clifford Primary School",
    "address": "Hardwicke, Clifford",
    "postcode": "HR3 5HA",
    "lat": 52.093666,
    "lng": -3.068327
  },
  {
    "id": "school-116669",
    "type": "school",
    "name": "Clifton upon Teme Primary School",
    "address": "Pound Lane, Worcester",
    "postcode": "WR6 6DE",
    "lat": 52.250653,
    "lng": -2.419032
  },
  {
    "id": "school-116671",
    "type": "school",
    "name": "Westlands First School",
    "address": "Farmers Way, Droitwich",
    "postcode": "WR9 9EQ",
    "lat": 52.275559,
    "lng": -2.164523
  },
  {
    "id": "school-116672",
    "type": "school",
    "name": "Chawson First School",
    "address": "Wych Road, Droitwich",
    "postcode": "WR9 8BW",
    "lat": 52.259661,
    "lng": -2.15894
  },
  {
    "id": "school-116673",
    "type": "school",
    "name": "Swan Lane First School",
    "address": "Rynal Street, Evesham",
    "postcode": "WR11 4QA",
    "lat": 52.094293,
    "lng": -1.943109
  },
  {
    "id": "school-116674",
    "type": "school",
    "name": "Ewyas Harold Primary School",
    "address": "Ewyas Harold, Hereford",
    "postcode": "HR2 0EY",
    "lat": 51.953027,
    "lng": -2.890212
  },
  {
    "id": "school-116676",
    "type": "school",
    "name": "Flyford Flavell Primary School",
    "address": "Radford Road, Worcester",
    "postcode": "WR7 4BS",
    "lat": 52.19214,
    "lng": -2.02891
  },
  {
    "id": "school-116677",
    "type": "school",
    "name": "Garway Primary School",
    "address": "Garway, Hereford",
    "postcode": "HR2 8RQ",
    "lat": 51.900293,
    "lng": -2.783303
  },
  {
    "id": "school-116678",
    "type": "school",
    "name": "Hagley Primary School",
    "address": "Park Road, Stourbridge",
    "postcode": "DY9 0NS",
    "lat": 52.421919,
    "lng": -2.135124
  },
  {
    "id": "school-116679",
    "type": "school",
    "name": "Broadlands Primary School",
    "address": "Broadlands Lane, Hereford",
    "postcode": "HR1 1HY",
    "lat": 52.063765,
    "lng": -2.694775
  },
  {
    "id": "school-116680",
    "type": "school",
    "name": "Hampton Dene Primary School",
    "address": "Church Road, Hereford",
    "postcode": "HR1 1RT",
    "lat": 52.054289,
    "lng": -2.685351
  },
  {
    "id": "school-116686",
    "type": "school",
    "name": "Trinity Primary School",
    "address": "Barricombe Drive, Hereford",
    "postcode": "HR4 0NU",
    "lat": 52.067557,
    "lng": -2.740938
  },
  {
    "id": "school-116701",
    "type": "school",
    "name": "Kington Primary School",
    "address": "Mill Street, Kington",
    "postcode": "HR5 3AL",
    "lat": 52.202565,
    "lng": -3.031101
  },
  {
    "id": "school-116702",
    "type": "school",
    "name": "Ledbury Primary School",
    "address": "Ledbury",
    "postcode": "HR8 2BE",
    "lat": 52.038939,
    "lng": -2.428612
  },
  {
    "id": "school-116705",
    "type": "school",
    "name": "Longtown Community Primary School",
    "address": "Longtown, Hereford",
    "postcode": "HR2 0LE",
    "lat": 51.957442,
    "lng": -2.989329
  },
  {
    "id": "school-116707",
    "type": "school",
    "name": "Luston Primary School",
    "address": "Westland View, Leominster",
    "postcode": "HR6 0EA",
    "lat": 52.264834,
    "lng": -2.75514
  },
  {
    "id": "school-116708",
    "type": "school",
    "name": "Madley Primary School",
    "address": "Madley, Hereford",
    "postcode": "HR2 9PH",
    "lat": 52.044376,
    "lng": -2.84768
  },
  {
    "id": "school-116714",
    "type": "school",
    "name": "Michaelchurch Escley Primary School",
    "address": "Michaelchurch Escley, Hereford",
    "postcode": "HR2 0PT",
    "lat": 52.012687,
    "lng": -3.005571
  },
  {
    "id": "school-116715",
    "type": "school",
    "name": "Pebworth First School",
    "address": "Back Lane, Stratford-upon-Avon",
    "postcode": "CV37 8XA",
    "lat": 52.119264,
    "lng": -1.807746
  },
  {
    "id": "school-116716",
    "type": "school",
    "name": "Abbey Park Primary School",
    "address": "Abbey Road, Pershore",
    "postcode": "WR10 1DF",
    "lat": 52.109925,
    "lng": -2.079751
  },
  {
    "id": "school-116718",
    "type": "school",
    "name": "Peterchurch Primary School",
    "address": "Peterchurch, Hereford",
    "postcode": "HR2 0RP",
    "lat": 52.040488,
    "lng": -2.952841
  },
  {
    "id": "school-116721",
    "type": "school",
    "name": "Batchley First and Nursery School",
    "address": "Cherry Tree Walk, Redditch",
    "postcode": "B97 6PD",
    "lat": 52.306768,
    "lng": -1.961187
  },
  {
    "id": "school-116729",
    "type": "school",
    "name": "Tenacres First School",
    "address": "Quibury Close, Redditch",
    "postcode": "B98 0PB",
    "lat": 52.302352,
    "lng": -1.887901
  },
  {
    "id": "school-116730",
    "type": "school",
    "name": "Woodrow First School",
    "address": "Longdon Close, Redditch",
    "postcode": "B98 7UZ",
    "lat": 52.283826,
    "lng": -1.916507
  },
  {
    "id": "school-116731",
    "type": "school",
    "name": "Ashfield Park Primary School",
    "address": "Redhill Road, Ross-on-Wye",
    "postcode": "HR9 5AU",
    "lat": 51.910253,
    "lng": -2.58778
  },
  {
    "id": "school-116734",
    "type": "school",
    "name": "Shobdon Primary School",
    "address": "Shobdon, Leominster",
    "postcode": "HR6 9LX",
    "lat": 52.250603,
    "lng": -2.880744
  },
  {
    "id": "school-116743",
    "type": "school",
    "name": "Walford Nursery & Primary School",
    "address": "Walford, Ross-on-Wye",
    "postcode": "HR9 5SA",
    "lat": 51.885544,
    "lng": -2.591308
  },
  {
    "id": "school-116746",
    "type": "school",
    "name": "Weobley Primary School",
    "address": "Burton Wood, Weobley",
    "postcode": "HR4 8ST",
    "lat": 52.155495,
    "lng": -2.86644
  },
  {
    "id": "school-116748",
    "type": "school",
    "name": "Withington Primary School",
    "address": "Lock Road, Hereford",
    "postcode": "HR1 3QE",
    "lat": 52.088489,
    "lng": -2.634844
  },
  {
    "id": "school-116763",
    "type": "school",
    "name": "Meadow Green Primary School",
    "address": "Meadow Road, Birmingham",
    "postcode": "B47 6EQ",
    "lat": 52.374625,
    "lng": -1.880548
  },
  {
    "id": "school-116769",
    "type": "school",
    "name": "Pitmaston Primary School",
    "address": "Malvern Road, Worcester",
    "postcode": "WR2 4ZF",
    "lat": 52.182439,
    "lng": -2.236453
  },
  {
    "id": "school-116773",
    "type": "school",
    "name": "Lickey Hills Primary School and Nursery",
    "address": "Old Birmingham Road, Birmingham",
    "postcode": "B45 8EU",
    "lat": 52.371969,
    "lng": -2.014734
  },
  {
    "id": "school-116778",
    "type": "school",
    "name": "Westacre Middle School",
    "address": "Ombersley Way, Droitwich",
    "postcode": "WR9 0AA",
    "lat": 52.265214,
    "lng": -2.161319
  },
  {
    "id": "school-116780",
    "type": "school",
    "name": "Abberley Parochial VC Primary School",
    "address": "Apostles Oak, Abberley",
    "postcode": "WR6 6AA",
    "lat": 52.307726,
    "lng": -2.372175
  },
  {
    "id": "school-116781",
    "type": "school",
    "name": "Bayton CofE Primary School",
    "address": "Bayton, Near Kidderminster",
    "postcode": "DY14 9LG",
    "lat": 52.35535,
    "lng": -2.450374
  },
  {
    "id": "school-116782",
    "type": "school",
    "name": "Belbroughton CofE Primary School",
    "address": "Bradford Lane, Stourbridge",
    "postcode": "DY9 9TF",
    "lat": 52.388805,
    "lng": -2.118064
  },
  {
    "id": "school-116784",
    "type": "school",
    "name": "Blakedown CofE Primary School",
    "address": "Birmingham Road, Kidderminster",
    "postcode": "DY10 3JN",
    "lat": 52.40412,
    "lng": -2.174335
  },
  {
    "id": "school-116785",
    "type": "school",
    "name": "Bosbury CofE Primary School",
    "address": "Bosbury, Ledbury",
    "postcode": "HR8 1PX",
    "lat": 52.0867,
    "lng": -2.444162
  },
  {
    "id": "school-116793",
    "type": "school",
    "name": "Claines CofE Primary School",
    "address": "School Bank, Worcester",
    "postcode": "WR3 7RW",
    "lat": 52.229585,
    "lng": -2.21531
  },
  {
    "id": "school-116794",
    "type": "school",
    "name": "Cleeve Prior CofE (Controlled) Primary School",
    "address": "Main Street, Evesham",
    "postcode": "WR11 8LG",
    "lat": 52.140599,
    "lng": -1.872729
  },
  {
    "id": "school-116795",
    "type": "school",
    "name": "Clehonger CofE Primary School",
    "address": "Gosmore Road, Hereford",
    "postcode": "HR2 9SN",
    "lat": 52.033287,
    "lng": -2.799009
  },
  {
    "id": "school-116796",
    "type": "school",
    "name": "Clent Parochial Primary School",
    "address": "Clent Parochial Primary School, Clent",
    "postcode": "DY9 9QP",
    "lat": 52.406885,
    "lng": -2.110497
  },
  {
    "id": "school-116797",
    "type": "school",
    "name": "Colwall CofE Primary School and Nursery",
    "address": "Mill Lane, Malvern",
    "postcode": "WR13 6EQ",
    "lat": 52.07593,
    "lng": -2.365006
  },
  {
    "id": "school-116799",
    "type": "school",
    "name": "St Mary's CofE Primary School",
    "address": "Credenhill, Hereford",
    "postcode": "HR4 7DW",
    "lat": 52.087088,
    "lng": -2.800013
  },
  {
    "id": "school-116800",
    "type": "school",
    "name": "Cropthorne-with-Charlton CofE First School",
    "address": "Main Street, Pershore",
    "postcode": "WR10 3NB",
    "lat": 52.101986,
    "lng": -2.001854
  },
  {
    "id": "school-116802",
    "type": "school",
    "name": "Defford-Cum-Besford CofE School",
    "address": "Hill View, Worcester",
    "postcode": "WR8 9BH",
    "lat": 52.088295,
    "lng": -2.118773
  },
  {
    "id": "school-116804",
    "type": "school",
    "name": "Eardisley CofE Primary School",
    "address": "Eardisley, Hereford",
    "postcode": "HR3 6NS",
    "lat": 52.136118,
    "lng": -3.003687
  },
  {
    "id": "school-116806",
    "type": "school",
    "name": "Eckington CofE First School",
    "address": "School Lane, Pershore",
    "postcode": "WR10 3AU",
    "lat": 52.070041,
    "lng": -2.110145
  },
  {
    "id": "school-116808",
    "type": "school",
    "name": "Elmley Castle CofE First School",
    "address": "Main Street, Pershore",
    "postcode": "WR10 3HS",
    "lat": 52.070108,
    "lng": -2.024323
  },
  {
    "id": "school-116810",
    "type": "school",
    "name": "St Richard's CofE First School",
    "address": "Four Pools Lane, Evesham",
    "postcode": "WR11 1DU",
    "lat": 52.082422,
    "lng": -1.938031
  },
  {
    "id": "school-116811",
    "type": "school",
    "name": "St Andrew's CofE School and Nursery",
    "address": "Marymans Road, Evesham",
    "postcode": "WR11 2QN",
    "lat": 52.083645,
    "lng": -1.960082
  },
  {
    "id": "school-116814",
    "type": "school",
    "name": "Gorsley Goffs Primary School",
    "address": "Gorsley, Ross-on-Wye",
    "postcode": "HR9 7SE",
    "lat": 51.933408,
    "lng": -2.476205
  },
  {
    "id": "school-116815",
    "type": "school",
    "name": "Grimley and Holt CofE Primary School",
    "address": "Grimley, Worcester",
    "postcode": "WR2 6LU",
    "lat": 52.242926,
    "lng": -2.239792
  },
  {
    "id": "school-116819",
    "type": "school",
    "name": "Harvington CofE First School",
    "address": "Village Street, Evesham",
    "postcode": "WR11 8NQ",
    "lat": 52.140433,
    "lng": -1.918894
  },
  {
    "id": "school-116821",
    "type": "school",
    "name": "Himbleton CofE Primary School and Nursery",
    "address": "Neight Hill, Droitwich",
    "postcode": "WR9 7LE",
    "lat": 52.222878,
    "lng": -2.076879
  },
  {
    "id": "school-116822",
    "type": "school",
    "name": "Hindlip CofE First School",
    "address": "Droitwich Road, Worcester",
    "postcode": "WR3 8RJ",
    "lat": 52.230471,
    "lng": -2.186511
  },
  {
    "id": "school-116828",
    "type": "school",
    "name": "Little Dewchurch CofE Primary School",
    "address": "Little Dewchurch, Hereford",
    "postcode": "HR2 6PN",
    "lat": 51.982206,
    "lng": -2.679765
  },
  {
    "id": "school-116830",
    "type": "school",
    "name": "Malvern Wyche CofE Primary School",
    "address": "Lower Wyche Road, Malvern",
    "postcode": "WR14 4ET",
    "lat": 52.093874,
    "lng": -2.332714
  },
  {
    "id": "school-116833",
    "type": "school",
    "name": "Much Birch CofE Primary School",
    "address": "Much Birch, Hereford",
    "postcode": "HR2 8HL",
    "lat": 51.974105,
    "lng": -2.726409
  },
  {
    "id": "school-116848",
    "type": "school",
    "name": "Sedgeberrow CofE First School",
    "address": "Main Street, Evesham",
    "postcode": "WR11 7UF",
    "lat": 52.043877,
    "lng": -1.966913
  },
  {
    "id": "school-116851",
    "type": "school",
    "name": "Tibberton CofE First School",
    "address": "Plough Road",
    "postcode": "WR9 7NL",
    "lat": 52.218101,
    "lng": -2.138765
  },
  {
    "id": "school-116853",
    "type": "school",
    "name": "Upton-Upon-Severn CofE Primary and Pre School",
    "address": "School Lane, Worcester",
    "postcode": "WR8 0LD",
    "lat": 52.061508,
    "lng": -2.21472
  },
  {
    "id": "school-116854",
    "type": "school",
    "name": "Upton Snodsbury CofE Primary  School",
    "address": "School Lane, Worcester",
    "postcode": "WR7 4NH",
    "lat": 52.186476,
    "lng": -2.084247
  },
  {
    "id": "school-116856",
    "type": "school",
    "name": "Whittington CofE Primary School",
    "address": "Whittington, Worcester",
    "postcode": "WR5 2QZ",
    "lat": 52.172503,
    "lng": -2.180858
  },
  {
    "id": "school-116858",
    "type": "school",
    "name": "St Barnabas CofE Primary School",
    "address": "Green Lane, Worcester",
    "postcode": "WR3 8NZ",
    "lat": 52.205495,
    "lng": -2.211418
  },
  {
    "id": "school-116859",
    "type": "school",
    "name": "Red Hill CofE Primary School",
    "address": "Midhurst Close, Worcester",
    "postcode": "WR5 2HX",
    "lat": 52.183429,
    "lng": -2.202215
  },
  {
    "id": "school-116864",
    "type": "school",
    "name": "Astley CofE Primary School",
    "address": "School Lane, Stourport-on-Severn",
    "postcode": "DY13 0RH",
    "lat": 52.310727,
    "lng": -2.303722
  },
  {
    "id": "school-116867",
    "type": "school",
    "name": "Brampton Abbotts CofE Primary School",
    "address": "Brampton Road, Ross-on-Wye",
    "postcode": "HR9 7FX",
    "lat": 51.922723,
    "lng": -2.580875
  },
  {
    "id": "school-116869",
    "type": "school",
    "name": "Bridstow CofE Primary School",
    "address": "Bridstow, Ross-on-Wye",
    "postcode": "HR9 6PZ",
    "lat": 51.918057,
    "lng": -2.604023
  },
  {
    "id": "school-116870",
    "type": "school",
    "name": "Broadwas CofE Aided Primary School",
    "address": "Broadwas, Worcester",
    "postcode": "WR6 5NE",
    "lat": 52.194621,
    "lng": -2.352282
  },
  {
    "id": "school-116874",
    "type": "school",
    "name": "Cradley CofE Primary School",
    "address": "Cradley, Malvern",
    "postcode": "WR13 5NG",
    "lat": 52.125315,
    "lng": -2.383817
  },
  {
    "id": "school-116879",
    "type": "school",
    "name": "Fladbury CofE Primary School and Preschool",
    "address": "Church Street, Pershore",
    "postcode": "WR10 2QB",
    "lat": 52.114844,
    "lng": -2.006324
  },
  {
    "id": "school-116880",
    "type": "school",
    "name": "St Mary's CofE Primary School",
    "address": "Court Orchard, Hereford",
    "postcode": "HR1 4PG",
    "lat": 52.005958,
    "lng": -2.611806
  },
  {
    "id": "school-116882",
    "type": "school",
    "name": "Hallow CofE Primary School",
    "address": "Main Road, Worcester",
    "postcode": "WR2 6LD",
    "lat": 52.225353,
    "lng": -2.254866
  },
  {
    "id": "school-116883",
    "type": "school",
    "name": "Our Lady's RC Primary School",
    "address": "Boycott Road, Hereford",
    "postcode": "HR2 7RN",
    "lat": 52.045016,
    "lng": -2.721914
  },
  {
    "id": "school-116884",
    "type": "school",
    "name": "St Francis Xavier's Primary School",
    "address": "Venns Lane, Hereford",
    "postcode": "HR1 1DT",
    "lat": 52.068726,
    "lng": -2.705795
  },
  {
    "id": "school-116890",
    "type": "school",
    "name": "Kimbolton St James CofE Primary School",
    "address": "Kimbolton, Leominster",
    "postcode": "HR6 0HQ",
    "lat": 52.248185,
    "lng": -2.691499
  },
  {
    "id": "school-116891",
    "type": "school",
    "name": "Kingsland CofE School",
    "address": "Kingsland, Leominster",
    "postcode": "HR6 9QN",
    "lat": 52.246539,
    "lng": -2.81029
  },
  {
    "id": "school-116892",
    "type": "school",
    "name": "Lea CofE Primary School",
    "address": "Lea, Ross-on-Wye",
    "postcode": "HR9 7JY",
    "lat": 51.894436,
    "lng": -2.500283
  },
  {
    "id": "school-116894",
    "type": "school",
    "name": "Ivington CofE Primary and Pre-School",
    "address": "Ivington, Leominster",
    "postcode": "HR6 0JH",
    "lat": 52.205392,
    "lng": -2.768929
  },
  {
    "id": "school-116895",
    "type": "school",
    "name": "Lindridge St Lawrence CE Primary School",
    "address": "Lindridge, Tenbury Wells",
    "postcode": "WR15 8JQ",
    "lat": 52.317369,
    "lng": -2.476208
  },
  {
    "id": "school-116901",
    "type": "school",
    "name": "St Joseph's Catholic Primary School",
    "address": "Newtown Road, Malvern",
    "postcode": "WR14 1PF",
    "lat": 52.123641,
    "lng": -2.330833
  },
  {
    "id": "school-116902",
    "type": "school",
    "name": "Malvern Wells CofE Primary School",
    "address": "263 Wells Road, Malvern Wells",
    "postcode": "WR14 4HF",
    "lat": 52.071126,
    "lng": -2.332283
  },
  {
    "id": "school-116903",
    "type": "school",
    "name": "St James' CofE Primary School",
    "address": "West Malvern Road, Malvern",
    "postcode": "WR14 4BB",
    "lat": 52.112344,
    "lng": -2.34455
  },
  {
    "id": "school-116905",
    "type": "school",
    "name": "Ombersley Endowed First School",
    "address": "School Bank, Ombersley",
    "postcode": "WR9 0DR",
    "lat": 52.271966,
    "lng": -2.222639
  },
  {
    "id": "school-116907",
    "type": "school",
    "name": "Pencombe CofE Primary School",
    "address": "Pencombe, Bromyard",
    "postcode": "HR7 4SH",
    "lat": 52.171752,
    "lng": -2.5842
  },
  {
    "id": "school-116908",
    "type": "school",
    "name": "Holy Redeemer Catholic Primary School",
    "address": "Priest Lane, Pershore",
    "postcode": "WR10 1EB",
    "lat": 52.111573,
    "lng": -2.07603
  },
  {
    "id": "school-116911",
    "type": "school",
    "name": "St Joseph's RC Primary School and Nursery",
    "address": "The Avenue, Ross-on-Wye",
    "postcode": "HR9 5AW",
    "lat": 51.908603,
    "lng": -2.583397
  },
  {
    "id": "school-116913",
    "type": "school",
    "name": "Staunton-on-Wye Endowed Primary School",
    "address": "Hereford",
    "postcode": "HR4 7LT",
    "lat": 52.09965,
    "lng": -2.927498
  },
  {
    "id": "school-116916",
    "type": "school",
    "name": "Sytchampton Endowed Primary School",
    "address": "Sytchampton, Stourport-on-Severn",
    "postcode": "DY13 9SX",
    "lat": 52.292387,
    "lng": -2.226422
  },
  {
    "id": "school-116918",
    "type": "school",
    "name": "Weston-under-Penyard CofE Primary School",
    "address": "School Lane, Ross-on-Wye",
    "postcode": "HR9 7PA",
    "lat": 51.905695,
    "lng": -2.532797
  },
  {
    "id": "school-116919",
    "type": "school",
    "name": "Whitchurch CofE Primary School",
    "address": "Whitchurch, Ross-on-Wye",
    "postcode": "HR9 6DA",
    "lat": 51.854496,
    "lng": -2.650481
  },
  {
    "id": "school-116923",
    "type": "school",
    "name": "St George's CofE Primary School",
    "address": "St George's Lane North, Worcester",
    "postcode": "WR1 1RD",
    "lat": 52.204467,
    "lng": -2.223135
  },
  {
    "id": "school-116936",
    "type": "school",
    "name": "Aylestone School",
    "address": "Broadlands House, Hereford",
    "postcode": "HR1 1HY",
    "lat": 52.062824,
    "lng": -2.692761
  },
  {
    "id": "school-116941",
    "type": "school",
    "name": "Earl Mortimer College",
    "address": "South Street, Leominster",
    "postcode": "HR6 8JJ",
    "lat": 52.222061,
    "lng": -2.736743
  },
  {
    "id": "school-116952",
    "type": "school",
    "name": "Weobley High School",
    "address": "Burton Wood, Hereford",
    "postcode": "HR4 8ST",
    "lat": 52.155247,
    "lng": -2.868452
  },
  {
    "id": "school-116957",
    "type": "school",
    "name": "Aston Fields Middle School",
    "address": "Drummond Road, Bromsgrove",
    "postcode": "B60 2ET",
    "lat": 52.326871,
    "lng": -2.044143
  },
  {
    "id": "school-116960",
    "type": "school",
    "name": "Blackminster Middle School",
    "address": "Station Road, Evesham",
    "postcode": "WR11 8TG",
    "lat": 52.105912,
    "lng": -1.893913
  },
  {
    "id": "school-116984",
    "type": "school",
    "name": "St Egwin's CofE Middle School",
    "address": "Worcester Road, Evesham",
    "postcode": "WR11 4JU",
    "lat": 52.099851,
    "lng": -1.945409
  },
  {
    "id": "school-116991",
    "type": "school",
    "name": "The Bishop of Hereford's Bluecoat School",
    "address": "Hampton Dene Road, Hereford",
    "postcode": "HR1 1UU",
    "lat": 52.056952,
    "lng": -2.681993
  },
  {
    "id": "school-116992",
    "type": "school",
    "name": "St Mary's RC High School",
    "address": "Lugwardine, Hereford",
    "postcode": "HR1 4DR",
    "lat": 52.063647,
    "lng": -2.657352
  },
  {
    "id": "school-116999",
    "type": "school",
    "name": "Blessed Edward Oldcorne Catholic College",
    "address": "Timberdine Avenue, Worcester",
    "postcode": "WR5 2XD",
    "lat": 52.180952,
    "lng": -2.20978
  },
  {
    "id": "school-117002",
    "type": "school",
    "name": "The Downs, Malvern College Prep School",
    "address": "Brockhill Road, Malvern",
    "postcode": "WR13 6EY",
    "lat": 52.086031,
    "lng": -2.351864
  },
  {
    "id": "school-117003",
    "type": "school",
    "name": "The Elms School",
    "address": "Colwall, Malvern",
    "postcode": "WR13 6EF",
    "lat": 52.073227,
    "lng": -2.363875
  },
  {
    "id": "school-117017",
    "type": "school",
    "name": "Malvern College",
    "address": "College Road, Malvern",
    "postcode": "WR14 3DF",
    "lat": 52.103786,
    "lng": -2.324757
  },
  {
    "id": "school-117018",
    "type": "school",
    "name": "Malvern St James",
    "address": "15 Avenue Road, Malvern",
    "postcode": "WR14 3BA",
    "lat": 52.110257,
    "lng": -2.315984
  },
  {
    "id": "school-117020",
    "type": "school",
    "name": "Heathfield Knoll School",
    "address": "Wolverley, Kidderminster",
    "postcode": "DY10 3QE",
    "lat": 52.406377,
    "lng": -2.240618
  },
  {
    "id": "school-117030",
    "type": "school",
    "name": "Cambian New Elizabethan School",
    "address": "Quarry Bank",
    "postcode": "DY11 7TE",
    "lat": 52.333589,
    "lng": -2.233897
  },
  {
    "id": "school-117033",
    "type": "school",
    "name": "Sunfield Garden School and Children's Home",
    "address": "Clent Grove, Stourbridge",
    "postcode": "DY9 9PB",
    "lat": 52.417322,
    "lng": -2.112185
  },
  {
    "id": "school-117034",
    "type": "school",
    "name": "Bowbrook House School",
    "address": "Main Street, Worcestershire",
    "postcode": "WR10 2EE",
    "lat": 52.152176,
    "lng": -2.093172
  },
  {
    "id": "school-117035",
    "type": "school",
    "name": "Abbey College in Malvern",
    "address": "253 Wells Road, Malvern",
    "postcode": "WR14 4JF",
    "lat": 52.072072,
    "lng": -2.331575
  },
  {
    "id": "school-117036",
    "type": "school",
    "name": "Hereford Cathedral School With A Junior School",
    "address": "Old Deanery, Hereford",
    "postcode": "HR1 2NG",
    "lat": 52.054095,
    "lng": -2.713397
  },
  {
    "id": "school-117037",
    "type": "school",
    "name": "The King's School",
    "address": "5, Worcestershire",
    "postcode": "WR1 2LL",
    "lat": 52.187139,
    "lng": -2.219201
  },
  {
    "id": "school-117038",
    "type": "school",
    "name": "Royal Grammar School Worcester",
    "address": "Upper Tything, Worcester",
    "postcode": "WR1 1HP",
    "lat": 52.200294,
    "lng": -2.223436
  },
  {
    "id": "school-117041",
    "type": "school",
    "name": "The River School",
    "address": "Oakfield House, Worcester",
    "postcode": "WR3 7ST",
    "lat": 52.225426,
    "lng": -2.208262
  },
  {
    "id": "school-117042",
    "type": "school",
    "name": "Rowden House School",
    "address": "Rowden House, Bromyard",
    "postcode": "HR7 4LS",
    "lat": 52.204139,
    "lng": -2.533052
  },
  {
    "id": "school-117044",
    "type": "school",
    "name": "Madinatul Uloom Al Islamiya School",
    "address": "Heath Lane, Worcestershire",
    "postcode": "DY10 4BS",
    "lat": 52.362205,
    "lng": -2.211328
  },
  {
    "id": "school-117045",
    "type": "school",
    "name": "Lucton School",
    "address": "Lucton, Leominster",
    "postcode": "HR6 9PN",
    "lat": 52.275355,
    "lng": -2.823686
  },
  {
    "id": "school-117048",
    "type": "school",
    "name": "Cambian Hereford School",
    "address": "Coningsby Road",
    "postcode": "HR6 8LL",
    "lat": 52.224118,
    "lng": -2.737099
  },
  {
    "id": "school-117049",
    "type": "school",
    "name": "Rigby Hall Day Special School",
    "address": "Rigby Lane, Bromsgrove",
    "postcode": "B60 2EP",
    "lat": 52.325829,
    "lng": -2.04197
  },
  {
    "id": "school-117055",
    "type": "school",
    "name": "Westfield School",
    "address": "Ryeland's Road, Leominster",
    "postcode": "HR6 8NZ",
    "lat": 52.225477,
    "lng": -2.742539
  },
  {
    "id": "school-117064",
    "type": "school",
    "name": "New College Worcester (NMSS)",
    "address": "Whittington Road, Worcester",
    "postcode": "WR5 2JX",
    "lat": 52.179207,
    "lng": -2.188593
  },
  {
    "id": "school-119949",
    "type": "school",
    "name": "Congerstone Primary School",
    "address": "Shackerstone Road, Nuneaton",
    "postcode": "CV13 6NH",
    "lat": 52.648876,
    "lng": -1.458245
  },
  {
    "id": "school-120158",
    "type": "school",
    "name": "Sheepy Magna Church of England Primary School",
    "address": "Main Road, Atherstone",
    "postcode": "CV9 3QR",
    "lat": 52.610727,
    "lng": -1.51623
  },
  {
    "id": "school-120172",
    "type": "school",
    "name": "Witherley Church of England Primary School",
    "address": "Church Road, Atherstone",
    "postcode": "CV9 3NA",
    "lat": 52.572538,
    "lng": -1.519483
  },
  {
    "id": "school-120331",
    "type": "school",
    "name": "Twycross House School",
    "address": "1 Main Road, Atherstone",
    "postcode": "CV9 3PL",
    "lat": 52.640495,
    "lng": -1.502924
  },
  {
    "id": "school-120336",
    "type": "school",
    "name": "Twycross House Pre-Preparatory School",
    "address": "The Hollies, Atherstone",
    "postcode": "CV9 3PQ",
    "lat": 52.640227,
    "lng": -1.501361
  },
  {
    "id": "school-120339",
    "type": "school",
    "name": "Dixie Grammar School",
    "address": "Station Road, Nuneaton",
    "postcode": "CV13 0LE",
    "lat": 52.624256,
    "lng": -1.401519
  },
  {
    "id": "school-122603",
    "type": "school",
    "name": "Redlands Primary and Nursery School",
    "address": "Crown Street, Worksop",
    "postcode": "S80 1TH",
    "lat": 53.310217,
    "lng": -1.129046
  },
  {
    "id": "school-123347",
    "type": "school",
    "name": "Madeley Nursery School",
    "address": "Bridle Road, Telford",
    "postcode": "TF7 5ET",
    "lat": 52.637276,
    "lng": -2.45452
  },
  {
    "id": "school-123348",
    "type": "school",
    "name": "Oakengates Nursery School",
    "address": "Charlton Street, Telford",
    "postcode": "TF2 6BT",
    "lat": 52.694309,
    "lng": -2.453233
  },
  {
    "id": "school-123349",
    "type": "school",
    "name": "The Linden Centre",
    "address": "Oak Road, Telford",
    "postcode": "TF3 5BT",
    "lat": 52.684596,
    "lng": -2.470176
  },
  {
    "id": "school-123358",
    "type": "school",
    "name": "Church Aston Infant School",
    "address": "Church Aston, Newport",
    "postcode": "TF10 9JN",
    "lat": 52.756698,
    "lng": -2.378199
  },
  {
    "id": "school-123364",
    "type": "school",
    "name": "Donnington Wood Infant School and Nursery Centre",
    "address": "Baldwin Webb Avenue, Telford",
    "postcode": "TF2 8EP",
    "lat": 52.71863,
    "lng": -2.43628
  },
  {
    "id": "school-123370",
    "type": "school",
    "name": "High Ercall Primary School",
    "address": "Church Road, Telford",
    "postcode": "TF6 6AF",
    "lat": 52.750881,
    "lng": -2.602319
  },
  {
    "id": "school-123371",
    "type": "school",
    "name": "Highley Community Primary School",
    "address": "Grasmere Drive, Bridgnorth",
    "postcode": "WV16 6EH",
    "lat": 52.451884,
    "lng": -2.388239
  },
  {
    "id": "school-123377",
    "type": "school",
    "name": "Lawley Primary School and Nursery",
    "address": "Off Arleston Lane, Telford",
    "postcode": "TF4 2PR",
    "lat": 52.678276,
    "lng": -2.485803
  },
  {
    "id": "school-123378",
    "type": "school",
    "name": "Lilleshall Primary School",
    "address": "Limekiln Lane, Newport",
    "postcode": "TF10 9EY",
    "lat": 52.737149,
    "lng": -2.398426
  },
  {
    "id": "school-123384",
    "type": "school",
    "name": "Newport Infant School and Nursery",
    "address": "Granville Avenue, Newport",
    "postcode": "TF10 7DX",
    "lat": 52.763972,
    "lng": -2.372392
  },
  {
    "id": "school-123396",
    "type": "school",
    "name": "Sheriffhales Primary School and Preschool",
    "address": "Sheriffhales, Shifnal",
    "postcode": "TF11 8RA",
    "lat": 52.703983,
    "lng": -2.358708
  },
  {
    "id": "school-123397",
    "type": "school",
    "name": "Buntingsdale Primary School and Nursery",
    "address": "Buntingsdale Park, Market Drayton",
    "postcode": "TF9 2HB",
    "lat": 52.883641,
    "lng": -2.51947
  },
  {
    "id": "school-123399",
    "type": "school",
    "name": "Stoke-on-Tern Primary School",
    "address": "Rosehill Road, Market Drayton",
    "postcode": "TF9 2LF",
    "lat": 52.852255,
    "lng": -2.513274
  },
  {
    "id": "school-123404",
    "type": "school",
    "name": "Wombridge Primary School",
    "address": "Hartshill, Telford",
    "postcode": "TF2 6AN",
    "lat": 52.694596,
    "lng": -2.455944
  },