[
  {
    "id": "school-101494",
    "type": "school",
    "name": "Peel Park Primary School and Nursery",
    "address": "Peel Park Drive, Bradford",
    "postcode": "BD2 4PR",
    "lat": 53.807111,
    "lng": -1.733483
  },
  {
    "id": "school-103144",
    "type": "school",
    "name": "Castle Vale Nursery School",
    "address": "Yatesbury Avenue, Birmingham",
    "postcode": "B35 6DU",
    "lat": 52.518848,
    "lng": -1.793699
  },
  {
    "id": "school-103159",
    "type": "school",
    "name": "Adderley Primary School",
    "address": "Arden Road, Birmingham",
    "postcode": "B8 1DZ",
    "lat": 52.483448,
    "lng": -1.859592
  },
  {
    "id": "school-103261",
    "type": "school",
    "name": "St Benedict's Primary School",
    "address": "St Benedict's Road, Birmingham",
    "postcode": "B10 9DP",
    "lat": 52.466534,
    "lng": -1.843408
  },
  {
    "id": "school-103339",
    "type": "school",
    "name": "Kitwell Primary School",
    "address": "Wychbury Road, Birmingham",
    "postcode": "B32 4DL",
    "lat": 52.43079,
    "lng": -2.008223
  },
  {
    "id": "school-103416",
    "type": "school",
    "name": "St Laurence Church Junior School",
    "address": "Bunbury Road, Birmingham",
    "postcode": "B31 2DJ",
    "lat": 52.414501,
    "lng": -1.961343
  },
  {
    "id": "school-103438",
    "type": "school",
    "name": "St Mary's Catholic Primary School",
    "address": "Vivian Road, Birmingham",
    "postcode": "B17 0DN",
    "lat": 52.456494,
    "lng": -1.951622
  },
  {
    "id": "school-103443",
    "type": "school",
    "name": "Our Lady and St Rose of Lima Catholic Primary School",
    "address": "Gregory Avenue, Birmingham",
    "postcode": "B29 5DY",
    "lat": 52.435809,
    "lng": -1.95975
  },
  {
    "id": "school-103459",
    "type": "school",
    "name": "St Laurence Church Infant School",
    "address": "Bunbury Road, Birmingham",
    "postcode": "B31 2DJ",
    "lat": 52.414501,
    "lng": -1.961343
  },
  {
    "id": "school-103467",
    "type": "school",
    "name": "St Martin de Porres Catholic Primary School",
    "address": "Oakland Road, Birmingham",
    "postcode": "B13 9DN",
    "lat": 52.447345,
    "lng": -1.880337
  },
  {
    "id": "school-103478",
    "type": "school",
    "name": "SS John and Monica Catholic Primary School",
    "address": "Chantry Road, Birmingham",
    "postcode": "B13 8DW",
    "lat": 52.450189,
    "lng": -1.892544
  },
  {
    "id": "school-103881",
    "type": "school",
    "name": "Halesbury School",
    "address": "Feldon Lane, Halesowen",
    "postcode": "B62 9DR",
    "lat": 52.467012,
    "lng": -2.026911
  },
  {
    "id": "school-103934",
    "type": "school",
    "name": "Bleakhouse Primary School",
    "address": "Bleakhouse Road, Oldbury",
    "postcode": "B68 9DS",
    "lat": 52.475197,
    "lng": -1.997453
  },
  {
    "id": "school-103941",
    "type": "school",
    "name": "Crocketts Community Primary School",
    "address": "Coopers Lane, Smethwick",
    "postcode": "B67 7DW",
    "lat": 52.490999,
    "lng": -1.970231
  },
  {
    "id": "school-103946",
    "type": "school",
    "name": "Highfields Primary School",
    "address": "Beeches Road, Rowley Regis",
    "postcode": "B65 0DA",
    "lat": 52.471439,
    "lng": -2.043625
  },
  {
    "id": "school-103952",
    "type": "school",
    "name": "Old Hill Primary School",
    "address": "Lawrence Lane, Cradley Heath",
    "postcode": "B64 6DR",
    "lat": 52.473281,
    "lng": -2.065624
  },
  {
    "id": "school-104050",
    "type": "school",
    "name": "Shirley Heath Junior School",
    "address": "Coombe Road, Solihull",
    "postcode": "B90 3DS",
    "lat": 52.403064,
    "lng": -1.817231
  },
  {
    "id": "school-104090",
    "type": "school",
    "name": "St Alphege Church of England Infant and Nursery School",
    "address": "New Road, Solihull",
    "postcode": "B91 3DW",
    "lat": 52.410675,
    "lng": -1.773252
  },
  {
    "id": "school-104124",
    "type": "school",
    "name": "Solihull School",
    "address": "Warwick Road, Solihull",
    "postcode": "B91 3DJ",
    "lat": 52.414202,
    "lng": -1.769897
  },
  {
    "id": "school-104446",
    "type": "school",
    "name": "Evelyn Community Primary School",
    "address": "Evelyn Avenue, Prescot",
    "postcode": "L34 2SP",
    "lat": 53.430856,
    "lng": -2.793216
  },
  {
    "id": "school-104475",
    "type": "school",
    "name": "St Leo's and Southmead Catholic Primary School Serving the Community",
    "address": "Lickers Lane, Prescot",
    "postcode": "L35 3SR",
    "lat": 53.410127,
    "lng": -2.791657
  },
  {
    "id": "school-104500",
    "type": "school",
    "name": "Knowsley Central School",
    "address": "Mossbrow Road, Liverpool",
    "postcode": "L36 7SY",
    "lat": 53.420142,
    "lng": -2.835154
  },
  {
    "id": "school-104522",
    "type": "school",
    "name": "Booker Avenue Junior School",
    "address": "Booker Avenue, Liverpool",
    "postcode": "L18 9SB",
    "lat": 53.370748,
    "lng": -2.904642
  },
  {
    "id": "school-104530",
    "type": "school",
    "name": "Corinthian Community Primary School",
    "address": "Inigo Road, Liverpool",
    "postcode": "L13 6SH",
    "lat": 53.419369,
    "lng": -2.910143
  },
  {
    "id": "school-104593",
    "type": "school",
    "name": "Booker Avenue Infant School",
    "address": "Booker Avenue, Liverpool",
    "postcode": "L18 9SB",
    "lat": 53.370748,
    "lng": -2.904642
  },
  {
    "id": "school-104661",
    "type": "school",
    "name": "St Paul's Catholic Junior School",
    "address": "Spring Grove, Liverpool",
    "postcode": "L12 8SJ",
    "lat": 53.42989,
    "lng": -2.900283
  },
  {
    "id": "school-106564",
    "type": "school",
    "name": "Shawlands Primary School",
    "address": "Shaw Street, Barnsley",
    "postcode": "S70 6JL",
    "lat": 53.549101,
    "lng": -1.491435
  },
  {
    "id": "school-106579",
    "type": "school",
    "name": "Lacewood Primary School",
    "address": "Carr Head Lane, Rotherham",
    "postcode": "S63 8DA",
    "lat": 53.519652,
    "lng": -1.321517
  },
  {
    "id": "school-106587",
    "type": "school",
    "name": "Springvale Primary School",
    "address": "Sheffield Road, Barnsley",
    "postcode": "S36 6HJ",
    "lat": 53.522919,
    "lng": -1.612733
  },
  {
    "id": "school-106589",
    "type": "school",
    "name": "Silkstone Common Junior and Infant School",
    "address": "Moorend Lane, Barnsley",
    "postcode": "S75 4QT",
    "lat": 53.533562,
    "lng": -1.558014
  },
  {
    "id": "school-106591",
    "type": "school",
    "name": "Jump Primary School",
    "address": "Roebuck Hill, Barnsley",
    "postcode": "S74 0JW",
    "lat": 53.507273,
    "lng": -1.429913
  },
  {
    "id": "school-106611",
    "type": "school",
    "name": "Joseph Locke Primary School",
    "address": "Shaw Street, Barnsley",
    "postcode": "S70 6JL",
    "lat": 53.549101,
    "lng": -1.491435
  },
  {
    "id": "school-106620",
    "type": "school",
    "name": "Birkwood Primary School",
    "address": "Darfield Road, Barnsley",
    "postcode": "S72 8HG",
    "lat": 53.568518,
    "lng": -1.407449
  },
  {
    "id": "school-106627",
    "type": "school",
    "name": "Cawthorne Church of England Voluntary Controlled Primary School",
    "address": "Taylor Hill, Barnsley",
    "postcode": "S75 4HB",
    "lat": 53.566442,
    "lng": -1.572122
  },
  {
    "id": "school-106632",
    "type": "school",
    "name": "Holy Rood Catholic Primary School",
    "address": "Shaw Street, Barnsley",
    "postcode": "S70 6JL",
    "lat": 53.549452,
    "lng": -1.491627
  },
  {
    "id": "school-106637",
    "type": "school",
    "name": "Tankersley St Peter's CofE (Aided) Primary School",
    "address": "Westwood New Road, Barnsley",
    "postcode": "S75 3DA",
    "lat": 53.497355,
    "lng": -1.478441
  },
  {
    "id": "school-106640",
    "type": "school",
    "name": "St Helen's Catholic Primary School",
    "address": "West Street, Barnsley",
    "postcode": "S74 9DL",
    "lat": 53.499875,
    "lng": -1.44325
  },
  {
    "id": "school-106643",
    "type": "school",
    "name": "Sacred Heart Catholic Primary School",
    "address": "Lockwood Road, Rotherham",
    "postcode": "S63 9JY",
    "lat": 53.535841,
    "lng": -1.302532
  },
  {
    "id": "school-106653",
    "type": "school",
    "name": "Penistone Grammar School",
    "address": "Huddersfield Road, Sheffield",
    "postcode": "S36 7BX",
    "lat": 53.533091,
    "lng": -1.634368
  },
  {
    "id": "school-106828",
    "type": "school",
    "name": "Aughton Early Years Centre",
    "address": "Main Street, Sheffield",
    "postcode": "S26 3XH",
    "lat": 53.373433,
    "lng": -1.316522
  },
  {
    "id": "school-106833",
    "type": "school",
    "name": "Badsley Primary School",
    "address": "Badsley Moor Lane, Rotherham",
    "postcode": "S65 2QS",
    "lat": 53.429593,
    "lng": -1.326159
  },
  {
    "id": "school-106834",
    "type": "school",
    "name": "Blackburn Primary School",
    "address": "Baring Road, Rotherham",
    "postcode": "S61 2BU",
    "lat": 53.430718,
    "lng": -1.416864
  },
  {
    "id": "school-106835",
    "type": "school",
    "name": "Broom Valley Community School",
    "address": "Broom Valley Road, Rotherham",
    "postcode": "S60 2QU",
    "lat": 53.421955,
    "lng": -1.342864
  },
  {
    "id": "school-106845",
    "type": "school",
    "name": "Kimberworth Community Primary School",
    "address": "Kimberworth Road, Rotherham",
    "postcode": "S61 1HE",
    "lat": 53.432783,
    "lng": -1.387647
  },
  {
    "id": "school-106851",
    "type": "school",
    "name": "Herringthorpe Infant School",
    "address": "Chatterton Drive, Rotherham",
    "postcode": "S65 2JW",
    "lat": 53.420656,
    "lng": -1.325999
  },
  {
    "id": "school-106859",
    "type": "school",
    "name": "Aston Fence Junior and Infant School",
    "address": "237 Sheffield Road, Sheffield",
    "postcode": "S13 9ZD",
    "lat": 53.365841,
    "lng": -1.336423
  },
  {
    "id": "school-106875",
    "type": "school",
    "name": "Rawmarsh Rosehill Junior School",
    "address": "Kilnhurst Road, Rotherham",
    "postcode": "S62 5QH",
    "lat": 53.468051,
    "lng": -1.335719
  },
  {
    "id": "school-106876",
    "type": "school",
    "name": "Rawmarsh Ryecroft Infant School",
    "address": "South Street, Rotherham",
    "postcode": "S62 5QW",
    "lat": 53.467197,
    "lng": -1.332493
  },
  {
    "id": "school-106883",
    "type": "school",
    "name": "Wales Primary School",
    "address": "School Road, Sheffield",
    "postcode": "S26 5QG",
    "lat": 53.340552,
    "lng": -1.284948
  },
  {
    "id": "school-106895",
    "type": "school",
    "name": "Bramley Sunnyside Infant School",
    "address": "Flanderwell Lane, Rotherham",
    "postcode": "S66 3QW",
    "lat": 53.427926,
    "lng": -1.271848
  },
  {
    "id": "school-106907",
    "type": "school",
    "name": "Todwick Primary School",
    "address": "Kiveton Lane, Sheffield",
    "postcode": "S26 1HJ",
    "lat": 53.354125,
    "lng": -1.256803
  },
  {
    "id": "school-106910",
    "type": "school",
    "name": "Rawmarsh Thorogate Junior and Infant School",
    "address": "Thorogate, Rotherham",
    "postcode": "S62 7HS",
    "lat": 53.472059,
    "lng": -1.34206
  },
  {
    "id": "school-106942",
    "type": "school",
    "name": "Our Lady and St Joseph's Catholic Primary School",
    "address": "Fitzwilliam Street, Rotherham",
    "postcode": "S63 7HG",
    "lat": 53.500164,
    "lng": -1.344218
  },
  {
    "id": "school-106944",
    "type": "school",
    "name": "St Joseph's Catholic Primary School",
    "address": "Green Lane, Rotherham",
    "postcode": "S62 6JY",
    "lat": 53.459604,
    "lng": -1.334706
  },
  {
    "id": "school-106965",
    "type": "school",
    "name": "The Robert Ogden School",
    "address": "Clayton Lane, Barnsley",
    "postcode": "S63 0BG",
    "lat": 53.551643,
    "lng": -1.32253
  },
  {
    "id": "school-106973",
    "type": "school",
    "name": "Broomhall Nursery School",
    "address": "4 Broomhall Road, Sheffield",
    "postcode": "S10 2DN",
    "lat": 53.374916,
    "lng": -1.484779
  },
  {
    "id": "school-106975",
    "type": "school",
    "name": "Grace Owen Nursery School",
    "address": "1-7 the Pavement, Sheffield",
    "postcode": "S2 5QD",
    "lat": 53.381436,
    "lng": -1.4569
  },
  {
    "id": "school-106988",
    "type": "school",
    "name": "Carter Knowle Junior School",
    "address": "Carter Knowle Road, Sheffield",
    "postcode": "S7 2DY",
    "lat": 53.352365,
    "lng": -1.489874
  },
  {
    "id": "school-106998",
    "type": "school",
    "name": "Lydgate Junior School",
    "address": "Manchester Road, Sheffield",
    "postcode": "S10 5DP",
    "lat": 53.376584,
    "lng": -1.513863
  },
  {
    "id": "school-106999",
    "type": "school",
    "name": "Lydgate Infant School",
    "address": "Lydgate Lane, Sheffield",
    "postcode": "S10 5FQ",
    "lat": 53.379838,
    "lng": -1.513736
  },
  {
    "id": "school-107001",
    "type": "school",
    "name": "Ecclesfield Primary School",
    "address": "High Street, Sheffield",
    "postcode": "S35 9UD",
    "lat": 53.43872,
    "lng": -1.465158
  },
  {
    "id": "school-107004",
    "type": "school",
    "name": "Nether Green Junior School",
    "address": "Fulwood Road, Sheffield",
    "postcode": "S10 3QA",
    "lat": 53.36694,
    "lng": -1.527726
  },
  {
    "id": "school-107029",
    "type": "school",
    "name": "Nether Green Infant School",
    "address": "Nether Green Infant School, Stumperlowe Park Road, Sheffield",
    "postcode": "S10 3QP",
    "lat": 53.367211,
    "lng": -1.535012
  },
  {
    "id": "school-107043",
    "type": "school",
    "name": "Netherthorpe Primary School",
    "address": "Netherthorpe Street, Sheffield",
    "postcode": "S3 7JA",
    "lat": 53.385897,
    "lng": -1.479684
  },
  {
    "id": "school-107047",
    "type": "school",
    "name": "Ballifield Primary School",
    "address": "Handsworth Grange Road, Sheffield",
    "postcode": "S13 9HH",
    "lat": 53.368465,
    "lng": -1.377943
  },
  {
    "id": "school-107064",
    "type": "school",
    "name": "Waterthorpe Infant School",
    "address": "Thorpe Drive, Sheffield",
    "postcode": "S20 7JU",
    "lat": 53.336811,
    "lng": -1.350752
  },
  {
    "id": "school-107077",
    "type": "school",
    "name": "Reignhead Primary School",
    "address": "Platts Drive, Sheffield",
    "postcode": "S20 1FD",
    "lat": 53.345965,
    "lng": -1.338159
  },
  {
    "id": "school-107083",
    "type": "school",
    "name": "Athelstan Primary School",
    "address": "Richmond Park Way, Sheffield",
    "postcode": "S13 8HH",
    "lat": 53.370544,
    "lng": -1.397784
  },
  {
    "id": "school-107085",
    "type": "school",
    "name": "Angram Bank Primary School",
    "address": "Kinsey Road, Sheffield",
    "postcode": "S35 4HN",
    "lat": 53.469057,
    "lng": -1.495466
  },
  {
    "id": "school-107087",
    "type": "school",
    "name": "Carfield Primary School",
    "address": "Argyle Close, Sheffield",
    "postcode": "S8 9HJ",
    "lat": 53.353873,
    "lng": -1.464853
  },
  {
    "id": "school-107092",
    "type": "school",
    "name": "Shooter's Grove Primary School",
    "address": "Wood Lane, Sheffield",
    "postcode": "S6 5HN",
    "lat": 53.396672,
    "lng": -1.523982
  },
  {
    "id": "school-107102",
    "type": "school",
    "name": "Shortbrook Primary School",
    "address": "Westfield Northway, Sheffield",
    "postcode": "S20 8FB",
    "lat": 53.330165,
    "lng": -1.346979
  },
  {
    "id": "school-107106",
    "type": "school",
    "name": "Norton Free Church of England Primary School",
    "address": "Matthews Lane, Sheffield",
    "postcode": "S8 8JS",
    "lat": 53.336721,
    "lng": -1.456987
  },
  {
    "id": "school-107162",
    "type": "school",
    "name": "Westbourne School",
    "address": "60 Westbourne Road",
    "postcode": "S10 2QT",
    "lat": 53.373208,
    "lng": -1.499471
  },
  {
    "id": "school-107163",
    "type": "school",
    "name": "Birkdale School",
    "address": "Oakholme Road, Sheffield",
    "postcode": "S10 3DH",
    "lat": 53.374239,
    "lng": -1.503262
  },
  {
    "id": "school-107165",
    "type": "school",
    "name": "Mylnhurst Preparatory School and Nursery",
    "address": "Button Hill, Sheffield",
    "postcode": "S11 9HJ",
    "lat": 53.351288,
    "lng": -1.507495
  },
  {
    "id": "school-107178",
    "type": "school",
    "name": "Talbot Specialist School",
    "address": "Lees Hall Road, Sheffield",
    "postcode": "S8 9JP",
    "lat": 53.346957,
    "lng": -1.460192
  },
  {
    "id": "school-107180",
    "type": "school",
    "name": "Woolley Wood School",
    "address": "Chaucer Road, Sheffield",
    "postcode": "S5 9QN",
    "lat": 53.431828,
    "lng": -1.484362
  },
  {
    "id": "school-107182",
    "type": "school",
    "name": "Mossbrook School",
    "address": "Bochum Parkway, Sheffield",
    "postcode": "S8 8JR",
    "lat": 53.329568,
    "lng": -1.459601
  },
  {
    "id": "school-107185",
    "type": "school",
    "name": "Strong Close Nursery School",
    "address": "Airedale Road, Keighley",
    "postcode": "BD21 4LW",
    "lat": 53.870142,
    "lng": -1.886474
  },
  {
    "id": "school-107186",
    "type": "school",
    "name": "Hirst Wood Nursery School",
    "address": "Clarence Road, Shipley",
    "postcode": "BD18 4NJ",
    "lat": 53.836651,
    "lng": -1.793874
  },
  {
    "id": "school-107187",
    "type": "school",
    "name": "Lilycroft Nursery School",
    "address": "Lilycroft Road, Bradford",
    "postcode": "BD9 5AD",
    "lat": 53.806709,
    "lng": -1.779001
  },
  {
    "id": "school-107188",
    "type": "school",
    "name": "Abbey Green Nursery School",
    "address": "Green Lane, Bradford",
    "postcode": "BD8 8HT",
    "lat": 53.801964,
    "lng": -1.764995
  },
  {
    "id": "school-107189",
    "type": "school",
    "name": "Midland Road Nursery School",
    "address": "Bateman Street, Bradford",
    "postcode": "BD8 7DJ",
    "lat": 53.806257,
    "lng": -1.758759
  },
  {
    "id": "school-107190",
    "type": "school",
    "name": "St Edmund's Nursery School & Children's Centre",
    "address": "Washington Street, Bradford",
    "postcode": "BD8 9QW",
    "lat": 53.801547,
    "lng": -1.787289
  },
  {
    "id": "school-107204",
    "type": "school",
    "name": "Frizinghall Primary School",
    "address": "Salisbury Road, Bradford",
    "postcode": "BD9 4HP",
    "lat": 53.820788,
    "lng": -1.770207
  },
  {
    "id": "school-107218",
    "type": "school",
    "name": "Newby Primary School",
    "address": "Ryan Street, Bradford",
    "postcode": "BD5 7DQ",
    "lat": 53.77883,
    "lng": -1.758143
  },
  {
    "id": "school-107219",
    "type": "school",
    "name": "Sandy Lane Primary School",
    "address": "Cottingley Road, Bradford",
    "postcode": "BD15 9JU",
    "lat": 53.815756,
    "lng": -1.830691
  },
  {
    "id": "school-107220",
    "type": "school",
    "name": "Swain House Primary School",
    "address": "Radcliffe Avenue, Bradford",
    "postcode": "BD2 1JL",
    "lat": 53.819897,
    "lng": -1.738917
  },
  {
    "id": "school-107221",
    "type": "school",
    "name": "Thackley Primary School",
    "address": "Town Lane, Bradford",
    "postcode": "BD10 8PJ",
    "lat": 53.842001,
    "lng": -1.730845
  },
  {
    "id": "school-107224",
    "type": "school",
    "name": "Blakehill Primary School",
    "address": "Highfield Road, Bradford",
    "postcode": "BD10 8QN",
    "lat": 53.827789,
    "lng": -1.734765
  },
  {
    "id": "school-107230",
    "type": "school",
    "name": "Wellington Primary School",
    "address": "Dudley Hill Road, Bradford",
    "postcode": "BD2 3DE",
    "lat": 53.81181,
    "lng": -1.728441
  },
  {
    "id": "school-107233",
    "type": "school",
    "name": "Wibsey Primary School",
    "address": "North Road, Bradford",
    "postcode": "BD6 1RL",
    "lat": 53.767625,
    "lng": -1.774321
  },
  {
    "id": "school-107237",
    "type": "school",
    "name": "Stocks Lane Primary School",
    "address": "Stocks Lane, Bradford",
    "postcode": "BD13 2RH",
    "lat": 53.770076,
    "lng": -1.820026
  },
  {
    "id": "school-107238",
    "type": "school",
    "name": "Farfield Primary and Nursery School",
    "address": "Reevy Crescent, Bradford",
    "postcode": "BD6 2BS",
    "lat": 53.761187,
    "lng": -1.792772
  },
  {
    "id": "school-107241",
    "type": "school",
    "name": "Ley Top Primary School",
    "address": "Avenel Road, Bradford",
    "postcode": "BD15 7PQ",
    "lat": 53.80118,
    "lng": -1.821168
  },
  {
    "id": "school-107246",
    "type": "school",
    "name": "Worthinghead Primary School",
    "address": "Wyke Lane, Bradford",
    "postcode": "BD12 9EL",
    "lat": 53.740008,
    "lng": -1.759048
  },
  {
    "id": "school-107247",
    "type": "school",
    "name": "Poplars Farm Primary School",
    "address": "Poplars Park Road, Bradford",
    "postcode": "BD2 1LQ",
    "lat": 53.817559,
    "lng": -1.751251
  },
  {
    "id": "school-107248",
    "type": "school",
    "name": "Bankfoot Primary School",
    "address": "Bolingbroke Street, Bradford",
    "postcode": "BD5 9NR",
    "lat": 53.7725,
    "lng": -1.761472
  },
  {
    "id": "school-107249",
    "type": "school",
    "name": "Fagley Primary School",
    "address": "Falsgrave Avenue, Bradford",
    "postcode": "BD2 3PU",
    "lat": 53.809805,
    "lng": -1.71638
  },
  {
    "id": "school-107250",
    "type": "school",
    "name": "Brackenhill Primary School",
    "address": "Dracup Road, Bradford",
    "postcode": "BD7 4HA",
    "lat": 53.778853,
    "lng": -1.789361
  },
  {
    "id": "school-107253",
    "type": "school",
    "name": "Crossflatts Primary School",
    "address": "Morton Lane, Bingley",
    "postcode": "BD16 2EP",
    "lat": 53.861958,
    "lng": -1.8434
  },
  {
    "id": "school-107255",
    "type": "school",
    "name": "Eldwick Primary School",
    "address": "Warren Lane, Bingley",
    "postcode": "BD16 3LE",
    "lat": 53.852608,
    "lng": -1.817011
  },
  {
    "id": "school-107262",
    "type": "school",
    "name": "Ingrow Primary School",
    "address": "Broomhill Avenue, Keighley",
    "postcode": "BD21 1BW",
    "lat": 53.855147,
    "lng": -1.917653
  },
  {
    "id": "school-107265",
    "type": "school",
    "name": "Long Lee Primary School",
    "address": "Cherry Tree Rise, Keighley",
    "postcode": "BD21 4RU",
    "lat": 53.861401,
    "lng": -1.892033
  },
  {
    "id": "school-107268",
    "type": "school",
    "name": "Stanbury Village School",
    "address": "Main Street, Keighley",
    "postcode": "BD22 0HA",
    "lat": 53.828935,
    "lng": -1.987738
  },
  {
    "id": "school-107270",
    "type": "school",
    "name": "Saltaire Primary School",
    "address": "Albert Road, Shipley",
    "postcode": "BD18 4NR",
    "lat": 53.836461,
    "lng": -1.792826
  },
  {
    "id": "school-107272",
    "type": "school",
    "name": "Low Ash Primary School",
    "address": "Wrose Road, Shipley",
    "postcode": "BD18 1AA",
    "lat": 53.8282,
    "lng": -1.759408
  },
  {
    "id": "school-107273",
    "type": "school",
    "name": "Silsden Primary School",
    "address": "Hawber Cote Lane, Keighley",
    "postcode": "BD20 0JJ",
    "lat": 53.912328,
    "lng": -1.937714
  },
  {
    "id": "school-107275",
    "type": "school",
    "name": "Steeton Primary School",
    "address": "Market Street, Keighley",
    "postcode": "BD20 6NN",
    "lat": 53.894786,
    "lng": -1.946019
  },
  {
    "id": "school-107281",
    "type": "school",
    "name": "Ben Rhydding Primary School",
    "address": "Bolling Road, Ilkley",
    "postcode": "LS29 8QH",
    "lat": 53.924673,
    "lng": -1.800263
  },
  {
    "id": "school-107283",
    "type": "school",
    "name": "Hoyle Court Primary School",
    "address": "Fyfe Grove, Shipley",
    "postcode": "BD17 6DN",
    "lat": 53.846258,
    "lng": -1.754516
  },
  {
    "id": "school-107286",
    "type": "school",
    "name": "Addingham Primary School",
    "address": "Bolton Road, Ilkley",
    "postcode": "LS29 0NR",
    "lat": 53.944294,
    "lng": -1.880589
  },
  {
    "id": "school-107287",
    "type": "school",
    "name": "Sandal Primary School",
    "address": "West Lane, Shipley",
    "postcode": "BD17 5DH",
    "lat": 53.84792,
    "lng": -1.77658
  },
  {
    "id": "school-107293",
    "type": "school",
    "name": "Girlington Primary School",
    "address": "Girlington Road, Bradford",
    "postcode": "BD8 9NR",
    "lat": 53.801642,
    "lng": -1.785314
  },
  {
    "id": "school-107305",
    "type": "school",
    "name": "St Luke's CofE Primary School",
    "address": "Fagley Lane, Bradford",
    "postcode": "BD2 3NS",
    "lat": 53.815615,
    "lng": -1.717768
  },
  {
    "id": "school-107307",
    "type": "school",
    "name": "Low Moor CofE Primary School",
    "address": "Park House Road, Bradford",
    "postcode": "BD12 0NN",
    "lat": 53.755734,
    "lng": -1.756425
  },
  {
    "id": "school-107309",
    "type": "school",
    "name": "All Saints' CofE Primary School",
    "address": "Easby Drive, Ilkley",
    "postcode": "LS29 9BE",
    "lat": 53.926976,
    "lng": -1.830942
  },
  {
    "id": "school-107313",
    "type": "school",
    "name": "Burley and Woodhead CofE Primary School",
    "address": "Sandholme Drive, Ilkley",
    "postcode": "LS29 7RQ",
    "lat": 53.906056,
    "lng": -1.747407
  },
  {
    "id": "school-107319",
    "type": "school",
    "name": "St Paul's CofE Primary School",
    "address": "St Paul's Avenue, Bradford",
    "postcode": "BD6 1ST",
    "lat": 53.762945,
    "lng": -1.77603
  },
  {
    "id": "school-107320",
    "type": "school",
    "name": "Idle CofE Primary School",
    "address": "Boothroyd Drive, Bradford",
    "postcode": "BD10 8LU",
    "lat": 53.840378,
    "lng": -1.732786
  },
  {
    "id": "school-107321",
    "type": "school",
    "name": "Heaton St Barnabas' CofE Aided Primary School",
    "address": "Rossefield Road, Bradford",
    "postcode": "BD9 4DA",
    "lat": 53.817256,
    "lng": -1.785067
  },
  {
    "id": "school-107323",
    "type": "school",
    "name": "St Stephen's CofE Primary School",
    "address": "Gaythorne Road, Bradford",
    "postcode": "BD5 7HU",
    "lat": 53.778012,
    "lng": -1.753686
  },
  {
    "id": "school-107339",
    "type": "school",
    "name": "Keighley St Andrew's CofE Primary School and Nursery",
    "address": "Lustre Street, Keighley",
    "postcode": "BD21 2ND",
    "lat": 53.865366,
    "lng": -1.916903
  },
  {
    "id": "school-107340",
    "type": "school",
    "name": "Riddlesden St Mary's CofE Primary School",
    "address": "Grange Road, Keighley",
    "postcode": "BD20 5AB",
    "lat": 53.878631,
    "lng": -1.890726
  },
  {
    "id": "school-107395",
    "type": "school",
    "name": "Titus Salt School",
    "address": "Higher Coach Road, Bradford",
    "postcode": "BD17 5RH",
    "lat": 53.842309,
    "lng": -1.790912
  },
  {
    "id": "school-107431",
    "type": "school",
    "name": "Killinghall Primary School",
    "address": "Killinghall Road, Bradford",
    "postcode": "BD3 7JF",
    "lat": 53.80171,
    "lng": -1.721916
  },
  {
    "id": "school-107432",
    "type": "school",
    "name": "Foxhill Primary School",
    "address": "Brighouse and Denholme Road, Bradford",
    "postcode": "BD13 1LN",
    "lat": 53.772593,
    "lng": -1.85349
  },
  {
    "id": "school-107433",
    "type": "school",
    "name": "Russell Hall Primary School",
    "address": "West End, Bradford",
    "postcode": "BD13 2AW",
    "lat": 53.766321,
    "lng": -1.848201
  },
  {
    "id": "school-107434",
    "type": "school",
    "name": "Hill Top CofE Primary School",
    "address": "Common Road, Bradford",
    "postcode": "BD12 0TL",
    "lat": 53.755001,
    "lng": -1.76782
  },
  {
    "id": "school-107437",
    "type": "school",
    "name": "Myrtle Park Primary",
    "address": "Ash Terrace, Bingley",
    "postcode": "BD16 1HB",
    "lat": 53.844105,
    "lng": -1.83576
  },
  {
    "id": "school-107438",
    "type": "school",
    "name": "Keelham Primary School",
    "address": "Well Heads, Bradford",
    "postcode": "BD13 4HH",
    "lat": 53.787784,
    "lng": -1.885558
  },
  {
    "id": "school-107439",
    "type": "school",
    "name": "Bingley Grammar School",
    "address": "Keighley Road, Bingley",
    "postcode": "BD16 2RS",
    "lat": 53.855578,
    "lng": -1.844534
  },
  {
    "id": "school-107449",
    "type": "school",
    "name": "Ghyll Royd School and Pre-School",
    "address": "Greystone Manor, Ilkley",
    "postcode": "LS29 7HW",
    "lat": 53.919671,
    "lng": -1.754543
  },
  {
    "id": "school-107450",
    "type": "school",
    "name": "Moorfield School & Nursery",
    "address": "Wharfedale Lodge, Ilkley",
    "postcode": "LS29 8RL",
    "lat": 53.920273,
    "lng": -1.80904
  },
  {
    "id": "school-107453",
    "type": "school",
    "name": "Westville House School",
    "address": "Carter's Lane, Ilkley",
    "postcode": "LS29 0DQ",
    "lat": 53.938819,
    "lng": -1.804629
  },
  {
    "id": "school-107455",
    "type": "school",
    "name": "Bradford Grammar School",
    "address": "Keighley Road",
    "postcode": "BD9 4JP",
    "lat": 53.81433,
    "lng": -1.768298
  },
  {
    "id": "school-107458",
    "type": "school",
    "name": "Lady Lane Park School & Nursery",
    "address": "Lady Lane, Bingley",
    "postcode": "BD16 4AP",
    "lat": 53.860303,
    "lng": -1.829127
  },
  {
    "id": "school-107460",
    "type": "school",
    "name": "Jaamiatul Imaam Muhammad Zakaria",
    "address": "Thornton View Road, Bradford",
    "postcode": "BD14 6JX",
    "lat": 53.777766,
    "lng": -1.81157
  },
  {
    "id": "school-107461",
    "type": "school",
    "name": "Bradford Christian School",
    "address": "Livingstone Road, Bradford",
    "postcode": "BD2 1BT",
    "lat": 53.819606,
    "lng": -1.758865
  },
  {
    "id": "school-107480",
    "type": "school",
    "name": "Copley Primary School",
    "address": "Wakefield Road, Halifax",
    "postcode": "HX3 0TP",
    "lat": 53.699393,
    "lng": -1.866878
  },
  {
    "id": "school-107482",
    "type": "school",
    "name": "Savile Park Primary School",
    "address": "Moorfield Street, Halifax",
    "postcode": "HX1 3ER",
    "lat": 53.713513,
    "lng": -1.874046
  },
  {
    "id": "school-107486",
    "type": "school",
    "name": "Northowram Primary School",
    "address": "Baxter Lane, Halifax",
    "postcode": "HX3 7EF",
    "lat": 53.740689,
    "lng": -1.831144
  },
  {
    "id": "school-107487",
    "type": "school",
    "name": "Parkinson Lane Community Primary School",
    "address": "Parkinson Lane, Halifax",
    "postcode": "HX1 3XL",
    "lat": 53.717248,
    "lng": -1.877581
  },
  {
    "id": "school-107490",
    "type": "school",
    "name": "Salterhebble Junior and Infant School",
    "address": "Stafford Square, Halifax",
    "postcode": "HX3 0AU",
    "lat": 53.706858,
    "lng": -1.854779
  },
  {
    "id": "school-107495",
    "type": "school",
    "name": "Warley Town School",
    "address": "Dark Lane, Halifax",
    "postcode": "HX2 7QD",
    "lat": 53.718277,
    "lng": -1.914117
  },
  {
    "id": "school-107497",
    "type": "school",
    "name": "Ling Bob Junior, Infant and Nursery School",
    "address": "Albert Road, Halifax",
    "postcode": "HX2 0QD",
    "lat": 53.72754,
    "lng": -1.896484
  },
  {
    "id": "school-107499",
    "type": "school",
    "name": "Bailiffe Bridge Junior and Infant School",
    "address": "Victoria Road, Brighouse",
    "postcode": "HD6 4DY",
    "lat": 53.72304,
    "lng": -1.774756
  },
  {
    "id": "school-107500",
    "type": "school",
    "name": "Carr Green Primary School",
    "address": "Carr Green Lane, Brighouse",
    "postcode": "HD6 3LT",
    "lat": 53.68628,
    "lng": -1.792549
  },
  {
    "id": "school-107501",
    "type": "school",
    "name": "Longroyde Primary School",
    "address": "Longroyde Road, Brighouse",
    "postcode": "HD6 3AS",
    "lat": 53.696465,
    "lng": -1.787758
  },
  {
    "id": "school-107502",
    "type": "school",
    "name": "Withinfields Primary School",
    "address": "Withinfields, Halifax",
    "postcode": "HX3 9QJ",
    "lat": 53.712517,
    "lng": -1.831606
  },
  {
    "id": "school-107505",
    "type": "school",
    "name": "Holywell Green Primary School",
    "address": "Stainland Road, Halifax",
    "postcode": "HX4 9AE",
    "lat": 53.674037,
    "lng": -1.869486
  },
  {
    "id": "school-107507",
    "type": "school",
    "name": "Central Street Infant and Nursery School",
    "address": "Central Street, Hebden Bridge",
    "postcode": "HX7 6HB",
    "lat": 53.740717,
    "lng": -2.014253
  },
  {
    "id": "school-107510",
    "type": "school",
    "name": "Stubbings Infant School",
    "address": "School Street, Hebden Bridge",
    "postcode": "HX7 8BP",
    "lat": 53.741958,
    "lng": -2.00931
  },
  {
    "id": "school-107512",
    "type": "school",
    "name": "Colden Junior and Infant School",
    "address": "Smithy Lane, Hebden Bridge",
    "postcode": "HX7 7HW",
    "lat": 53.751626,
    "lng": -2.057725
  },
  {
    "id": "school-107513",
    "type": "school",
    "name": "Shelf Junior and Infant School",
    "address": "Shelf Hall Lane, Halifax",
    "postcode": "HX3 7LT",
    "lat": 53.75028,
    "lng": -1.818472
  },
  {
    "id": "school-107514",
    "type": "school",
    "name": "Ripponden Junior and Infant School",
    "address": "Halifax Road, Sowerby Bridge",
    "postcode": "HX6 4AH",
    "lat": 53.676321,
    "lng": -1.936291
  },
  {
    "id": "school-107518",
    "type": "school",
    "name": "New Road Primary School",
    "address": "Sowerby New Road, Sowerby Bridge",
    "postcode": "HX6 1DY",
    "lat": 53.70707,
    "lng": -1.91773
  },
  {
    "id": "school-107519",
    "type": "school",
    "name": "Tuel Lane Infant School",
    "address": "Clay Street, Sowerby Bridge",
    "postcode": "HX6 2ND",
    "lat": 53.711542,
    "lng": -1.911236
  },
  {
    "id": "school-107525",
    "type": "school",
    "name": "Cliffe Hill Community Primary School",
    "address": "Stoney Lane, Halifax",
    "postcode": "HX3 8TW",
    "lat": 53.720349,
    "lng": -1.787517
  },
  {
    "id": "school-107528",
    "type": "school",
    "name": "Woodhouse Primary School",
    "address": "Daisy Road, Brighouse",
    "postcode": "HD6 3SX",
    "lat": 53.693294,
    "lng": -1.774385
  },
  {
    "id": "school-107529",
    "type": "school",
    "name": "Riverside Junior School",
    "address": "Holme Street, Hebden Bridge",
    "postcode": "HX7 8EE",
    "lat": 53.740384,
    "lng": -2.013161
  },
  {
    "id": "school-107533",
    "type": "school",
    "name": "Cross Lane Primary and Nursery School",
    "address": "Cross Lane, Elland",
    "postcode": "HX5 0LP",
    "lat": 53.679219,
    "lng": -1.842928
  },
  {
    "id": "school-107534",
    "type": "school",
    "name": "Ash Green Community Primary School",
    "address": "Mixenden Road, Halifax",
    "postcode": "HX2 8QD",
    "lat": 53.74905,
    "lng": -1.905804
  },
  {
    "id": "school-107535",
    "type": "school",
    "name": "Christ Church Pellon CofE VC Primary School",
    "address": "Sandbeds Road, Halifax",
    "postcode": "HX2 0QQ",
    "lat": 53.729318,
    "lng": -1.894388
  },
  {
    "id": "school-107537",
    "type": "school",
    "name": "Norland CE School",
    "address": "Berry Moor Road, Sowerby Bridge",
    "postcode": "HX6 3RN",
    "lat": 53.699883,
    "lng": -1.899945
  },
  {
    "id": "school-107538",
    "type": "school",
    "name": "St Mary's CofE (VC) J and I School",
    "address": "Mill Bank, Sowerby Bridge",
    "postcode": "HX6 3EJ",
    "lat": 53.688273,
    "lng": -1.947328
  },
  {
    "id": "school-107540",
    "type": "school",
    "name": "Triangle CofE VC Primary School",
    "address": "Butterworth Lane, Sowerby Bridge",
    "postcode": "HX6 3NJ",
    "lat": 53.696437,
    "lng": -1.934761
  },
  {
    "id": "school-107547",
    "type": "school",
    "name": "St Andrew's CofE (VA) Junior School",
    "address": "Waterloo Road, Brighouse",
    "postcode": "HD6 2AN",
    "lat": 53.704927,
    "lng": -1.784701
  },
  {
    "id": "school-107548",
    "type": "school",
    "name": "St Andrew's Church of England (VA) Infant School",
    "address": "Lightcliffe Road, Brighouse",
    "postcode": "HD6 2HH",
    "lat": 53.709261,
    "lng": -1.78536
  },
  {
    "id": "school-107550",
    "type": "school",
    "name": "Elland Church of England (Voluntary Aided) Junior, Infant and Nursery School",
    "address": "Westgate, Elland",
    "postcode": "HX5 0BB",
    "lat": 53.685469,
    "lng": -1.837907
  },
  {
    "id": "school-107552",
    "type": "school",
    "name": "Barkisland CofE VA Primary School",
    "address": "Scammonden Road, Halifax",
    "postcode": "HX4 0BD",
    "lat": 53.676382,
    "lng": -1.919213
  },
  {
    "id": "school-107554",
    "type": "school",
    "name": "Christ Church CofE VA Junior School, Sowerby Bridge",
    "address": "Park Road, Sowerby Bridge",
    "postcode": "HX6 2BJ",
    "lat": 53.71265,
    "lng": -1.902551
  },
  {
    "id": "school-107569",
    "type": "school",
    "name": "All Saints' CofE Primary School",
    "address": "Dudwell Lane, Halifax",
    "postcode": "HX3 0SD",
    "lat": 53.700498,
    "lng": -1.858421
  },
  {
    "id": "school-107570",
    "type": "school",
    "name": "St Michael and All Angels CofE Primary & Pre School",
    "address": "Meadow Close, Halifax",
    "postcode": "HX3 7QU",
    "lat": 53.754872,
    "lng": -1.806394
  },
  {
    "id": "school-107582",
    "type": "school",
    "name": "The Gleddings School",
    "address": "Birdcage Lane, Halifax",
    "postcode": "HX3 0JB",
    "lat": 53.704855,
    "lng": -1.872148
  },
  {
    "id": "school-107583",
    "type": "school",
    "name": "Rishworth School",
    "address": "Oldham Road, Sowerby Bridge",
    "postcode": "HX6 4QA",
    "lat": 53.663184,
    "lng": -1.948571
  },
  {
    "id": "school-107585",
    "type": "school",
    "name": "Hipperholme Grammar School",
    "address": "Bramley Lane",
    "postcode": "HX3 8JE",
    "lat": 53.728264,
    "lng": -1.8117
  },
  {
    "id": "school-107588",
    "type": "school",
    "name": "Ravenscliffe High School",
    "address": "Skircoat Green, Halifax",
    "postcode": "HX3 0RZ",
    "lat": 53.701726,
    "lng": -1.86378
  },
  {
    "id": "school-107589",
    "type": "school",
    "name": "The William Henry Smith School and Sixth Form",
    "address": "Boothroyd, Brighouse",
    "postcode": "HD6 3JW",
    "lat": 53.693011,
    "lng": -1.802179
  },
  {
    "id": "school-107590",
    "type": "school",
    "name": "Wood Bank School",
    "address": "Dene View, Halifax",
    "postcode": "HX2 6PB",
    "lat": 53.72695,
    "lng": -1.94105
  },
  {
    "id": "school-107591",
    "type": "school",
    "name": "Highbury School",
    "address": "Lower Edge Road, Brighouse",
    "postcode": "HD6 3LD",
    "lat": 53.687224,
    "lng": -1.797997
  },
  {
    "id": "school-107592",
    "type": "school",
    "name": "Flatts Nursery School",
    "address": "Ashworth Green, Dewsbury",
    "postcode": "WF13 2SU",
    "lat": 53.692273,
    "lng": -1.636837
  },
  {
    "id": "school-107600",
    "type": "school",
    "name": "Carlton Junior and Infant School",
    "address": "Upper Road, Dewsbury",
    "postcode": "WF13 2DQ",
    "lat": 53.700426,
    "lng": -1.636585
  },
  {
    "id": "school-107601",
    "type": "school",
    "name": "Birkby Infant and Nursery School",
    "address": "Blacker Road, Huddersfield",
    "postcode": "HD1 5HQ",
    "lat": 53.656208,
    "lng": -1.790745
  },
  {
    "id": "school-107608",
    "type": "school",
    "name": "Shaw Cross Infant and Nursery School",
    "address": "Leeds Road, Dewsbury",
    "postcode": "WF12 7HP",
    "lat": 53.704102,
    "lng": -1.602542
  },
  {
    "id": "school-107613",
    "type": "school",
    "name": "Westmoor Primary School",
    "address": "Church Lane, Dewsbury",
    "postcode": "WF13 4EW",
    "lat": 53.693616,
    "lng": -1.653305
  },
  {
    "id": "school-107615",
    "type": "school",
    "name": "Paddock Junior Infant and Nursery School",
    "address": "Heaton Road, Huddersfield",
    "postcode": "HD1 4JJ",
    "lat": 53.643786,
    "lng": -1.807584
  },
  {
    "id": "school-107620",
    "type": "school",
    "name": "Netherhall Learning Campus Junior School",
    "address": "Rawthorpe Lane, Huddersfield",
    "postcode": "HD5 9NT",
    "lat": 53.651522,
    "lng": -1.760567
  },
  {
    "id": "school-107623",
    "type": "school",
    "name": "Crow Lane Primary and Foundation Stage School",
    "address": "Crow Lane, Huddersfield",
    "postcode": "HD3 4QT",
    "lat": 53.642002,
    "lng": -1.828755
  },
  {
    "id": "school-107626",
    "type": "school",
    "name": "Birkby Junior School",
    "address": "Mead Street, Huddersfield",
    "postcode": "HD1 6HE",
    "lat": 53.658809,
    "lng": -1.782424
  },
  {
    "id": "school-107628",
    "type": "school",
    "name": "Ashbrow School",
    "address": "Ash Meadow Close, Huddersfield",
    "postcode": "HD2 1EX",
    "lat": 53.669974,
    "lng": -1.773117
  },
  {
    "id": "school-107639",
    "type": "school",
    "name": "Mill Lane Primary School",
    "address": "Mill Lane, Batley",
    "postcode": "WF17 6EG",
    "lat": 53.705062,
    "lng": -1.621501
  },
  {
    "id": "school-107640",
    "type": "school",
    "name": "Park Road Junior Infant and Nursery School",
    "address": "Park Road, Batley",
    "postcode": "WF17 5LP",
    "lat": 53.715663,
    "lng": -1.62818
  },
  {
    "id": "school-107642",
    "type": "school",
    "name": "Warwick Road Primary School",
    "address": "Warwick Road, Batley",
    "postcode": "WF17 6BS",
    "lat": 53.70331,
    "lng": -1.63038
  },
  {
    "id": "school-107643",
    "type": "school",
    "name": "Clough Head Junior and Infant School",
    "address": "Bolster Moor Road, Huddersfield",
    "postcode": "HD7 4NW",
    "lat": 53.639329,
    "lng": -1.877277
  },
  {
    "id": "school-107644",
    "type": "school",
    "name": "Marsden Infant and Nursery School",
    "address": "Brougham Road, Huddersfield",
    "postcode": "HD7 6BN",
    "lat": 53.600831,
    "lng": -1.924511
  },
  {
    "id": "school-107645",
    "type": "school",
    "name": "Scapegoat Hill Junior and Infant School",
    "address": "School Road, Huddersfield",
    "postcode": "HD7 4NU",
    "lat": 53.64571,
    "lng": -1.867561
  },
  {
    "id": "school-107647",
    "type": "school",
    "name": "Wellhouse Junior and Infant School",
    "address": "Lower Wellhouse, Huddersfield",
    "postcode": "HD7 4ES",
    "lat": 53.632346,
    "lng": -1.855141
  },
  {
    "id": "school-107648",
    "type": "school",
    "name": "Wilberlee Junior and Infant School",
    "address": "Heys Lane, Slaithwaite",
    "postcode": "HD7 5UX",
    "lat": 53.62822,
    "lng": -1.898028
  },
  {
    "id": "school-107651",
    "type": "school",
    "name": "Emley First School",
    "address": "School Lane, Huddersfield",
    "postcode": "HD8 9RT",
    "lat": 53.615037,
    "lng": -1.628052
  },
  {
    "id": "school-107655",
    "type": "school",
    "name": "Holmfirth Junior Infant and Nursery School",
    "address": "Cartworth Road, Holmfirth",
    "postcode": "HD9 2RG",
    "lat": 53.566959,
    "lng": -1.784436
  },
  {
    "id": "school-107656",
    "type": "school",
    "name": "Hade Edge Junior, Infant and Nursery School",
    "address": "Greave Road, Holmfirth",
    "postcode": "HD9 2DF",
    "lat": 53.546125,
    "lng": -1.781327
  },
  {
    "id": "school-107657",
    "type": "school",
    "name": "Hepworth Junior and Infant School",
    "address": "Maingate, Holmfirth",
    "postcode": "HD9 1TJ",
    "lat": 53.554693,
    "lng": -1.749519
  },
  {
    "id": "school-107658",
    "type": "school",
    "name": "Hinchliffe Mill Junior and Infant School",
    "address": "Waterside Lane, Holmfirth",
    "postcode": "HD9 2PF",
    "lat": 53.556928,
    "lng": -1.811737
  },
  {
    "id": "school-107659",
    "type": "school",
    "name": "Holme Junior and Infant School",
    "address": "Meal Hill Road, Holmfirth",
    "postcode": "HD9 2QQ",
    "lat": 53.550731,
    "lng": -1.839706
  },
  {
    "id": "school-107660",
    "type": "school",
    "name": "Netherthong Primary School",
    "address": "School Street, Holmfirth",
    "postcode": "HD9 3EB",
    "lat": 53.584235,
    "lng": -1.788457
  },
  {
    "id": "school-107663",
    "type": "school",
    "name": "Shepley First School",
    "address": "Firth Street, Huddersfield",
    "postcode": "HD8 8DD",
    "lat": 53.58284,
    "lng": -1.706541
  },
  {
    "id": "school-107664",
    "type": "school",
    "name": "Grange Moor Primary School",
    "address": "Liley Lane, Wakefield",
    "postcode": "WF4 4EW",
    "lat": 53.639861,
    "lng": -1.66618
  },
  {
    "id": "school-107665",
    "type": "school",
    "name": "Hopton Primary School",
    "address": "Woodend Road, Mirfield",
    "postcode": "WF14 8PR",
    "lat": 53.671985,
    "lng": -1.698731
  },
  {
    "id": "school-107666",
    "type": "school",
    "name": "Gomersal Primary School",
    "address": "Oxford Road, Cleckheaton",
    "postcode": "BD19 4PX",
    "lat": 53.73057,
    "lng": -1.682077
  },
  {
    "id": "school-107667",
    "type": "school",
    "name": "Hartshead Junior and Infant School",
    "address": "School Lane, Liversedge",
    "postcode": "WF15 8AW",
    "lat": 53.700181,
    "lng": -1.719359
  },
  {
    "id": "school-107669",
    "type": "school",
    "name": "Hightown Junior Infant & Nursery School",
    "address": "Hightown Road, Liversedge",
    "postcode": "WF15 8BL",
    "lat": 53.712407,
    "lng": -1.719626
  },
  {
    "id": "school-107670",
    "type": "school",
    "name": "Littletown Junior Infant and Nursery School",
    "address": "Bradford Road, Liversedge",
    "postcode": "WF15 6LP",
    "lat": 53.716213,
    "lng": -1.695369
  },
  {
    "id": "school-107671",
    "type": "school",
    "name": "Howard Park Community School",
    "address": "St. Peg Lane, Cleckheaton",
    "postcode": "BD19 3SA",
    "lat": 53.72287,
    "lng": -1.708295
  },
  {
    "id": "school-107674",
    "type": "school",
    "name": "Scholes Village Primary School",
    "address": "Old Popplewell Lane, Cleckheaton",
    "postcode": "BD19 6DN",
    "lat": 53.729509,
    "lng": -1.754515
  },
  {
    "id": "school-107677",
    "type": "school",
    "name": "Rowley Lane Junior Infant and Nursery School",
    "address": "Rowley Lane, Huddersfield",
    "postcode": "HD8 0JD",
    "lat": 53.629909,
    "lng": -1.710631
  },
  {
    "id": "school-107678",
    "type": "school",
    "name": "Lydgate Junior and Infant School",
    "address": "Lydgate Road, Batley",
    "postcode": "WF17 6EY",
    "lat": 53.713016,
    "lng": -1.606989
  },
  {
    "id": "school-107680",
    "type": "school",
    "name": "Upperthong Junior and Infant School",
    "address": "Burnlee Road, Holmfirth",
    "postcode": "HD9 2LE",
    "lat": 53.567563,
    "lng": -1.800712
  },
  {
    "id": "school-107684",
    "type": "school",
    "name": "High Bank Junior Infant and Nursery School",
    "address": "Eighth Avenue, Liversedge",
    "postcode": "WF15 8LD",
    "lat": 53.713414,
    "lng": -1.731773
  },
  {
    "id": "school-107685",
    "type": "school",
    "name": "Norristhorpe Junior and Infant School",
    "address": "School Street, Liversedge",
    "postcode": "WF15 7AW",
    "lat": 53.700432,
    "lng": -1.683137
  },
  {
    "id": "school-107688",
    "type": "school",
    "name": "Denby Dale First and Nursery School",
    "address": "Gilthwaites Lane, Huddersfield",
    "postcode": "HD8 8SG",
    "lat": 53.578623,
    "lng": -1.649594
  },
  {
    "id": "school-107690",
    "type": "school",
    "name": "Pentland Infant and Nursery School",
    "address": "Pentland Road, Dewsbury",
    "postcode": "WF12 9JR",
    "lat": 53.679991,
    "lng": -1.627147
  },
  {
    "id": "school-107691",
    "type": "school",
    "name": "Moldgreen Community Primary School",
    "address": "The Avenue, Huddersfield",
    "postcode": "HD5 8AE",
    "lat": 53.643856,
    "lng": -1.761714
  },
  {
    "id": "school-107696",
    "type": "school",
    "name": "Golcar Junior Infant and Nursery School",
    "address": "Manor Road, Huddersfield",
    "postcode": "HD7 4QE",
    "lat": 53.639597,
    "lng": -1.852
  },
  {
    "id": "school-107697",
    "type": "school",
    "name": "Crossley Fields Junior and Infant School",
    "address": "Wellhouse Lane, Mirfield",
    "postcode": "WF14 0BE",
    "lat": 53.687138,
    "lng": -1.687129
  },
  {
    "id": "school-107699",
    "type": "school",
    "name": "Ravensthorpe Church of England Voluntary Controlled Junior School",
    "address": "Myrtle Road, Dewsbury",
    "postcode": "WF13 3AS",
    "lat": 53.679271,
    "lng": -1.666595
  },
  {
    "id": "school-107700",
    "type": "school",
    "name": "Netherhall St James CofE (VC) Infant and Nursery School",
    "address": "Rawthorpe Lane, Huddersfield",
    "postcode": "HD5 9NT",
    "lat": 53.653339,
    "lng": -1.756985
  },
  {
    "id": "school-107702",
    "type": "school",
    "name": "Savile Town Church of England Voluntary Controlled Infant and Nursery School",
    "address": "Warren Street, Dewsbury",
    "postcode": "WF12 9LY",
    "lat": 53.683758,
    "lng": -1.627371
  },
  {
    "id": "school-107705",
    "type": "school",
    "name": "Thornhill Lees Church of England Voluntary Controlled Infant and Nursery School",
    "address": "Slaithwaite Road, Dewsbury",
    "postcode": "WF12 9DL",
    "lat": 53.674937,
    "lng": -1.632293
  },
  {
    "id": "school-107706",
    "type": "school",
    "name": "Bywell Church of England Voluntary Controlled Junior School",
    "address": "Bendigo Road, Dewsbury",
    "postcode": "WF12 7LX",
    "lat": 53.697607,
    "lng": -1.609283
  },
  {
    "id": "school-107707",
    "type": "school",
    "name": "Headfield Church of England Voluntary Controlled Junior School",
    "address": "Vicarage Road, Dewsbury",
    "postcode": "WF12 9PD",
    "lat": 53.677354,
    "lng": -1.631939
  },
  {
    "id": "school-107709",
    "type": "school",
    "name": "Hanging Heaton Church of England Voluntary Controlled Junior and Infant School",
    "address": "High Street, Batley",
    "postcode": "WF17 6DW",
    "lat": 53.704479,
    "lng": -1.607977
  },
  {
    "id": "school-107710",
    "type": "school",
    "name": "Staincliffe Church of England Voluntary Controlled Junior School",
    "address": "Staincliffe Hall Road, Batley",
    "postcode": "WF17 7QX",
    "lat": 53.707597,
    "lng": -1.651114
  },
  {
    "id": "school-107711",
    "type": "school",
    "name": "Slaithwaite Church of England Voluntary Controlled Junior and Infant School",
    "address": "Holme Lane, Huddersfield",
    "postcode": "HD7 5UG",
    "lat": 53.62273,
    "lng": -1.890647
  },
  {
    "id": "school-107713",
    "type": "school",
    "name": "Brockholes Church of England Voluntary Controlled Junior and Infant School",
    "address": "Brockholes Lane, Holmfirth",
    "postcode": "HD9 7EB",
    "lat": 53.594824,
    "lng": -1.768654
  },
  {
    "id": "school-107714",
    "type": "school",
    "name": "Flockton CofE (C) First School",
    "address": "Flockton First School, Wakefield",
    "postcode": "WF4 4DH",
    "lat": 53.630326,
    "lng": -1.636311
  },
  {
    "id": "school-107717",
    "type": "school",
    "name": "Thurstonland Endowed Voluntary Controlled First School",
    "address": "Marsh Hall Lane, Huddersfield",
    "postcode": "HD4 6XD",
    "lat": 53.592805,
    "lng": -1.748146
  },
  {
    "id": "school-107718",
    "type": "school",
    "name": "Meltham CofE (VC) Primary School",
    "address": "Holmfirth Road, Holmfirth",
    "postcode": "HD9 4DA",
    "lat": 53.589571,
    "lng": -1.844469
  },
  {
    "id": "school-107719",
    "type": "school",
    "name": "East Bierley Church of England Voluntary Controlled Primary School",
    "address": "South View Road, Bradford",
    "postcode": "BD4 6PH",
    "lat": 53.758383,
    "lng": -1.699721
  },
  {
    "id": "school-107722",
    "type": "school",
    "name": "Farnley Tyas Church of England Voluntary Controlled First School",
    "address": "Butts Road, Huddersfield",
    "postcode": "HD4 6TZ",
    "lat": 53.609492,
    "lng": -1.753791
  },
  {
    "id": "school-107723",
    "type": "school",
    "name": "Headlands Church of England Voluntary Controlled Junior, Infant and Nursery School",
    "address": "Headlands Road, Liversedge",
    "postcode": "WF15 6PR",
    "lat": 53.70949,
    "lng": -1.695888
  },
  {
    "id": "school-107725",
    "type": "school",
    "name": "Crowlees Church of England Voluntary Controlled Junior and Infant School",
    "address": "Springfield Park, Mirfield",
    "postcode": "WF14 9PD",
    "lat": 53.675851,
    "lng": -1.688363
  },
  {
    "id": "school-107727",
    "type": "school",
    "name": "All Hallows' CofE (VA) Primary School",
    "address": "Longcroft, Huddersfield",
    "postcode": "HD5 8XW",
    "lat": 53.630583,
    "lng": -1.750386
  },
  {
    "id": "school-107728",
    "type": "school",
    "name": "Battyeford CofE (VC) Primary School",
    "address": "Nab Lane, Mirfield",
    "postcode": "WF14 9QH",
    "lat": 53.681829,
    "lng": -1.706202
  },
  {
    "id": "school-107730",
    "type": "school",
    "name": "Birkenshaw Church of England Voluntary Controlled Primary School",
    "address": "Station Lane, Bradford",
    "postcode": "BD11 2JE",
    "lat": 53.755432,
    "lng": -1.688078
  },
  {
    "id": "school-107734",
    "type": "school",
    "name": "South Crosland Church of England Voluntary Aided Junior School",
    "address": "Moor Lane, Huddersfield",
    "postcode": "HD4 7HF",
    "lat": 53.613666,
    "lng": -1.80961
  },
  {
    "id": "school-107737",
    "type": "school",
    "name": "St Peter's Church of England Voluntary Aided Junior, Infant and Early Years School",
    "address": "Fieldhead Lane, Batley",
    "postcode": "WF17 9HN",
    "lat": 53.734923,
    "lng": -1.663305
  },
  {
    "id": "school-107739",
    "type": "school",
    "name": "St John's Church of England Voluntary Aided Junior and Infant School",
    "address": "Fieldhead, Huddersfield",
    "postcode": "HD7 4QQ",
    "lat": 53.641564,
    "lng": -1.851055
  },
  {
    "id": "school-107740",
    "type": "school",
    "name": "Linthwaite Ardron CofE (Voluntary Aided) Junior and Infant School",
    "address": "Church Lane, Huddersfield",
    "postcode": "HD7 5TA",
    "lat": 53.625052,
    "lng": -1.844596
  },
  {
    "id": "school-107742",
    "type": "school",
    "name": "Denby Church of England Voluntary Aided First School",
    "address": "Goose Green, Huddersfield",
    "postcode": "HD8 8UN",
    "lat": 53.559999,
    "lng": -1.659532
  },
  {
    "id": "school-107745",
    "type": "school",
    "name": "Kirkburton CofE (VA) First School",
    "address": "School Hill, Kirkburton",
    "postcode": "HD8 0SG",
    "lat": 53.60961,
    "lng": -1.699145
  },
  {
    "id": "school-107747",
    "type": "school",
    "name": "Gomersal St Mary's Church of England Voluntary Controlled Primary School",
    "address": "Shirley Avenue, Cleckheaton",
    "postcode": "BD19 4NA",
    "lat": 53.727163,
    "lng": -1.685422
  },
  {
    "id": "school-107756",
    "type": "school",
    "name": "Netherhall Learning Campus High School",
    "address": "Netherhall Avenue, Select",
    "postcode": "HD5 9PG",
    "lat": 53.654948,
    "lng": -1.756734
  },
  {
    "id": "school-107769",
    "type": "school",
    "name": "Holmfirth High School",
    "address": "Heys Road, Holmfirth",
    "postcode": "HD9 7SE",
    "lat": 53.582502,
    "lng": -1.769915
  },
  {
    "id": "school-107775",
    "type": "school",
    "name": "Westborough High School",
    "address": "Stockhill Street, Dewsbury",
    "postcode": "WF13 2JE",
    "lat": 53.693138,
    "lng": -1.646327
  },
  {
    "id": "school-107778",
    "type": "school",
    "name": "Spen Valley High School",
    "address": "Roberttown Lane, Liversedge",
    "postcode": "WF15 7LX",
    "lat": 53.704979,
    "lng": -1.69639
  },
  {
    "id": "school-107782",
    "type": "school",
    "name": "All Saints Catholic College",
    "address": "Bradley Bar, Huddersfield",
    "postcode": "HD2 2JT",
    "lat": 53.677761,
    "lng": -1.769805
  },
  {
    "id": "school-107786",
    "type": "school",
    "name": "Huddersfield Grammar School",
    "address": "Royds Mount, Huddersfield",
    "postcode": "HD1 4QX",
    "lat": 53.647389,
    "lng": -1.812212
  },
  {
    "id": "school-107787",
    "type": "school",
    "name": "The Mount School",
    "address": "3 Binham Road, Huddersfield",
    "postcode": "HD2 2AP",
    "lat": 53.658009,
    "lng": -1.803433
  },
  {
    "id": "school-107794",
    "type": "school",
    "name": "Madni Academy",
    "address": "40-42 Scarborough Street, Dewsbury",
    "postcode": "WF12 9AY",
    "lat": 53.682526,
    "lng": -1.624353
  },
  {
    "id": "school-107795",
    "type": "school",
    "name": "The Branch Christian School",
    "address": "Dewsbury Gospel Church, Dewsbury",
    "postcode": "WF13 4LA",
    "lat": 53.696809,
    "lng": -1.638722
  },
  {
    "id": "school-107796",
    "type": "school",
    "name": "Hollybank School",
    "address": "Roe Head, Mirfield",
    "postcode": "WF14 0DQ",
    "lat": 53.693017,
    "lng": -1.708441
  },
  {
    "id": "school-107797",
    "type": "school",
    "name": "Woodley School and College",
    "address": "Dog Kennel Bank, Huddersfield",
    "postcode": "HD5 8JE",
    "lat": 53.638376,
    "lng": -1.76825
  },
  {
    "id": "school-107799",
    "type": "school",
    "name": "Ravenshall School",
    "address": "Ravensthorpe Road, Dewsbury",
    "postcode": "WF12 9EE",
    "lat": 53.673481,
    "lng": -1.647324
  },
  {
    "id": "school-107801",
    "type": "school",
    "name": "Southgate School",
    "address": "Southfield Road, Huddersfield",
    "postcode": "HD5 8TG",
    "lat": 53.636242,
    "lng": -1.740218
  },
  {
    "id": "school-107802",
    "type": "school",
    "name": "Fairfield School",
    "address": "White Lee Road, Batley",
    "postcode": "WF17 8AS",
    "lat": 53.720206,
    "lng": -1.662437
  },
  {
    "id": "school-107809",
    "type": "school",
    "name": "Guiseley Primary School",
    "address": "Oxford Road, Leeds",
    "postcode": "LS20 9DA",
    "lat": 53.875965,
    "lng": -1.709482
  },
  {
    "id": "school-107810",
    "type": "school",
    "name": "Rawdon Littlemoor Primary School",
    "address": "New Road Side, Leeds",
    "postcode": "LS19 6DD",
    "lat": 53.855226,
    "lng": -1.687443
  },
  {
    "id": "school-107813",
    "type": "school",
    "name": "Scholes (Elmet) Primary School",
    "address": "Station Road, Leeds",
    "postcode": "LS15 4BJ",
    "lat": 53.825788,
    "lng": -1.428956
  },
  {
    "id": "school-107817",
    "type": "school",
    "name": "Horsforth Featherbank Primary School",
    "address": "Featherbank Avenue, Leeds",
    "postcode": "LS18 4QP",
    "lat": 53.83288,
    "lng": -1.639543
  },
  {
    "id": "school-107824",
    "type": "school",
    "name": "Seven Hills Primary School",
    "address": "Appleby Way, Leeds",
    "postcode": "LS27 8LA",
    "lat": 53.746898,
    "lng": -1.593994
  },
  {
    "id": "school-107827",
    "type": "school",
    "name": "Farsley Westroyd Primary School and Nursery",
    "address": "Frances Street, Leeds",
    "postcode": "LS28 5BH",
    "lat": 53.808977,
    "lng": -1.670412
  },
  {
    "id": "school-107828",
    "type": "school",
    "name": "Greenside Primary School",
    "address": "Chapeltown, Pudsey",
    "postcode": "LS28 8NZ",
    "lat": 53.791824,
    "lng": -1.666493
  },
  {
    "id": "school-107830",
    "type": "school",
    "name": "Carlton Primary School",
    "address": "New Road, Wakefield",
    "postcode": "WF3 3RE",
    "lat": 53.739658,
    "lng": -1.489714
  },
  {
    "id": "school-107831",
    "type": "school",
    "name": "Robin Hood Primary School",
    "address": "Leeds Road, Wakefield",
    "postcode": "WF3 3BG",
    "lat": 53.737113,
    "lng": -1.506605
  },
  {
    "id": "school-107832",
    "type": "school",
    "name": "Thorpe Primary School",
    "address": "Dolphin Lane, Wakefield",
    "postcode": "WF3 3DG",
    "lat": 53.733981,
    "lng": -1.523349
  },
  {
    "id": "school-107834",
    "type": "school",
    "name": "Woodlesford Primary School",
    "address": "Church Street, Leeds",
    "postcode": "LS26 8RD",
    "lat": 53.75714,
    "lng": -1.446573
  },
  {
    "id": "school-107840",
    "type": "school",
    "name": "Yeadon Westfield Junior School",
    "address": "New Road, Leeds",
    "postcode": "LS19 7HW",
    "lat": 53.864321,
    "lng": -1.697199
  },
  {
    "id": "school-107842",
    "type": "school",
    "name": "Oulton Primary School",
    "address": "Green Lea, Leeds",
    "postcode": "LS26 8NT",
    "lat": 53.753445,
    "lng": -1.45636
  },
  {
    "id": "school-107844",
    "type": "school",
    "name": "Bramham Primary School",
    "address": "Clifford Road, Wetherby",
    "postcode": "LS23 6JQ",
    "lat": 53.886786,
    "lng": -1.350735
  },
  {
    "id": "school-107845",
    "type": "school",
    "name": "Pudsey Bolton Royd Primary School",
    "address": "Moorland Grove, Leeds",
    "postcode": "LS28 8EP",
    "lat": 53.80095,
    "lng": -1.694118
  },
  {
    "id": "school-107846",
    "type": "school",
    "name": "West End Primary School",
    "address": "West End Lane, Leeds",
    "postcode": "LS18 5JP",
    "lat": 53.841159,
    "lng": -1.651631
  },
  {
    "id": "school-107847",
    "type": "school",
    "name": "Southroyd Primary and Nursery School",
    "address": "Littlemoor Crescent, Pudsey",
    "postcode": "LS28 8AT",
    "lat": 53.787955,
    "lng": -1.661727
  },
  {
    "id": "school-107848",
    "type": "school",
    "name": "Gildersome Primary School",
    "address": "Town Street, Leeds",
    "postcode": "LS27 7AB",
    "lat": 53.75751,
    "lng": -1.628705
  },
  {
    "id": "school-107849",
    "type": "school",
    "name": "Farsley Springbank Primary School",
    "address": "Wesley Street, Pudsey",
    "postcode": "LS28 5LE",
    "lat": 53.812718,
    "lng": -1.667512
  },
  {
    "id": "school-107851",
    "type": "school",
    "name": "Victoria Junior School",
    "address": "Cornwall Crescent, Leeds",
    "postcode": "LS26 0RA",
    "lat": 53.753779,
    "lng": -1.487343
  },
  {
    "id": "school-107854",
    "type": "school",
    "name": "Crossley Street Primary School",
    "address": "Crossley Street, Wetherby",
    "postcode": "LS22 6RT",
    "lat": 53.930371,
    "lng": -1.387819
  },
  {
    "id": "school-107855",
    "type": "school",
    "name": "Tranmere Park Primary School",
    "address": "Ridge Close, Leeds",
    "postcode": "LS20 8JJ",
    "lat": 53.871183,
    "lng": -1.724543
  },
  {
    "id": "school-107858",
    "type": "school",
    "name": "Queensway Primary School",
    "address": "Coppice Wood Avenue, Select",
    "postcode": "LS19 7LF",
    "lat": 53.873133,
    "lng": -1.691081
  },
  {
    "id": "school-107859",
    "type": "school",
    "name": "Yeadon Westfield Infant School",
    "address": "Westfield Grove, Leeds",
    "postcode": "LS19 7NQ",
    "lat": 53.863384,
    "lng": -1.699989
  },
  {
    "id": "school-107860",
    "type": "school",
    "name": "Horsforth Newlaithes Primary School",
    "address": "Victoria Crescent, Leeds",
    "postcode": "LS18 4PT",
    "lat": 53.828335,
    "lng": -1.646587
  },
  {
    "id": "school-107861",
    "type": "school",
    "name": "Westbrook Lane Primary School",
    "address": "Westbrook Lane, Leeds",
    "postcode": "LS18 5AH",
    "lat": 53.847272,
    "lng": -1.639693
  },
  {
    "id": "school-107862",
    "type": "school",
    "name": "Lowtown Primary School",
    "address": "Kent Road, Pudsey",
    "postcode": "LS28 9BB",
    "lat": 53.796827,
    "lng": -1.652469
  },
  {
    "id": "school-107863",
    "type": "school",
    "name": "Birchfield Primary School",
    "address": "Birchfield Avenue, Leeds",
    "postcode": "LS27 7HU",
    "lat": 53.755513,
    "lng": -1.634123
  },
  {
    "id": "school-107869",
    "type": "school",
    "name": "Primrose Lane Primary School",
    "address": "Westwood Way, Wetherby",
    "postcode": "LS23 6DX",
    "lat": 53.902723,
    "lng": -1.35058
  },
  {
    "id": "school-107870",
    "type": "school",
    "name": "Wigton Moor Primary School",
    "address": "Barfield Crescent, Leeds",
    "postcode": "LS17 8RU",
    "lat": 53.855922,
    "lng": -1.515243
  },
  {
    "id": "school-107873",
    "type": "school",
    "name": "Ninelands Primary School",
    "address": "Ninelands Lane, Leeds",
    "postcode": "LS25 1NT",
    "lat": 53.788795,
    "lng": -1.376053
  },
  {
    "id": "school-107874",
    "type": "school",
    "name": "Broadgate Primary School",
    "address": "North Broadgate Lane, Leeds",
    "postcode": "LS18 5AF",
    "lat": 53.840497,
    "lng": -1.631726
  },
  {
    "id": "school-107876",
    "type": "school",
    "name": "Deighton Gates Primary School",
    "address": "Deighton Road, Wetherby",
    "postcode": "LS22 7XL",
    "lat": 53.940536,
    "lng": -1.387609
  },
  {
    "id": "school-107879",
    "type": "school",
    "name": "Westgate Primary School",
    "address": "Scarborough Road, Otley",
    "postcode": "LS21 3JS",
    "lat": 53.90276,
    "lng": -1.701777
  },
  {
    "id": "school-107881",
    "type": "school",
    "name": "Otley the Whartons Primary School",
    "address": "The Whartons, Otley",
    "postcode": "LS21 2BS",
    "lat": 53.917524,
    "lng": -1.689033
  },
  {
    "id": "school-107883",
    "type": "school",
    "name": "Beecroft Primary School",
    "address": "Eden Way, Leeds",
    "postcode": "LS4 2TF",
    "lat": 53.812401,
    "lng": -1.593757
  },
  {
    "id": "school-107884",
    "type": "school",
    "name": "Blenheim Primary School",
    "address": "Lofthouse Place, Leeds",
    "postcode": "LS2 9EX",
    "lat": 53.806754,
    "lng": -1.54576
  },
  {
    "id": "school-107885",
    "type": "school",
    "name": "Brudenell Primary School",
    "address": "School View, Leeds",
    "postcode": "LS6 1EN",
    "lat": 53.813594,
    "lng": -1.569837
  },
  {
    "id": "school-107886",
    "type": "school",
    "name": "Iveson Primary School",
    "address": "Iveson Rise, Leeds",
    "postcode": "LS16 6LW",
    "lat": 53.842961,
    "lng": -1.603949
  },
  {
    "id": "school-107887",
    "type": "school",
    "name": "Kirkstall Valley Primary School",
    "address": "Argie Road, Leeds",
    "postcode": "LS4 2QZ",
    "lat": 53.808237,
    "lng": -1.585459
  },
  {
    "id": "school-107889",
    "type": "school",
    "name": "Quarry Mount Primary School",
    "address": "Pennington Street, Leeds",
    "postcode": "LS6 2JP",
    "lat": 53.815186,
    "lng": -1.553096
  },
  {
    "id": "school-107891",
    "type": "school",
    "name": "Rosebank Primary School",
    "address": "Burley Road, Leeds",
    "postcode": "LS3 1JP",
    "lat": 53.803384,
    "lng": -1.565279
  },
  {
    "id": "school-107892",
    "type": "school",
    "name": "Adel Primary School",
    "address": "Tile Lane, Leeds",
    "postcode": "LS16 8DY",
    "lat": 53.849189,
    "lng": -1.574565
  },
  {
    "id": "school-107893",
    "type": "school",
    "name": "Hawksworth Wood Primary School",
    "address": "Cragside Walk, Leeds",
    "postcode": "LS5 3QE",
    "lat": 53.830455,
    "lng": -1.616953
  },
  {
    "id": "school-107894",
    "type": "school",
    "name": "Cookridge Primary School",
    "address": "Tinshill Drive, Leeds",
    "postcode": "LS16 7DH",
    "lat": 53.855218,
    "lng": -1.613716
  },
  {
    "id": "school-107896",
    "type": "school",
    "name": "Ireland Wood Primary School",
    "address": "Raynel Gardens, Leeds",
    "postcode": "LS16 6BW",
    "lat": 53.852389,
    "lng": -1.603495
  },
  {
    "id": "school-107897",
    "type": "school",
    "name": "Weetwood Primary School",
    "address": "Weetwood Lane, Leeds",
    "postcode": "LS16 5NW",
    "lat": 53.829669,
    "lng": -1.580886
  },
  {
    "id": "school-107901",
    "type": "school",
    "name": "Bankside Primary School",
    "address": "Shepherds Lane, Leeds",
    "postcode": "LS8 5AW",
    "lat": 53.814477,
    "lng": -1.520659
  },
  {
    "id": "school-107903",
    "type": "school",
    "name": "Chapel Allerton Primary School",
    "address": "Harrogate Road, Leeds",
    "postcode": "LS7 3PD",
    "lat": 53.826735,
    "lng": -1.535941
  },
  {
    "id": "school-107904",
    "type": "school",
    "name": "Gledhow Primary School",
    "address": "Lidgett Lane, Leeds",
    "postcode": "LS8 1PL",
    "lat": 53.831938,
    "lng": -1.519487
  },
  {
    "id": "school-107909",
    "type": "school",
    "name": "Bracken Edge Primary School",
    "address": "Bracken Edge Primary School, Leeds",
    "postcode": "LS7 4HE",
    "lat": 53.820302,
    "lng": -1.525226
  },
  {
    "id": "school-107910",
    "type": "school",
    "name": "Kerr Mackie Primary School",
    "address": "Gledhow Lane, Leeds",
    "postcode": "LS8 1NE",
    "lat": 53.828761,
    "lng": -1.511743
  },
  {
    "id": "school-107912",
    "type": "school",
    "name": "Alwoodley Primary School",
    "address": "Cranmer Rise, Leeds",
    "postcode": "LS17 5HX",
    "lat": 53.85041,
    "lng": -1.554363
  },
  {
    "id": "school-107914",
    "type": "school",
    "name": "Highfield Primary School",
    "address": "Sandringham Green, Leeds",
    "postcode": "LS17 8DJ",
    "lat": 53.851313,
    "lng": -1.524783
  },
  {
    "id": "school-107915",
    "type": "school",
    "name": "Moor Allerton Hall Primary School",
    "address": "Lidgett Lane, Select",
    "postcode": "LS17 6QP",
    "lat": 53.838994,
    "lng": -1.521731
  },
  {
    "id": "school-107916",
    "type": "school",
    "name": "Moortown Primary School",
    "address": "Shadwell Lane, Leeds",
    "postcode": "LS17 6DR",
    "lat": 53.844774,
    "lng": -1.530816
  },
  {
    "id": "school-107917",
    "type": "school",
    "name": "Shadwell Primary School",
    "address": "Main Street, Leeds",
    "postcode": "LS17 8JF",
    "lat": 53.851587,
    "lng": -1.472238
  },
  {
    "id": "school-107920",
    "type": "school",
    "name": "Beechwood Primary School",
    "address": "Kentmere Avenue, Leeds",
    "postcode": "LS14 6QB",
    "lat": 53.818355,
    "lng": -1.466093
  },
  {
    "id": "school-107923",
    "type": "school",
    "name": "Grange Farm Primary School",
    "address": "Barncroft Rise, Leeds",
    "postcode": "LS14 1AX",
    "lat": 53.827568,
    "lng": -1.472145
  },
  {
    "id": "school-107924",
    "type": "school",
    "name": "Grimes Dyke Primary School",
    "address": "Stanks Drive, Leeds",
    "postcode": "LS14 5BY",
    "lat": 53.825034,
    "lng": -1.444357
  },
  {
    "id": "school-107925",
    "type": "school",
    "name": "Harehills Primary School",
    "address": "Darfield Road, Leeds",
    "postcode": "LS8 5DQ",
    "lat": 53.811764,
    "lng": -1.512077
  },
  {
    "id": "school-107928",
    "type": "school",
    "name": "Seacroft Grange Primary School",
    "address": "Moresdale Lane, Leeds",
    "postcode": "LS14 6JR",
    "lat": 53.811014,
    "lng": -1.471047
  },
  {
    "id": "school-107932",
    "type": "school",
    "name": "White Laith Primary School",
    "address": "Naburn Drive, Leeds",
    "postcode": "LS14 2BL",
    "lat": 53.830957,
    "lng": -1.452059
  },
  {
    "id": "school-107933",
    "type": "school",
    "name": "Wykebeck Primary School",
    "address": "Brander Street, Leeds",
    "postcode": "LS9 6QH",
    "lat": 53.8064,
    "lng": -1.48904
  },
  {
    "id": "school-107934",
    "type": "school",
    "name": "Cross Gates Primary School",
    "address": "Poole Crescent, Leeds",
    "postcode": "LS15 7NB",
    "lat": 53.805915,
    "lng": -1.460404
  },
  {
    "id": "school-107938",
    "type": "school",
    "name": "Shakespeare Primary School",
    "address": "Lincoln Road, Leeds",
    "postcode": "LS9 7NP",
    "lat": 53.804659,
    "lng": -1.524673
  },
  {
    "id": "school-107940",
    "type": "school",
    "name": "Manston Primary",
    "address": "Manston Primary, Leeds",
    "postcode": "LS15 8SD",
    "lat": 53.813463,
    "lng": -1.444009
  },
  {
    "id": "school-107943",
    "type": "school",
    "name": "Parklands Primary School",
    "address": "Dufton Approach, Leeds",
    "postcode": "LS14 6ED",
    "lat": 53.813163,
    "lng": -1.462924
  },
  {
    "id": "school-107944",
    "type": "school",
    "name": "Swarcliffe Primary School",
    "address": "Swarcliffe Drive, Leeds",
    "postcode": "LS14 5JW",
    "lat": 53.820337,
    "lng": -1.449296
  },
  {
    "id": "school-107945",
    "type": "school",
    "name": "Fieldhead Carr Primary School",
    "address": "Naburn Approach, Leeds",
    "postcode": "LS14 2EG",
    "lat": 53.837436,
    "lng": -1.455485
  },
  {
    "id": "school-107946",
    "type": "school",
    "name": "Beeston Primary School",
    "address": "Town Street, Leeds",
    "postcode": "LS11 8PN",
    "lat": 53.772079,
    "lng": -1.571369
  },
  {
    "id": "school-107947",
    "type": "school",
    "name": "Windmill Primary School",
    "address": "Windmill Road, Leeds",
    "postcode": "LS10 3HQ",
    "lat": 53.761618,
    "lng": -1.529013
  },
  {
    "id": "school-107949",
    "type": "school",
    "name": "Greenmount Primary School",
    "address": "Lodge Lane, Leeds",
    "postcode": "LS11 6BA",
    "lat": 53.776887,
    "lng": -1.55147
  },
  {
    "id": "school-107950",
    "type": "school",
    "name": "Hunslet Carr Primary School",
    "address": "Woodhouse Hill Road, Leeds",
    "postcode": "LS10 2DN",
    "lat": 53.772074,
    "lng": -1.527014
  },
  {
    "id": "school-107951",
    "type": "school",
    "name": "Hunslet Moor Primary School",
    "address": "Fairford Avenue, Leeds",
    "postcode": "LS11 5EL",
    "lat": 53.77749,
    "lng": -1.542236
  },
  {
    "id": "school-107954",
    "type": "school",
    "name": "Westwood Primary School",
    "address": "Bodmin Garth, Leeds",
    "postcode": "LS10 4NU",
    "lat": 53.74683,
    "lng": -1.554611
  },
  {
    "id": "school-107957",
    "type": "school",
    "name": "Low Road Primary School",
    "address": "Belinda Street, Leeds",
    "postcode": "LS10 2PS",
    "lat": 53.778319,
    "lng": -1.522087
  },
  {
    "id": "school-107958",
    "type": "school",
    "name": "Clapgate Primary School",
    "address": "Cranmore Drive, Leeds",
    "postcode": "LS10 4AW",
    "lat": 53.751365,
    "lng": -1.518511
  },
  {
    "id": "school-107959",
    "type": "school",
    "name": "Hugh Gaitskell Primary School",
    "address": "St Anthony's Drive, Leeds",
    "postcode": "LS11 8AB",
    "lat": 53.771126,
    "lng": -1.566508
  },
  {
    "id": "school-107962",
    "type": "school",
    "name": "Castleton Primary School",
    "address": "Green Lane, Leeds",
    "postcode": "LS12 1JZ",
    "lat": 53.792656,
    "lng": -1.574181
  },
  {
    "id": "school-107964",
    "type": "school",
    "name": "Park Spring Primary School",
    "address": "Swinnow Lane, Leeds",
    "postcode": "LS13 4QT",
    "lat": 53.798729,
    "lng": -1.635888
  },
  {
    "id": "school-107966",
    "type": "school",
    "name": "Stanningley Primary School",
    "address": "Leeds and Bradford Road, Pudsey",
    "postcode": "LS28 6PE",
    "lat": 53.809695,
    "lng": -1.65089
  },
  {
    "id": "school-107967",
    "type": "school",
    "name": "Summerfield Primary School",
    "address": "Intake Lane, Leeds",
    "postcode": "LS13 1DQ",
    "lat": 53.813285,
    "lng": -1.65206
  },
  {
    "id": "school-107968",
    "type": "school",
    "name": "Five Lanes Primary School",
    "address": "Stradbroke Way, Leeds",
    "postcode": "LS12 4NB",
    "lat": 53.790213,
    "lng": -1.587671
  },
  {
    "id": "school-107969",
    "type": "school",
    "name": "Whingate Primary School",
    "address": "Whingate Road, Leeds",
    "postcode": "LS12 3DS",
    "lat": 53.793669,
    "lng": -1.602166
  },
  {
    "id": "school-107970",
    "type": "school",
    "name": "Whitecote Primary School",
    "address": "Wellington Grove, Leeds",
    "postcode": "LS13 2LQ",
    "lat": 53.817306,
    "lng": -1.625974
  },
  {
    "id": "school-107972",
    "type": "school",
    "name": "Lower Wortley Primary School",
    "address": "Lower Wortley Road, Leeds",
    "postcode": "LS12 4PX",
    "lat": 53.783655,
    "lng": -1.596888
  },
  {
    "id": "school-107973",
    "type": "school",
    "name": "Lawns Park Primary School",
    "address": "Chapel Lane, Leeds",
    "postcode": "LS12 5EX",
    "lat": 53.78532,
    "lng": -1.619428
  },
  {
    "id": "school-107975",
    "type": "school",
    "name": "Greenhill Primary School",
    "address": "Gamble Hill Drive, Leeds",
    "postcode": "LS13 4JJ",
    "lat": 53.799016,
    "lng": -1.621309
  },
  {
    "id": "school-107979",
    "type": "school",
    "name": "Swinnow Primary School",
    "address": "Swinnow Road, Leeds",
    "postcode": "LS13 4PG",
    "lat": 53.800331,
    "lng": -1.648751
  },
  {
    "id": "school-107981",
    "type": "school",
    "name": "Farsley Farfield Primary School",
    "address": "Cote Lane, Pudsey",
    "postcode": "LS28 5ED",
    "lat": 53.809202,
    "lng": -1.680298
  },
  {
    "id": "school-107982",
    "type": "school",
    "name": "Rothwell Primary School",
    "address": "Carlton Lane, Leeds",
    "postcode": "LS26 0DJ",
    "lat": 53.745958,
    "lng": -1.478794
  },
  {
    "id": "school-107984",
    "type": "school",
    "name": "Sharp Lane Primary School",
    "address": "Sharp Lane, Leeds",
    "postcode": "LS10 4QE",
    "lat": 53.748947,
    "lng": -1.525272
  },
  {
    "id": "school-107986",
    "type": "school",
    "name": "Rawdon St Peter's Church of England Voluntary Controlled Primary School",
    "address": "Town Street, Leeds",
    "postcode": "LS19 6PP",
    "lat": 53.850466,
    "lng": -1.668627
  },
  {
    "id": "school-107989",
    "type": "school",
    "name": "Harewood Church of England Voluntary Controlled Primary School",
    "address": "Harrogate Road, Leeds",
    "postcode": "LS17 9LH",
    "lat": 53.900709,
    "lng": -1.509717
  },
  {
    "id": "school-107990",
    "type": "school",
    "name": "St Margaret's Church of England Voluntary Controlled Primary School",
    "address": "Town Street, Leeds",
    "postcode": "LS18 5BL",
    "lat": 53.8404,
    "lng": -1.635314
  },
  {
    "id": "school-107995",
    "type": "school",
    "name": "St James' Church of England Voluntary Controlled Primary School",
    "address": "Hallfield Lane, Wetherby",
    "postcode": "LS22 6JS",
    "lat": 53.930793,
    "lng": -1.377333
  },
  {
    "id": "school-107996",
    "type": "school",
    "name": "Calverley Church of England Voluntary Aided Primary School",
    "address": "Town Gate, Calverley",
    "postcode": "LS28 5NF",
    "lat": 53.830551,
    "lng": -1.683949
  },
  {
    "id": "school-107997",
    "type": "school",
    "name": "St Mary's Church of England Controlled Primary School Boston Spa",
    "address": "Clifford Road, Select",
    "postcode": "LS23 6DB",
    "lat": 53.900782,
    "lng": -1.344202
  },
  {
    "id": "school-108000",
    "type": "school",
    "name": "Pool-in-Wharfedale Church of England Voluntary Controlled Primary School",
    "address": "Arthington Lane, Otley",
    "postcode": "LS21 1LG",
    "lat": 53.901213,
    "lng": -1.621466
  },
  {
    "id": "school-108001",
    "type": "school",
    "name": "Burley St Matthias Church of England Voluntary Controlled Primary School",
    "address": "Burley Road, Leeds",
    "postcode": "LS4 2HY",
    "lat": 53.807759,
    "lng": -1.579738
  },
  {
    "id": "school-108002",
    "type": "school",
    "name": "Middleton St Mary's Church of England Voluntary Controlled Primary School",
    "address": "Moor Flatts Road, Leeds",
    "postcode": "LS10 3SW",
    "lat": 53.750109,
    "lng": -1.54217
  },
  {
    "id": "school-108003",
    "type": "school",
    "name": "Bramley St Peter's Church of England Primary School",
    "address": "Hough Lane, Leeds",
    "postcode": "LS13 3NE",
    "lat": 53.80979,
    "lng": -1.628563
  },
  {
    "id": "school-108005",
    "type": "school",
    "name": "St Bartholomew's CofE Voluntary Controlled Primary School",
    "address": "Strawberry Lane, Leeds",
    "postcode": "LS12 1SF",
    "lat": 53.793592,
    "lng": -1.58492
  },
  {
    "id": "school-108009",
    "type": "school",
    "name": "Hawksworth Church of England Primary School",
    "address": "Main Street, Leeds",
    "postcode": "LS20 8NX",
    "lat": 53.871793,
    "lng": -1.748891
  },
  {
    "id": "school-108010",
    "type": "school",
    "name": "Lady Elizabeth Hastings' CofE VA Primary School, Thorp Arch",
    "address": "Dowkell Lane, Wetherby",
    "postcode": "LS23 7AQ",
    "lat": 53.909989,
    "lng": -1.339627
  },
  {
    "id": "school-108011",
    "type": "school",
    "name": "Collingham Lady Elizabeth Hastings Church of England Voluntary Aided Primary School",
    "address": "Linton Road, Wetherby",
    "postcode": "LS22 5BS",
    "lat": 53.908245,
    "lng": -1.415987
  },
  {
    "id": "school-108012",
    "type": "school",
    "name": "St Edward's Catholic Primary School, Boston Spa",
    "address": "Westwood Way, Wetherby",
    "postcode": "LS23 6DX",
    "lat": 53.901796,
    "lng": -1.355511
  },
  {
    "id": "school-108016",
    "type": "school",
    "name": "St Francis Catholic Primary School, Morley",
    "address": "Highcliffe Road, Leeds",
    "postcode": "LS27 9LX",
    "lat": 53.746567,
    "lng": -1.608147
  },
  {
    "id": "school-108018",
    "type": "school",
    "name": "Rothwell St Mary's RC Primary School",
    "address": "Royds Lane, Leeds",
    "postcode": "LS26 0BJ",
    "lat": 53.745289,
    "lng": -1.469855
  },
  {
    "id": "school-108020",
    "type": "school",
    "name": "St Joseph's Catholic Primary School, Wetherby",
    "address": "Barley Fields Road, Wetherby",
    "postcode": "LS22 6PR",
    "lat": 53.93293,
    "lng": -1.389092
  },
  {
    "id": "school-108021",
    "type": "school",
    "name": "St Anthony's Catholic Primary School, Beeston",
    "address": "Barkly Road, Leeds",
    "postcode": "LS11 7JS",
    "lat": 53.771358,
    "lng": -1.561088
  },
  {
    "id": "school-108024",
    "type": "school",
    "name": "Corpus Christi Catholic Primary School",
    "address": "Halton Moor Avenue, Leeds",
    "postcode": "LS9 0HA",
    "lat": 53.796487,
    "lng": -1.485289
  },
  {
    "id": "school-108026",
    "type": "school",
    "name": "Holy Family Catholic Primary School",
    "address": "Parliament Road, Leeds",
    "postcode": "LS12 2LH",
    "lat": 53.795918,
    "lng": -1.579158
  },
  {
    "id": "school-108028",
    "type": "school",
    "name": "St Joseph's Catholic Primary School, Hunslet",
    "address": "Joseph Street, Leeds",
    "postcode": "LS10 2AD",
    "lat": 53.78164,
    "lng": -1.527559
  },
  {
    "id": "school-108029",
    "type": "school",
    "name": "St Nicholas Catholic Primary School",
    "address": "Oakwood Lane, Leeds",
    "postcode": "LS9 6QY",
    "lat": 53.811905,
    "lng": -1.487743
  },
  {
    "id": "school-108030",
    "type": "school",
    "name": "Our Lady of Good Counsel Catholic Primary School",
    "address": "Pigeon Cote Road, Leeds",
    "postcode": "LS14 1EP",
    "lat": 53.824892,
    "lng": -1.466663
  },
  {
    "id": "school-108033",
    "type": "school",
    "name": "St Philip's Catholic Primary School",
    "address": "St Philips Avenue, Leeds",
    "postcode": "LS10 3SL",
    "lat": 53.749592,
    "lng": -1.545694
  },
  {
    "id": "school-108036",
    "type": "school",
    "name": "St Patrick Catholic Primary School",
    "address": "Torre Road, Leeds",
    "postcode": "LS9 7QL",
    "lat": 53.800072,
    "lng": -1.510679
  },
  {
    "id": "school-108039",
    "type": "school",
    "name": "St Theresa's Catholic Primary School",
    "address": "Barwick Road, Leeds",
    "postcode": "LS15 8RQ",
    "lat": 53.814381,
    "lng": -1.450012
  },
  {
    "id": "school-108041",
    "type": "school",
    "name": "Adel St John the Baptist Church of England Primary School",
    "address": "Long Causeway, Leeds",
    "postcode": "LS16 8EX",
    "lat": 53.852604,
    "lng": -1.57935
  },
  {
    "id": "school-108042",
    "type": "school",
    "name": "Cookridge Holy Trinity Church of England Primary School",
    "address": "Green Lane, Leeds",
    "postcode": "LS16 7EZ",
    "lat": 53.858246,
    "lng": -1.621595
  },
  {
    "id": "school-108043",
    "type": "school",
    "name": "Kirkstall St Stephen's Church of England (VA) Primary School",
    "address": "Morris Lane, Leeds",
    "postcode": "LS5 3JD",
    "lat": 53.817639,
    "lng": -1.598476
  },
  {
    "id": "school-108046",
    "type": "school",
    "name": "Meanwood Church of England Primary School",
    "address": "Green Road, Leeds",
    "postcode": "LS6 4LD",
    "lat": 53.831128,
    "lng": -1.571374
  },
  {
    "id": "school-108048",
    "type": "school",
    "name": "All Saint's Richmond Hill Church of England Primary School",
    "address": "Cross Aysgarth Mount, Leeds",
    "postcode": "LS9 9AD",
    "lat": 53.796918,
    "lng": -1.517701
  },
  {
    "id": "school-108051",
    "type": "school",
    "name": "Whinmoor St Paul's Church of England Primary School",
    "address": "Whinmoor Crescent, Leeds",
    "postcode": "LS14 1EG",
    "lat": 53.836448,
    "lng": -1.461729
  },
  {
    "id": "school-108052",
    "type": "school",
    "name": "Beeston Hill St Luke's Church of England Primary School",
    "address": "Beeston Road, Leeds",
    "postcode": "LS11 8ND",
    "lat": 53.780753,
    "lng": -1.551565
  },
  {
    "id": "school-108054",
    "type": "school",
    "name": "Brodetsky Primary School",
    "address": "Henry Cohen Campus, Leeds",
    "postcode": "LS17 7TN",
    "lat": 53.853857,
    "lng": -1.541129
  },
  {
    "id": "school-108055",
    "type": "school",
    "name": "Lawnswood School",
    "address": "Ring Road, Leeds",
    "postcode": "LS16 5AG",
    "lat": 53.835682,
    "lng": -1.593577
  },
  {
    "id": "school-108057",
    "type": "school",
    "name": "Allerton High School",
    "address": "King Lane, Leeds",
    "postcode": "LS17 7AG",
    "lat": 53.850134,
    "lng": -1.550125
  },
  {
    "id": "school-108058",
    "type": "school",
    "name": "Allerton Grange School",
    "address": "Talbot Avenue, Leeds",
    "postcode": "LS17 6SF",
    "lat": 53.840723,
    "lng": -1.522532
  },
  {
    "id": "school-108059",
    "type": "school",
    "name": "Carr Manor Community School",
    "address": "Carr Manor Road, Leeds",
    "postcode": "LS17 5DJ",
    "lat": 53.834466,
    "lng": -1.550095
  },
  {
    "id": "school-108075",
    "type": "school",
    "name": "Ralph Thoresby School",
    "address": "Holtdale Approach, Leeds",
    "postcode": "LS16 7RX",
    "lat": 53.856534,
    "lng": -1.606269
  },
  {
    "id": "school-108076",
    "type": "school",
    "name": "Roundhay School",
    "address": "Gledhow Lane, Leeds",
    "postcode": "LS8 1ND",
    "lat": 53.829459,
    "lng": -1.513209
  },
  {
    "id": "school-108079",
    "type": "school",
    "name": "Pudsey Grammar School",
    "address": "Mount Pleasant Road, Pudsey",
    "postcode": "LS28 7ND",
    "lat": 53.798624,
    "lng": -1.661383
  },
  {
    "id": "school-108085",
    "type": "school",
    "name": "Guiseley School",
    "address": "Fieldhead Road, Leeds",
    "postcode": "LS20 8DT",
    "lat": 53.871181,
    "lng": -1.715965
  },
  {
    "id": "school-108088",
    "type": "school",
    "name": "Wetherby High School",
    "address": "Hallfield Lane, Wetherby",
    "postcode": "LS22 6JS",
    "lat": 53.9294,
    "lng": -1.379151
  },
  {
    "id": "school-108095",
    "type": "school",
    "name": "Cardinal Heenan Catholic High School",
    "address": "Tongue Lane, Leeds",
    "postcode": "LS6 4QE",
    "lat": 53.838534,
    "lng": -1.558714
  },
  {
    "id": "school-108097",
    "type": "school",
    "name": "Mount St Mary's Catholic High School",
    "address": "Ellerby Road, Leeds",
    "postcode": "LS9 8LA",
    "lat": 53.793641,
    "lng": -1.525345
  },
  {
    "id": "school-108100",
    "type": "school",
    "name": "Lady Elizabeth Hastings CofE Primary School",
    "address": "Green Lane, Castleford",
    "postcode": "WF10 2BD",
    "lat": 53.753369,
    "lng": -1.344103
  },
  {
    "id": "school-108103",
    "type": "school",
    "name": "Richmond House School",
    "address": "168-170 OTLEY ROAD",
    "postcode": "LS16 5LG",
    "lat": 53.831115,
    "lng": -1.585583
  },
  {
    "id": "school-108104",
    "type": "school",
    "name": "Gateways School",
    "address": "Harewood, Leeds",
    "postcode": "LS17 9LE",
    "lat": 53.898979,
    "lng": -1.508657
  },
  {
    "id": "school-108108",
    "type": "school",
    "name": "The Froebelian School",
    "address": "Clarence Road",
    "postcode": "LS18 4LB",
    "lat": 53.830813,
    "lng": -1.636567
  },
  {
    "id": "school-108109",
    "type": "school",
    "name": "Queenswood School",
    "address": "Queen Street, Leeds",
    "postcode": "LS27 9EB",
    "lat": 53.743588,
    "lng": -1.598909
  },
  {
    "id": "school-108110",
    "type": "school",
    "name": "Leeds Menorah School",
    "address": "399 Street Lane, Leeds",
    "postcode": "LS17 6HQ",
    "lat": 53.84301,
    "lng": -1.527811
  },
  {
    "id": "school-108113",
    "type": "school",
    "name": "The Grammar School At Leeds",
    "address": "Alwoodley Gates, Leeds",
    "postcode": "LS17 8GS",
    "lat": 53.863959,
    "lng": -1.517858
  },
  {
    "id": "school-108114",
    "type": "school",
    "name": "Woodhouse Grove School",
    "address": "Apperley Bridge, Bradford",
    "postcode": "BD10 0NR",
    "lat": 53.839938,
    "lng": -1.698834
  },
  {
    "id": "school-108119",
    "type": "school",
    "name": "John Jamieson School",
    "address": "Hollin Hill Drive, Leeds",
    "postcode": "LS8 2PW",
    "lat": 53.823075,
    "lng": -1.493228
  },
  {
    "id": "school-108120",
    "type": "school",
    "name": "St John's Catholic Specialist School, Boston Spa",
    "address": "Church Street, Wetherby",
    "postcode": "LS23 6DF",
    "lat": 53.899811,
    "lng": -1.349133
  },
  {
    "id": "school-108123",
    "type": "school",
    "name": "Broomfield South SILC",
    "address": "Broom Place, Leeds",
    "postcode": "LS10 3JP",
    "lat": 53.756329,
    "lng": -1.521382
  },
  {
    "id": "school-108133",
    "type": "school",
    "name": "West Oaks School",
    "address": "Crowther Place, Leeds",
    "postcode": "LS6 2ST",
    "lat": 53.812909,
    "lng": -1.544934
  },
  {
    "id": "school-108134",
    "type": "school",
    "name": "Harewood Centre Nursery School",
    "address": "Harewood Avenue, Pontefract",
    "postcode": "WF8 2ER",
    "lat": 53.690791,
    "lng": -1.29596
  },
  {
    "id": "school-108137",
    "type": "school",
    "name": "Crigglestone Nursery School",
    "address": "High Street, Wakefield",
    "postcode": "WF4 3EB",
    "lat": 53.642689,
    "lng": -1.521943
  },
  {
    "id": "school-108141",
    "type": "school",
    "name": "Crofton Junior School",
    "address": "Slack Lane, Wakefield",
    "postcode": "WF4 1HJ",
    "lat": 53.656543,
    "lng": -1.424118
  },
  {
    "id": "school-108148",
    "type": "school",
    "name": "Martin Frobisher Infant School",
    "address": "Church Road, Normanton",
    "postcode": "WF6 2NU",
    "lat": 53.708066,
    "lng": -1.430884
  },
  {
    "id": "school-108152",
    "type": "school",
    "name": "Ossett Flushdyke Junior and Infant School",
    "address": "Wakefield Road, Ossett",
    "postcode": "WF5 9AN",
    "lat": 53.685117,
    "lng": -1.561456
  },
  {
    "id": "school-108158",
    "type": "school",
    "name": "Sitlington Netherton Junior and Infant School",
    "address": "Netherton Lane, Wakefield",
    "postcode": "WF4 4HQ",
    "lat": 53.648009,
    "lng": -1.573688
  },
  {
    "id": "school-108164",
    "type": "school",
    "name": "Newton Hill Community School",
    "address": "Leeds Road, Wakefield",
    "postcode": "WF1 2HR",
    "lat": 53.698919,
    "lng": -1.500432
  },
  {
    "id": "school-108167",
    "type": "school",
    "name": "West Bretton Junior and Infant School",
    "address": "Bretton Lane, Wakefield",
    "postcode": "WF4 4LB",
    "lat": 53.620313,
    "lng": -1.566255
  },
  {
    "id": "school-108171",
    "type": "school",
    "name": "Dimple Well Infant School and Nursery",
    "address": "Healey Road, Ossett",
    "postcode": "WF5 8LB",
    "lat": 53.673759,
    "lng": -1.577697
  },
  {
    "id": "school-108195",
    "type": "school",
    "name": "Streethouse Junior, Infant and Nursery School",
    "address": "Whinney Lane, Pontefract",
    "postcode": "WF7 6DJ",
    "lat": 53.67654,
    "lng": -1.404905
  },
  {
    "id": "school-108200",
    "type": "school",
    "name": "Featherstone Purston Infant School",
    "address": "Nunns Lane, Pontefract",
    "postcode": "WF7 5HF",
    "lat": 53.672762,
    "lng": -1.354182
  },
  {
    "id": "school-108206",
    "type": "school",
    "name": "Featherstone North Featherstone Junior and Infant School",
    "address": "Gordon Street, Pontefract",
    "postcode": "WF7 6LW",
    "lat": 53.68496,
    "lng": -1.348922
  },
  {
    "id": "school-108208",
    "type": "school",
    "name": "Normanton Altofts Junior School",
    "address": "Ash Tree Gardens, Normanton",
    "postcode": "WF6 2NF",
    "lat": 53.702377,
    "lng": -1.425598
  },
  {
    "id": "school-108210",
    "type": "school",
    "name": "Wakefield Pinders Primary (JIN) School",
    "address": "Eastmoor Road, Wakefield",
    "postcode": "WF1 3SQ",
    "lat": 53.688405,
    "lng": -1.488365
  },
  {
    "id": "school-108211",
    "type": "school",
    "name": "Crigglestone Mackie Hill Junior and Infant School",
    "address": "Painthorpe Lane, Wakefield",
    "postcode": "WF4 3HW",
    "lat": 53.638518,
    "lng": -1.533259
  },
  {
    "id": "school-108212",
    "type": "school",
    "name": "Crigglestone Dane Royd Junior and Infant School",
    "address": "Stoney Lane, Wakefield",
    "postcode": "WF4 3LZ",
    "lat": 53.629419,
    "lng": -1.521443
  },
  {
    "id": "school-108215",
    "type": "school",
    "name": "The Mount Junior Infant & Nursery School",
    "address": "The Mount, Wakefield",
    "postcode": "WF2 8QW",
    "lat": 53.668311,
    "lng": -1.517899
  },
  {
    "id": "school-108216",
    "type": "school",
    "name": "Wakefield Flanshaw Junior and Infant School",
    "address": "Flanshaw Road, Wakefield",
    "postcode": "WF2 0AS",
    "lat": 53.685468,
    "lng": -1.52164
  },
  {
    "id": "school-108218",
    "type": "school",
    "name": "Hendal Primary School",
    "address": "Hendal Lane, Wakefield",
    "postcode": "WF2 7QW",
    "lat": 53.642071,
    "lng": -1.506822
  },
  {
    "id": "school-108236",
    "type": "school",
    "name": "Castleford Wheldon Infant School and Nursery",
    "address": "Francis Street, Castleford",
    "postcode": "WF10 1HF",
    "lat": 53.727274,
    "lng": -1.345995
  },
  {
    "id": "school-108246",
    "type": "school",
    "name": "Ossett Southdale Church of England Voluntary Controlled Junior School",
    "address": "Southdale Road, Ossett",
    "postcode": "WF5 8BA",
    "lat": 53.675655,
    "lng": -1.575044
  },
  {
    "id": "school-108247",
    "type": "school",
    "name": "Stanley St Peters Church of England Voluntary Controlled Primary School",
    "address": "Lake Lock Road, Wakefield",
    "postcode": "WF3 4HS",
    "lat": 53.71392,
    "lng": -1.474554
  },
  {
    "id": "school-108249",
    "type": "school",
    "name": "Featherstone Purston St Thomas Church of England Voluntary Controlled Junior School",
    "address": "George Street, Pontefract",
    "postcode": "WF7 5BG",
    "lat": 53.67495,
    "lng": -1.358055
  },
  {
    "id": "school-108252",
    "type": "school",
    "name": "Methodist Voluntary Controlled Junior, Infant and Nursery School: With Communication Resource",
    "address": "Field Lane, Wakefield",
    "postcode": "WF2 7RU",
    "lat": 53.66944,
    "lng": -1.497465
  },
  {
    "id": "school-108253",
    "type": "school",
    "name": "Alverthorpe St Paul's CofE (VA) School 3-11yrs",
    "address": "St Paul's Drive, Wakefield",
    "postcode": "WF2 0BT",
    "lat": 53.691005,
    "lng": -1.530544
  },
  {
    "id": "school-108255",
    "type": "school",
    "name": "Wakefield St Johns Church of England Voluntary Aided Junior and Infant School",
    "address": "Belgravia Road, Wakefield",
    "postcode": "WF1 3JP",
    "lat": 53.690288,
    "lng": -1.504381
  },
  {
    "id": "school-108259",
    "type": "school",
    "name": "Normanton All Saints CofE Infant School",
    "address": "High Street, Normanton",
    "postcode": "WF6 1NR",
    "lat": 53.698453,
    "lng": -1.413442
  },
  {
    "id": "school-108260",
    "type": "school",
    "name": "Ossett Holy Trinity CofE VA Primary School",
    "address": "Church Street, Ossett",
    "postcode": "WF5 9DG",
    "lat": 53.682707,
    "lng": -1.578819
  },
  {
    "id": "school-108269",
    "type": "school",
    "name": "Wakefield St Marys Church of England Voluntary Aided Primary School",
    "address": "Charles Street, Wakefield",
    "postcode": "WF1 4PE",
    "lat": 53.680339,
    "lng": -1.485768
  },
  {
    "id": "school-108270",
    "type": "school",
    "name": "Sandal Castle VA Community Primary School",
    "address": "Barnsley Road, Wakefield",
    "postcode": "WF2 6AS",
    "lat": 53.655656,
    "lng": -1.483965
  },
  {
    "id": "school-108271",
    "type": "school",
    "name": "Kettlethorpe High School",
    "address": "Kettlethorpe Hall Drive, Wakefield",
    "postcode": "WF2 7EL",
    "lat": 53.64654,
    "lng": -1.496482
  },
  {
    "id": "school-108300",
    "type": "school",
    "name": "Ackworth School",
    "address": "Pontefract Road, West Yorkshire",
    "postcode": "WF7 7LT",
    "lat": 53.648509,
    "lng": -1.332901
  },
  {
    "id": "school-108303",
    "type": "school",
    "name": "Silcoates School",
    "address": "Silcoates Lane, West Yorkshire",
    "postcode": "WF2 0PD",
    "lat": 53.694388,
    "lng": -1.529067
  },
  {
    "id": "school-108305",
    "type": "school",
    "name": "Wakefield Girls' High School",
    "address": "Wentworth Street, Wakefield",
    "postcode": "WF1 2QS",
    "lat": 53.686638,
    "lng": -1.502167
  },
  {
    "id": "school-108306",
    "type": "school",
    "name": "Queen Elizabeth Grammar School",
    "address": "154 Northgate, Wakefield",
    "postcode": "WF1 3QX",
    "lat": 53.688211,
    "lng": -1.499816
  },
  {
    "id": "school-108311",
    "type": "school",
    "name": "Highfield School",
    "address": "Gawthorpe Lane, Ossett",
    "postcode": "WF5 9BS",
    "lat": 53.697546,
    "lng": -1.580609
  },
  {
    "id": "school-112511",
    "type": "school",
    "name": "Bolsover Infant School",
    "address": "Welbeck Road, Chesterfield",
    "postcode": "S44 6DE",
    "lat": 53.230015,
    "lng": -1.287181
  },
  {
    "id": "school-112514",
    "type": "school",
    "name": "Wigley Primary School",
    "address": "Wigley, Chesterfield",
    "postcode": "S42 7JJ",
    "lat": 53.240725,
    "lng": -1.528412
  },