[
  {
    "id": "school-103483",
    "type": "school",
    "name": "Hodge Hill Girls' School",
    "address": "Bromford Road, Birmingham",
    "postcode": "B36 8EY",
    "lat": 52.502216,
    "lng": -1.816334
  },
  {
    "id": "school-103486",
    "type": "school",
    "name": "Kings Heath Secondary School",
    "address": "Chamberlain Road, Birmingham",
    "postcode": "B13 0QP",
    "lat": 52.42305,
    "lng": -1.878962
  },
  {
    "id": "school-103493",
    "type": "school",
    "name": "Bordesley Green Girls' School & Sixth Form",
    "address": "Bordesley Green Road, Birmingham",
    "postcode": "B9 4TR",
    "lat": 52.48059,
    "lng": -1.852709
  },
  {
    "id": "school-103497",
    "type": "school",
    "name": "Queensbridge School",
    "address": "Queensbridge Road, Birmingham",
    "postcode": "B13 8QB",
    "lat": 52.440721,
    "lng": -1.891949
  },
  {
    "id": "school-103498",
    "type": "school",
    "name": "Selly Park Girls' School",
    "address": "5 Selly Park Road, Birmingham",
    "postcode": "B29 7PH",
    "lat": 52.436219,
    "lng": -1.917249
  },
  {
    "id": "school-103509",
    "type": "school",
    "name": "Holte School",
    "address": "Wheeler Street, Birmingham",
    "postcode": "B19 2EP",
    "lat": 52.500446,
    "lng": -1.900053
  },
  {
    "id": "school-103519",
    "type": "school",
    "name": "Moseley School and Sixth Form",
    "address": "Wake Green Road, Birmingham",
    "postcode": "B13 9UU",
    "lat": 52.440259,
    "lng": -1.862642
  },
  {
    "id": "school-103560",
    "type": "school",
    "name": "Bishop Challoner Catholic College",
    "address": "Institute Road, Birmingham",
    "postcode": "B14 7EG",
    "lat": 52.432643,
    "lng": -1.888379
  },
  {
    "id": "school-103854",
    "type": "school",
    "name": "Summerhill School",
    "address": "Lodge Lane, Kingswinford",
    "postcode": "DY6 9XE",
    "lat": 52.494732,
    "lng": -2.17979
  },
  {
    "id": "school-103855",
    "type": "school",
    "name": "The Dormston School",
    "address": "Mill Bank, Dudley",
    "postcode": "DY3 1SN",
    "lat": 52.540818,
    "lng": -2.117204
  },
  {
    "id": "school-103870",
    "type": "school",
    "name": "Old Swinford Hospital",
    "address": "Heath Lane, Stourbridge",
    "postcode": "DY8 1QX",
    "lat": 52.450376,
    "lng": -2.142834
  },
  {
    "id": "school-104018",
    "type": "school",
    "name": "Holly Lodge High School College of Science",
    "address": "Holly Lane, Smethwick",
    "postcode": "B67 7JG",
    "lat": 52.497799,
    "lng": -1.986889
  },
  {
    "id": "school-104255",
    "type": "school",
    "name": "St Francis of Assisi Catholic College",
    "address": "Erdington Road, Walsall",
    "postcode": "WS9 0RN",
    "lat": 52.598482,
    "lng": -1.910122
  },
  {
    "id": "school-104259",
    "type": "school",
    "name": "St Thomas More Catholic School, Willenhall",
    "address": "Darlaston Lane, Willenhall",
    "postcode": "WV14 7BL",
    "lat": 52.572917,
    "lng": -2.052019
  },
  {
    "id": "school-104387",
    "type": "school",
    "name": "St Matthias School",
    "address": "Deans Road, Wolverhampton",
    "postcode": "WV1 2BH",
    "lat": 52.585187,
    "lng": -2.086117
  },
  {
    "id": "school-104395",
    "type": "school",
    "name": "Colton Hills Community School",
    "address": "Jeremy Road, Wolverhampton",
    "postcode": "WV4 5DG",
    "lat": 52.560812,
    "lng": -2.135064
  },
  {
    "id": "school-116936",
    "type": "school",
    "name": "Aylestone School",
    "address": "Broadlands House, Hereford",
    "postcode": "HR1 1HY",
    "lat": 52.062824,
    "lng": -2.692761
  },
  {
    "id": "school-116941",
    "type": "school",
    "name": "Earl Mortimer College",
    "address": "South Street, Leominster",
    "postcode": "HR6 8JJ",
    "lat": 52.222061,
    "lng": -2.736743
  },
  {
    "id": "school-116952",
    "type": "school",
    "name": "Weobley High School",
    "address": "Burton Wood, Hereford",
    "postcode": "HR4 8ST",
    "lat": 52.155247,
    "lng": -2.868452
  },
  {
    "id": "school-116957",
    "type": "school",
    "name": "Aston Fields Middle School",
    "address": "Drummond Road, Bromsgrove",
    "postcode": "B60 2ET",
    "lat": 52.326871,
    "lng": -2.044143
  },
  {
    "id": "school-116960",
    "type": "school",
    "name": "Blackminster Middle School",
    "address": "Station Road, Evesham",
    "postcode": "WR11 8TG",
    "lat": 52.105912,
    "lng": -1.893913
  },
  {
    "id": "school-116984",
    "type": "school",
    "name": "St Egwin's CofE Middle School",
    "address": "Worcester Road, Evesham",
    "postcode": "WR11 4JU",
    "lat": 52.099851,
    "lng": -1.945409
  },
  {
    "id": "school-116991",
    "type": "school",
    "name": "The Bishop of Hereford's Bluecoat School",
    "address": "Hampton Dene Road, Hereford",
    "postcode": "HR1 1UU",
    "lat": 52.056952,
    "lng": -2.681993
  },
  {
    "id": "school-116992",
    "type": "school",
    "name": "St Mary's RC High School",
    "address": "Lugwardine, Hereford",
    "postcode": "HR1 4DR",
    "lat": 52.063647,
    "lng": -2.657352
  },
  {
    "id": "school-116999",
    "type": "school",
    "name": "Blessed Edward Oldcorne Catholic College",
    "address": "Timberdine Avenue, Worcester",
    "postcode": "WR5 2XD",
    "lat": 52.180952,
    "lng": -2.20978
  },
  {
    "id": "school-124395",
    "type": "school",
    "name": "Norton Canes High School",
    "address": "Burntwood Road, Cannock",
    "postcode": "WS11 9SP",
    "lat": 52.678664,
    "lng": -1.965326
  },
  {
    "id": "school-124400",
    "type": "school",
    "name": "Codsall Community High School",
    "address": "Elliotts Lane, Wolverhampton",
    "postcode": "WV8 1PQ",
    "lat": 52.625432,
    "lng": -2.18659
  },
  {
    "id": "school-124408",
    "type": "school",
    "name": "King Edward VI School",
    "address": "Upper St John Street, Lichfield",
    "postcode": "WS14 9EE",
    "lat": 52.675881,
    "lng": -1.820872
  },
  {
    "id": "school-124426",
    "type": "school",
    "name": "Walton Priory Middle School",
    "address": "Beacon Rise, Stone",
    "postcode": "ST15 0AL",
    "lat": 52.891166,
    "lng": -2.149021
  },
  {
    "id": "school-124437",
    "type": "school",
    "name": "Perton Middle School",
    "address": "Gainsborough Drive, Wolverhampton",
    "postcode": "WV6 7NR",
    "lat": 52.596981,
    "lng": -2.189097
  },
  {
    "id": "school-124453",
    "type": "school",
    "name": "Bilbrook CofE (VC) Middle School",
    "address": "Bilbrook Road, Wolverhampton",
    "postcode": "WV8 1EU",
    "lat": 52.628293,
    "lng": -2.179451
  },
  {
    "id": "school-124467",
    "type": "school",
    "name": "Stafford Manor High School",
    "address": "Wolverhampton Road, Stafford",
    "postcode": "ST17 9DJ",
    "lat": 52.785367,
    "lng": -2.115368
  },
  {
    "id": "school-125764",
    "type": "school",
    "name": "The Avon Valley School and Performing Arts College",
    "address": "Newbold Road, Rugby",
    "postcode": "CV21 1EH",
    "lat": 52.384483,
    "lng": -1.271988
  },
  {
    "id": "school-129342",
    "type": "school",
    "name": "Grace Academy Solihull",
    "address": "Chapelhouse Road, Birmingham",
    "postcode": "B37 5JS",
    "lat": 52.474989,
    "lng": -1.755503
  },
  {
    "id": "school-133545",
    "type": "school",
    "name": "William Morris Sixth Form",
    "address": "St Dunstan's Road, London",
    "postcode": "W6 8RB",
    "lat": 51.488878,
    "lng": -0.215771
  },
  {
    "id": "school-133697",
    "type": "school",
    "name": "Walsall Academy",
    "address": "Lichfield Road, Walsall",
    "postcode": "WS3 3LX",
    "lat": 52.623205,
    "lng": -1.997341
  },
  {
    "id": "school-135035",
    "type": "school",
    "name": "The Bewdley School",
    "address": "Stourport Road, Bewdley",
    "postcode": "DY12 1BL",
    "lat": 52.371461,
    "lng": -2.3043
  },
  {
    "id": "school-135061",
    "type": "school",
    "name": "Wolverley CofE Secondary School",
    "address": "Blakeshall Lane, Kidderminster",
    "postcode": "DY11 5XQ",
    "lat": 52.416557,
    "lng": -2.252585
  },
  {
    "id": "school-135149",
    "type": "school",
    "name": "Madeley Academy",
    "address": "Castlefields Way, Telford",
    "postcode": "TF7 5FB",
    "lat": 52.643049,
    "lng": -2.456472
  },
  {
    "id": "school-135234",
    "type": "school",
    "name": "George Salter Academy",
    "address": "Davey Road, West Bromwich",
    "postcode": "B70 9UW",
    "lat": 52.525312,
    "lng": -2.01082
  },
  {
    "id": "school-135335",
    "type": "school",
    "name": "Grace Academy Coventry",
    "address": "Wigston Road, Coventry",
    "postcode": "CV2 2RH",
    "lat": 52.437611,
    "lng": -1.443965
  },
  {
    "id": "school-135582",
    "type": "school",
    "name": "Haberdashers' Abraham Darby",
    "address": "Ironbridge Road, Telford",
    "postcode": "TF7 5HX",
    "lat": 52.633391,
    "lng": -2.468607
  },
  {
    "id": "school-135599",
    "type": "school",
    "name": "Gospel Oak School",
    "address": "Bilston Road, Tipton",
    "postcode": "DY4 0BZ",
    "lat": 52.549074,
    "lng": -2.049085
  },
  {
    "id": "school-135662",
    "type": "school",
    "name": "The Hereford Church of England Academy",
    "address": "Marlbrook Road, Hereford",
    "postcode": "HR2 7NG",
    "lat": 52.037655,
    "lng": -2.727088
  },
  {
    "id": "school-135672",
    "type": "school",
    "name": "The Steiner Academy Hereford",
    "address": "Much Dewchurch, Hereford",
    "postcode": "HR2 8DL",
    "lat": 51.976028,
    "lng": -2.755197
  },
  {
    "id": "school-135769",
    "type": "school",
    "name": "Ormiston Shelfield Community Academy",
    "address": "Broad Way, Walsall",
    "postcode": "WS4 1BW",
    "lat": 52.623401,
    "lng": -1.948749
  },
  {
    "id": "school-135907",
    "type": "school",
    "name": "E-ACT Heartlands Academy",
    "address": "Great Francis Street, Birmingham",
    "postcode": "B7 4QR",
    "lat": 52.488202,
    "lng": -1.873407
  },
  {
    "id": "school-135913",
    "type": "school",
    "name": "Tudor Grange Academy Worcester",
    "address": "Bilford Road, Worcester",
    "postcode": "WR3 8HN",
    "lat": 52.212233,
    "lng": -2.204512
  },
  {
    "id": "school-135956",
    "type": "school",
    "name": "Grace Academy Darlaston",
    "address": "Herberts Park Road, Wednesbury",
    "postcode": "WS10 8QJ",
    "lat": 52.56881,
    "lng": -2.04651
  },
  {
    "id": "school-135970",
    "type": "school",
    "name": "Ark St Alban's Academy",
    "address": "Conybere Street, Birmingham",
    "postcode": "B12 0YH",
    "lat": 52.465973,
    "lng": -1.888354
  },
  {
    "id": "school-136102",
    "type": "school",
    "name": "Co-op Academy Stoke-On-Trent",
    "address": "Westport Road, Stoke-on-Trent",
    "postcode": "ST6 4LD",
    "lat": 53.051068,
    "lng": -2.207849
  },
  {
    "id": "school-136126",
    "type": "school",
    "name": "Sidney Stringer Academy",
    "address": "2 Primrose Hill Street, Coventry",
    "postcode": "CV1 5LY",
    "lat": 52.411421,
    "lng": -1.500813
  },
  {
    "id": "school-136136",
    "type": "school",
    "name": "Landau Forte Academy, Amington",
    "address": "Woodland Road, Tamworth",
    "postcode": "B77 4FF",
    "lat": 52.631914,
    "lng": -1.659821
  },
  {
    "id": "school-136145",
    "type": "school",
    "name": "Ormiston Sir Stanley Matthews Academy",
    "address": "Beaconsfield Drive, Stoke-on-Trent",
    "postcode": "ST3 3JD",
    "lat": 52.972908,
    "lng": -2.161037
  },
  {
    "id": "school-136213",
    "type": "school",
    "name": "Harborne Academy",
    "address": "Harborne Road, Birmingham",
    "postcode": "B15 3JL",
    "lat": 52.461477,
    "lng": -1.936793
  },
  {
    "id": "school-136310",
    "type": "school",
    "name": "Tudor Grange Academy, Solihull",
    "address": "Dingle Lane, Solihull",
    "postcode": "B91 3PD",
    "lat": 52.404163,
    "lng": -1.791574
  },
  {
    "id": "school-136333",
    "type": "school",
    "name": "Arden",
    "address": "Station Road, Solihull",
    "postcode": "B93 0PT",
    "lat": 52.384804,
    "lng": -1.73684
  },
  {
    "id": "school-136347",
    "type": "school",
    "name": "John Henry Newman Catholic College",
    "address": "Chelmsley Road, Birmingham",
    "postcode": "B37 5GA",
    "lat": 52.483773,
    "lng": -1.751007
  },
  {
    "id": "school-136399",
    "type": "school",
    "name": "John Kyrle High School and Sixth Form Centre Academy",
    "address": "Ledbury Road, Ross-on-Wye",
    "postcode": "HR9 7ET",
    "lat": 51.923562,
    "lng": -2.576784
  },
  {
    "id": "school-136405",
    "type": "school",
    "name": "Wigmore School",
    "address": "Ford Street, Leominster",
    "postcode": "HR6 9UW",
    "lat": 52.314507,
    "lng": -2.856117
  },
  {
    "id": "school-136406",
    "type": "school",
    "name": "Ninestiles, an Academy",
    "address": "Hartfield Crescent, Birmingham",
    "postcode": "B27 7QG",
    "lat": 52.439013,
    "lng": -1.831132
  },
  {
    "id": "school-136459",
    "type": "school",
    "name": "The Polesworth School",
    "address": "Dordon Road, Tamworth",
    "postcode": "B78 1QT",
    "lat": 52.610185,
    "lng": -1.619033
  },
  {
    "id": "school-136460",
    "type": "school",
    "name": "St Joseph's College",
    "address": "London Road, Stoke-on-Trent",
    "postcode": "ST4 5NT",
    "lat": 52.987562,
    "lng": -2.197324
  },
  {
    "id": "school-136469",
    "type": "school",
    "name": "Prince Henry's High School",
    "address": "Victoria Avenue, Evesham",
    "postcode": "WR11 4QH",
    "lat": 52.098491,
    "lng": -1.93995
  },
  {
    "id": "school-136516",
    "type": "school",
    "name": "Newport Girls' High School Academy",
    "address": "Wellington Road, Newport",
    "postcode": "TF10 7HL",
    "lat": 52.762888,
    "lng": -2.379823
  },
  {
    "id": "school-136587",
    "type": "school",
    "name": "Ashlawn School",
    "address": "Ashlawn Road, Rugby",
    "postcode": "CV22 5ET",
    "lat": 52.356854,
    "lng": -1.229723
  },
  {
    "id": "school-136589",
    "type": "school",
    "name": "Bartley Green School",
    "address": "Adams Hill, Birmingham",
    "postcode": "B32 3QJ",
    "lat": 52.437102,
    "lng": -1.997631
  },
  {
    "id": "school-136592",
    "type": "school",
    "name": "King Edward VI Lordswood School for Girls",
    "address": "Knightlow Road, Birmingham",
    "postcode": "B17 8QB",
    "lat": 52.468996,
    "lng": -1.962414
  },
  {
    "id": "school-136595",
    "type": "school",
    "name": "Rugby High School",
    "address": "Longrood Road, Rugby",
    "postcode": "CV22 7RE",
    "lat": 52.352068,
    "lng": -1.285149
  },
  {
    "id": "school-136616",
    "type": "school",
    "name": "Wood Green Academy",
    "address": "Wood Green Road, Wednesbury",
    "postcode": "WS10 9QU",
    "lat": 52.563254,
    "lng": -2.002257
  },
  {
    "id": "school-136620",
    "type": "school",
    "name": "Shire Oak Academy",
    "address": "Lichfield Road, Walsall",
    "postcode": "WS9 9PA",
    "lat": 52.634614,
    "lng": -1.919742
  },
  {
    "id": "school-136622",
    "type": "school",
    "name": "Alcester Grammar School",
    "address": "Birmingham Road, Alcester",
    "postcode": "B49 5ED",
    "lat": 52.217782,
    "lng": -1.873284
  },
  {
    "id": "school-136680",
    "type": "school",
    "name": "Ormiston Horizon Academy",
    "address": "Turnhurst Road, Stoke on Trent",
    "postcode": "ST6 6JZ",
    "lat": 53.072028,
    "lng": -2.194829
  },
  {
    "id": "school-136681",
    "type": "school",
    "name": "Discovery Academy",
    "address": "Discovery Drive, Stoke-on-Trent",
    "postcode": "ST2 0GA",
    "lat": 53.006603,
    "lng": -2.115227
  },
  {
    "id": "school-136773",
    "type": "school",
    "name": "Queen Mary's Grammar School",
    "address": "Sutton Road, Walsall",
    "postcode": "WS1 2PG",
    "lat": 52.577392,
    "lng": -1.965391
  },
  {
    "id": "school-136777",
    "type": "school",
    "name": "Queen Mary's High School",
    "address": "Upper Forster Street, Walsall",
    "postcode": "WS4 2AE",
    "lat": 52.589388,
    "lng": -1.974446
  },
  {
    "id": "school-136778",
    "type": "school",
    "name": "Sutton Coldfield Grammar School for Girls",
    "address": "Jockey Road, Sutton Coldfield",
    "postcode": "B73 5PT",
    "lat": 52.553914,
    "lng": -1.828361
  },
  {
    "id": "school-136786",
    "type": "school",
    "name": "Studley High School",
    "address": "Crooks Lane, Studley",
    "postcode": "B80 7QX",
    "lat": 52.268651,
    "lng": -1.896838
  },
  {
    "id": "school-136803",
    "type": "school",
    "name": "John Masefield High School",
    "address": "Mabel's Furlong, Ledbury",
    "postcode": "HR8 2HF",
    "lat": 52.03132,
    "lng": -2.42192
  },
  {
    "id": "school-136824",
    "type": "school",
    "name": "St Peter's CofE Academy",
    "address": "Fenton Manor, Stoke-on-Trent",
    "postcode": "ST4 2RR",
    "lat": 53.004509,
    "lng": -2.167608
  },
  {
    "id": "school-136882",
    "type": "school",
    "name": "Aston Manor Academy",
    "address": "Phillips Street, Birmingham",
    "postcode": "B6 4PZ",
    "lat": 52.495581,
    "lng": -1.888691
  },
  {
    "id": "school-136885",
    "type": "school",
    "name": "Barr Beacon School",
    "address": "Old Hall Lane, Walsall",
    "postcode": "WS9 0RF",
    "lat": 52.56218,
    "lng": -1.914017
  },
  {
    "id": "school-136886",
    "type": "school",
    "name": "Erasmus Darwin Academy",
    "address": "Pool Road, Burntwood",
    "postcode": "WS7 3QW",
    "lat": 52.667952,
    "lng": -1.934692
  },
  {
    "id": "school-136890",
    "type": "school",
    "name": "Christopher Whitehead Language College",
    "address": "Bromwich Road, Worcester",
    "postcode": "WR2 4AF",
    "lat": 52.185721,
    "lng": -2.231775
  },
  {
    "id": "school-136897",
    "type": "school",
    "name": "The Chantry School",
    "address": "Martley, Worcester",
    "postcode": "WR6 6QA",
    "lat": 52.237866,
    "lng": -2.356447
  },
  {
    "id": "school-136898",
    "type": "school",
    "name": "Haybridge High School and Sixth Form",
    "address": "Brake Lane, Stourbridge",
    "postcode": "DY8 2XS",
    "lat": 52.423514,
    "lng": -2.147571
  },
  {
    "id": "school-136907",
    "type": "school",
    "name": "Myton School",
    "address": "Myton Road, Warwick",
    "postcode": "CV34 6PJ",
    "lat": 52.279526,
    "lng": -1.563911
  },
  {
    "id": "school-136908",
    "type": "school",
    "name": "Fairfax",
    "address": "Fairfax Road, Sutton Coldfield",
    "postcode": "B75 7JT",
    "lat": 52.561074,
    "lng": -1.79623
  },
  {
    "id": "school-136909",
    "type": "school",
    "name": "Heart of England School",
    "address": "Gipsy Lane, Coventry",
    "postcode": "CV7 7FW",
    "lat": 52.385745,
    "lng": -1.646125
  },
  {
    "id": "school-136924",
    "type": "school",
    "name": "Woodrush High School",
    "address": "Shawhurst Lane, Wythall",
    "postcode": "B47 5JW",
    "lat": 52.387847,
    "lng": -1.877133
  },
  {
    "id": "school-136925",
    "type": "school",
    "name": "Pershore High School",
    "address": "Station Road, Pershore",
    "postcode": "WR10 2BX",
    "lat": 52.124954,
    "lng": -2.073496
  },
  {
    "id": "school-136927",
    "type": "school",
    "name": "Droitwich Spa High School and Sixth Form Centre",
    "address": "Briar Mill, Droitwich Spa",
    "postcode": "WR9 0AA",
    "lat": 52.266736,
    "lng": -2.1666
  },
  {
    "id": "school-136944",
    "type": "school",
    "name": "Birmingham Ormiston Academy",
    "address": "1 Grosvenor Street, Birmingham",
    "postcode": "B4 7QD",
    "lat": 52.48265,
    "lng": -1.88678
  },
  {
    "id": "school-136959",
    "type": "school",
    "name": "The Cheadle Academy",
    "address": "Station Road, Stoke-on-Trent",
    "postcode": "ST10 1LH",
    "lat": 52.981117,
    "lng": -1.991256
  },
  {
    "id": "school-136961",
    "type": "school",
    "name": "Christ Church Academy",
    "address": "Old Road, Stone",
    "postcode": "ST15 8JD",
    "lat": 52.909276,
    "lng": -2.146183
  },
  {
    "id": "school-136963",
    "type": "school",
    "name": "Finham Park School",
    "address": "Green Lane, Coventry",
    "postcode": "CV3 6EA",
    "lat": 52.381818,
    "lng": -1.526082
  },
  {
    "id": "school-136986",
    "type": "school",
    "name": "The Coleshill School",
    "address": "Coventry Road, Birmingham",
    "postcode": "B46 3EX",
    "lat": 52.484592,
    "lng": -1.704478
  },
  {
    "id": "school-137007",
    "type": "school",
    "name": "Langley School",
    "address": "Kineton Green Road, Solihull",
    "postcode": "B92 7ER",
    "lat": 52.427744,
    "lng": -1.811098
  },
  {
    "id": "school-137044",
    "type": "school",
    "name": "King Edward VI Camp Hill School for Girls",
    "address": "Vicarage Road, Birmingham",
    "postcode": "B14 7QJ",
    "lat": 52.430712,
    "lng": -1.900843
  },
  {
    "id": "school-137045",
    "type": "school",
    "name": "King Edward VI Camp Hill School for Boys",
    "address": "Vicarage Road, Birmingham",
    "postcode": "B14 7QJ",
    "lat": 52.430712,
    "lng": -1.900843
  },
  {
    "id": "school-137051",
    "type": "school",
    "name": "Nunnery Wood High School",
    "address": "Spetchley Road, Worcester",
    "postcode": "WR5 2LT",
    "lat": 52.183622,
    "lng": -2.188568
  },
  {
    "id": "school-137073",
    "type": "school",
    "name": "Kingstone High School",
    "address": "Kingstone, Hereford",
    "postcode": "HR2 9HJ",
    "lat": 52.021602,
    "lng": -2.844829
  },
  {
    "id": "school-137079",
    "type": "school",
    "name": "George Eliot Academy",
    "address": "Raveloe Drive, Nuneaton",
    "postcode": "CV11 4QP",
    "lat": 52.508106,
    "lng": -1.456706
  },
  {
    "id": "school-137100",
    "type": "school",
    "name": "The Hart School",
    "address": "Penkridge Bank Road, Rugeley",
    "postcode": "WS15 2UE",
    "lat": 52.758872,
    "lng": -1.94902
  },
  {
    "id": "school-137101",
    "type": "school",
    "name": "Hanley Castle High School",
    "address": "Church End, Worcester",
    "postcode": "WR8 0BL",
    "lat": 52.075894,
    "lng": -2.233905
  },
  {
    "id": "school-137162",
    "type": "school",
    "name": "The Stourport High School and Sixth Form College",
    "address": "Minster Road, Stourport-on-Severn",
    "postcode": "DY13 8AX",
    "lat": 52.34903,
    "lng": -2.274223
  },
  {
    "id": "school-137164",
    "type": "school",
    "name": "Staffordshire University Academy",
    "address": "Marston Road, Cannock",
    "postcode": "WS12 4JH",
    "lat": 52.711385,
    "lng": -2.015648
  },
  {
    "id": "school-137172",
    "type": "school",
    "name": "Alcester Academy",
    "address": "Gerard Road, Alcester",
    "postcode": "B49 6QQ",
    "lat": 52.220118,
    "lng": -1.855754
  },
  {
    "id": "school-137186",
    "type": "school",
    "name": "Dyson Perrins CofE Academy",
    "address": "Yates Hay Road, Malvern",
    "postcode": "WR14 1WD",
    "lat": 52.132659,
    "lng": -2.32786
  },
  {
    "id": "school-137209",
    "type": "school",
    "name": "West Coventry Academy",
    "address": "Tile Hill Lane, Coventry",
    "postcode": "CV4 9PW",
    "lat": 52.403827,
    "lng": -1.588118
  },
  {
    "id": "school-137225",
    "type": "school",
    "name": "The Westwood Academy",
    "address": "Mitchell Avenue, Coventry",
    "postcode": "CV4 8DY",
    "lat": 52.389948,
    "lng": -1.568819
  },
  {
    "id": "school-137231",
    "type": "school",
    "name": "Light Hall School",
    "address": "Hathaway Road, Solihull",
    "postcode": "B90 2PZ",
    "lat": 52.398991,
    "lng": -1.829345
  },
  {
    "id": "school-137235",
    "type": "school",
    "name": "Stratford Girls' Grammar School",
    "address": "Shottery Manor, Stratford-upon-Avon",
    "postcode": "CV37 9HA",
    "lat": 52.190073,
    "lng": -1.72263
  },
  {
    "id": "school-137236",
    "type": "school",
    "name": "Stratford Upon Avon School",
    "address": "Alcester Road, Stratford-upon-Avon",
    "postcode": "CV37 9DH",
    "lat": 52.193175,
    "lng": -1.718675
  },
  {
    "id": "school-137272",
    "type": "school",
    "name": "Blue Coat Church of England School and Music College",
    "address": "Terry Road, Coventry",
    "postcode": "CV1 2BA",
    "lat": 52.399239,
    "lng": -1.490353
  },
  {
    "id": "school-137274",
    "type": "school",
    "name": "Bloxwich Academy",
    "address": "Leamore Lane, Walsall",
    "postcode": "WS2 7NR",
    "lat": 52.60907,
    "lng": -2.014622
  },
  {
    "id": "school-137302",
    "type": "school",
    "name": "King Edward VI School",
    "address": "Chapel Lane, Stratford-upon-Avon",
    "postcode": "CV37 6BE",
    "lat": 52.189727,
    "lng": -1.705749
  },
  {
    "id": "school-137356",
    "type": "school",
    "name": "Biddulph High School",
    "address": "Conway Road, Stoke-on-Trent",
    "postcode": "ST8 7AR",
    "lat": 53.10482,
    "lng": -2.167998
  },
  {
    "id": "school-137384",
    "type": "school",
    "name": "Cannock Chase High School",
    "address": "Hednesford Road, Cannock",
    "postcode": "WS11 1JT",
    "lat": 52.693861,
    "lng": -2.022285
  },
  {
    "id": "school-137390",
    "type": "school",
    "name": "Pegasus Academy",
    "address": "Scotts Green Close, Dudley",
    "postcode": "DY1 2DU",
    "lat": 52.50422,
    "lng": -2.103212
  },
  {
    "id": "school-137446",
    "type": "school",
    "name": "Haberdashers' Adams",
    "address": "High Street, Newport",
    "postcode": "TF10 7BD",
    "lat": 52.768963,
    "lng": -2.38041
  },
  {
    "id": "school-137553",
    "type": "school",
    "name": "The Weston Road Academy",
    "address": "Blackheath Lane, Stafford",
    "postcode": "ST18 0YG",
    "lat": 52.813981,
    "lng": -2.073926
  },
  {
    "id": "school-137608",
    "type": "school",
    "name": "Lady Hawkins' School",
    "address": "Park View, Kington",
    "postcode": "HR5 3AR",
    "lat": 52.201955,
    "lng": -3.038053
  },
  {
    "id": "school-137625",
    "type": "school",
    "name": "The Chase",
    "address": "Geraldine Road, Malvern",
    "postcode": "WR14 3NZ",
    "lat": 52.102193,
    "lng": -2.308743
  },
  {
    "id": "school-137673",
    "type": "school",
    "name": "Ormiston Forge Academy",
    "address": "Wrights Lane, Cradley Heath",
    "postcode": "B64 6QU",
    "lat": 52.475972,
    "lng": -2.061637
  },
  {
    "id": "school-137703",
    "type": "school",
    "name": "Queen Elizabeth High School",
    "address": "Ashfields, Bromyard",
    "postcode": "HR7 4QS",
    "lat": 52.184228,
    "lng": -2.517893
  },
  {
    "id": "school-137705",
    "type": "school",
    "name": "Beacon Hill Academy",
    "address": "High Arcal Drive, Dudley",
    "postcode": "DY3 1BP",
    "lat": 52.533058,
    "lng": -2.108351
  },
  {
    "id": "school-137706",
    "type": "school",
    "name": "Willenhall E-ACT Academy",
    "address": "Furzebank Way, Willenhall",
    "postcode": "WV12 4BD",
    "lat": 52.597812,
    "lng": -2.025278
  },
  {
    "id": "school-137707",
    "type": "school",
    "name": "The Streetly Academy",
    "address": "Queslett Road East, Sutton Coldfield",
    "postcode": "B74 2EX",
    "lat": 52.569236,
    "lng": -1.880773
  },
  {
    "id": "school-137730",
    "type": "school",
    "name": "Heath Park",
    "address": "Prestwood Road, Wolverhampton",
    "postcode": "WV11 1RD",
    "lat": 52.598916,
    "lng": -2.098547
  },
  {
    "id": "school-137766",
    "type": "school",
    "name": "Campion School",
    "address": "Sydenham Drive, Leamington Spa",
    "postcode": "CV31 1QH",
    "lat": 52.274825,
    "lng": -1.515835
  },
  {
    "id": "school-137767",
    "type": "school",
    "name": "Higham Lane School",
    "address": "Shanklin Drive, Nuneaton",
    "postcode": "CV10 0BJ",
    "lat": 52.532711,
    "lng": -1.453955
  },
  {
    "id": "school-137770",
    "type": "school",
    "name": "Aylesford School Warwick",
    "address": "Tapping Way, Warwick",
    "postcode": "CV34 6XR",
    "lat": 52.269501,
    "lng": -1.599594
  },
  {
    "id": "school-137771",
    "type": "school",
    "name": "Etone College",
    "address": "Leicester Road, Nuneaton",
    "postcode": "CV11 6AA",
    "lat": 52.525756,
    "lng": -1.45665
  },
  {
    "id": "school-137773",
    "type": "school",
    "name": "Kingswinford Academy",
    "address": "Water Street, Kingswinford",
    "postcode": "DY6 7AD",
    "lat": 52.499456,
    "lng": -2.16518
  },
  {
    "id": "school-137781",
    "type": "school",
    "name": "Ash Green School",
    "address": "Ash Green Lane, Coventry",
    "postcode": "CV7 9AH",
    "lat": 52.461437,
    "lng": -1.506725
  },
  {
    "id": "school-137830",
    "type": "school",
    "name": "Joseph Leckie Academy",
    "address": "Walstead Road West, Walsall",
    "postcode": "WS5 4PG",
    "lat": 52.564556,
    "lng": -1.979801
  },
  {
    "id": "school-137974",
    "type": "school",
    "name": "Aldridge School - A Science College",
    "address": "Tynings Lane, Walsall",
    "postcode": "WS9 0BG",
    "lat": 52.59744,
    "lng": -1.924003
  },
  {
    "id": "school-138023",
    "type": "school",
    "name": "Coundon Court",
    "address": "Northbrook Road, Coventry",
    "postcode": "CV6 2AJ",
    "lat": 52.429364,
    "lng": -1.542047
  },
  {
    "id": "school-138032",
    "type": "school",
    "name": "King Charles I School",
    "address": "Hill Grove House, Kidderminster",
    "postcode": "DY10 1XA",
    "lat": 52.382997,
    "lng": -2.232939
  },
  {
    "id": "school-138098",
    "type": "school",
    "name": "Moseley Park",
    "address": "Holland Road, Bilston",
    "postcode": "WV14 6LU",
    "lat": 52.575524,
    "lng": -2.070351
  },
  {
    "id": "school-138107",
    "type": "school",
    "name": "Bishop Perowne CofE College",
    "address": "Merriman's Hill Road, Worcester",
    "postcode": "WR3 8LE",
    "lat": 52.204382,
    "lng": -2.215715
  },
  {
    "id": "school-138108",
    "type": "school",
    "name": "The Market Bosworth School",
    "address": "Station Road, Nuneaton",
    "postcode": "CV13 0JT",
    "lat": 52.624355,
    "lng": -1.403424
  },
  {
    "id": "school-138137",
    "type": "school",
    "name": "Stockland Green School",
    "address": "Slade Road, Birmingham",
    "postcode": "B23 7JH",
    "lat": 52.522865,
    "lng": -1.860395
  },
  {
    "id": "school-138290",
    "type": "school",
    "name": "Saint Martin's Catholic Voluntary Academy",
    "address": "Stoke Road, Nuneaton",
    "postcode": "CV13 6BF",
    "lat": 52.571934,
    "lng": -1.399118
  },
  {
    "id": "school-138351",
    "type": "school",
    "name": "The Rural Enterprise Academy",
    "address": "Rodbaston Drive, Penkridge",
    "postcode": "ST19 5PH",
    "lat": 52.702078,
    "lng": -2.1158
  },
  {
    "id": "school-138374",
    "type": "school",
    "name": "West Walsall E-ACT Academy",
    "address": "Primley Avenue, Walsall",
    "postcode": "WS2 9UA",
    "lat": 52.581775,
    "lng": -2.008354
  },
  {
    "id": "school-138505",
    "type": "school",
    "name": "Arrow Vale High School",
    "address": "Matchborough Way, Redditch",
    "postcode": "B98 0GF",
    "lat": 52.296722,
    "lng": -1.895995
  },
  {
    "id": "school-138549",
    "type": "school",
    "name": "Haywood Academy",
    "address": "High Lane, Stoke-on-Trent",
    "postcode": "ST6 7AB",
    "lat": 53.054582,
    "lng": -2.186961
  },
  {
    "id": "school-138606",
    "type": "school",
    "name": "Blue Coat Church of England Academy",
    "address": "Birmingham Street, Walsall",
    "postcode": "WS1 2ND",
    "lat": 52.580765,
    "lng": -1.974362
  },
  {
    "id": "school-138664",
    "type": "school",
    "name": "Waseley Hills High School",
    "address": "School Road, Birmingham",
    "postcode": "B45 9EL",
    "lat": 52.391,
    "lng": -2.029804
  },
  {
    "id": "school-138695",
    "type": "school",
    "name": "George Dixon Academy",
    "address": "Portland Road, Birmingham",
    "postcode": "B16 9GD",
    "lat": 52.476024,
    "lng": -1.955208
  },
  {
    "id": "school-138729",
    "type": "school",
    "name": "Painsley Catholic College",
    "address": "Station Road, Stoke-on-Trent",
    "postcode": "ST10 1LH",
    "lat": 52.980694,
    "lng": -1.989126
  },
  {
    "id": "school-138767",
    "type": "school",
    "name": "Shipston High School",
    "address": "Darlingscote Road, Shipston-on-Stour",
    "postcode": "CV36 4DY",
    "lat": 52.06504,
    "lng": -1.631946
  },
  {
    "id": "school-138852",
    "type": "school",
    "name": "St Peter's Collegiate Academy",
    "address": "Compton Park, Wolverhampton",
    "postcode": "WV3 9DU",
    "lat": 52.586816,
    "lng": -2.162069
  },
  {
    "id": "school-139020",
    "type": "school",
    "name": "Ipsley CofE Middle School",
    "address": "Winyates Way, Redditch",
    "postcode": "B98 0UB",
    "lat": 52.300641,
    "lng": -1.894798
  },
  {
    "id": "school-139043",
    "type": "school",
    "name": "Bristnall Hall Academy",
    "address": "Bristnall Hall Lane, Oldbury",
    "postcode": "B68 9PA",
    "lat": 52.484178,
    "lng": -1.992474
  },
  {
    "id": "school-139068",
    "type": "school",
    "name": "Thistley Hough Academy",
    "address": "Thistley Hough, Stoke-on-Trent",
    "postcode": "ST4 5JJ",
    "lat": 52.999603,
    "lng": -2.200821
  },
  {
    "id": "school-139138",
    "type": "school",
    "name": "Aldersley High School",
    "address": "Barnhurst Lane, Wolverhampton",
    "postcode": "WV8 1RT",
    "lat": 52.617467,
    "lng": -2.161577
  },
  {
    "id": "school-139143",
    "type": "school",
    "name": "Bridgnorth Endowed School",
    "address": "Northgate, Bridgnorth",
    "postcode": "WV16 4ER",
    "lat": 52.537193,
    "lng": -2.419351
  },
  {
    "id": "school-139171",
    "type": "school",
    "name": "St Edward's Church of England Academy",
    "address": "Westwood Road, Leek",
    "postcode": "ST13 8DN",
    "lat": 53.103224,
    "lng": -2.040556
  },
  {
    "id": "school-139189",
    "type": "school",
    "name": "Whitecross Hereford",
    "address": "Three Elms Road, Hereford",
    "postcode": "HR4 0RN",
    "lat": 52.066168,
    "lng": -2.742958
  },
  {
    "id": "school-139234",
    "type": "school",
    "name": "The JCB Academy",
    "address": "Mill Street, Rocester",
    "postcode": "ST14 5JX",
    "lat": 52.950347,
    "lng": -1.835965
  },
  {
    "id": "school-139292",
    "type": "school",
    "name": "Caludon Castle School",
    "address": "Axholme Road, Coventry",
    "postcode": "CV2 5BD",
    "lat": 52.413825,
    "lng": -1.450822
  },
  {
    "id": "school-139369",
    "type": "school",
    "name": "St George's Catholic School",
    "address": "Lanark Road, London",
    "postcode": "W9 1RB",
    "lat": 51.532519,
    "lng": -0.186191
  },
  {
    "id": "school-139766",
    "type": "school",
    "name": "The Telford Langley School",
    "address": "Duce Drive, Telford",
    "postcode": "TF4 3JS",
    "lat": 52.662471,
    "lng": -2.463107
  },
  {
    "id": "school-139769",
    "type": "school",
    "name": "William Brookes School",
    "address": "Farley Road, Much Wenlock",
    "postcode": "TF13 6NB",
    "lat": 52.602115,
    "lng": -2.555133
  },
  {
    "id": "school-139789",
    "type": "school",
    "name": "Walsall Studio School",
    "address": "14a Lower Hall Lane, Walsall",
    "postcode": "WS1 1RL",
    "lat": 52.582124,
    "lng": -1.980576
  },
  {
    "id": "school-139872",
    "type": "school",
    "name": "Redhill School",
    "address": "Junction Road, Stourbridge",
    "postcode": "DY8 1JX",
    "lat": 52.453888,
    "lng": -2.137945
  },
  {
    "id": "school-139891",
    "type": "school",
    "name": "St Edmund's Catholic Academy",
    "address": "Compton Park, Wolverhampton",
    "postcode": "WV3 9DU",
    "lat": 52.589983,
    "lng": -2.160782
  },
  {
    "id": "school-139918",
    "type": "school",
    "name": "Wodensborough Ormiston Academy",
    "address": "Hydes Road, Wednesbury",
    "postcode": "WS10 0DR",
    "lat": 52.548167,
    "lng": -2.000295
  },
  {
    "id": "school-139936",
    "type": "school",
    "name": "Nicholas Chamberlaine School",
    "address": "Bulkington Road, Bedworth",
    "postcode": "CV12 9EA",
    "lat": 52.479277,
    "lng": -1.457871
  },
  {
    "id": "school-139937",
    "type": "school",
    "name": "The Queen Elizabeth Academy",
    "address": "Witherley Road, Atherstone",
    "postcode": "CV9 1LZ",
    "lat": 52.573232,
    "lng": -1.533421
  },
  {
    "id": "school-139994",
    "type": "school",
    "name": "Yardleys School",
    "address": "Reddings Lane, Birmingham",
    "postcode": "B11 3EY",
    "lat": 52.45034,
    "lng": -1.8427
  },
  {
    "id": "school-140014",
    "type": "school",
    "name": "Ark Boulton Academy",
    "address": "Golden Hillock Road, Birmingham",
    "postcode": "B11 2QG",
    "lat": 52.456655,
    "lng": -1.859412
  },
  {
    "id": "school-140108",
    "type": "school",
    "name": "Alsager School",
    "address": "Hassall Road, Stoke-on-Trent",
    "postcode": "ST7 2HR",
    "lat": 53.098764,
    "lng": -2.316831
  },
  {
    "id": "school-140123",
    "type": "school",
    "name": "Alleyne's Academy",
    "address": "Oulton Road, Stone",
    "postcode": "ST15 8DT",
    "lat": 52.910354,
    "lng": -2.139271
  },
  {
    "id": "school-140126",
    "type": "school",
    "name": "Bishop Milner Catholic College",
    "address": "Bishop Milner Catholic College, Dudley",
    "postcode": "DY1 3BY",
    "lat": 52.519165,
    "lng": -2.100609
  },
  {
    "id": "school-140149",
    "type": "school",
    "name": "St Margaret Ward Catholic Academy",
    "address": "Little Chell Lane, Stoke-on-Trent",
    "postcode": "ST6 6LZ",
    "lat": 53.067343,
    "lng": -2.195778
  },
  {
    "id": "school-140160",
    "type": "school",
    "name": "Thomas Telford University Technical College",
    "address": "Springfield Campus, Wolverhampton",
    "postcode": "WV10 0JR",
    "lat": 52.591534,
    "lng": -2.118727
  },
  {
    "id": "school-140248",
    "type": "school",
    "name": "President Kennedy School Academy",
    "address": "Rookery Lane, Coventry",
    "postcode": "CV6 4GL",
    "lat": 52.45009,
    "lng": -1.519831
  },
  {
    "id": "school-140304",
    "type": "school",
    "name": "St Thomas More Catholic Academy",
    "address": "Longton Hall Road, Stoke-on-Trent",
    "postcode": "ST3 2NJ",
    "lat": 52.987564,
    "lng": -2.145777
  },
  {
    "id": "school-140366",
    "type": "school",
    "name": "Ernesford Grange Community Academy",
    "address": "Princethorpe Way, Coventry",
    "postcode": "CV3 2QD",
    "lat": 52.395171,
    "lng": -1.457183
  },
  {
    "id": "school-140371",
    "type": "school",
    "name": "Harris Church of England Academy",
    "address": "Harris Drive, Rugby",
    "postcode": "CV22 6EA",
    "lat": 52.362463,
    "lng": -1.26906
  },
  {
    "id": "school-140394",
    "type": "school",
    "name": "Oasis Academy Don Valley",
    "address": "Leeds Road, Sheffield",
    "postcode": "S9 3TY",
    "lat": 53.395724,
    "lng": -1.426878
  },
  {
    "id": "school-140470",
    "type": "school",
    "name": "Chesterton Community Sports College",
    "address": "Castle Street, Newcastle",
    "postcode": "ST5 7LP",
    "lat": 53.038181,
    "lng": -2.252205
  },
  {
    "id": "school-140524",
    "type": "school",
    "name": "Bishop Walsh Catholic School",
    "address": "Wylde Green Road, Sutton Coldfield",
    "postcode": "B76 1QT",
    "lat": 52.546927,
    "lng": -1.809879
  },
  {
    "id": "school-140633",
    "type": "school",
    "name": "The Excel Academy",
    "address": "Milton Road, Stoke-on-Trent",
    "postcode": "ST1 6LG",
    "lat": 53.045646,
    "lng": -2.155893
  },
  {
    "id": "school-140731",
    "type": "school",
    "name": "Tudor Grange Academy Redditch",
    "address": "Woodrow Drive, Redditch",
    "postcode": "B98 7UH",
    "lat": 52.282319,
    "lng": -1.908578
  },
  {
    "id": "school-140798",
    "type": "school",
    "name": "Wolverhampton Girls' High School",
    "address": "Tettenhall Road, Wolverhampton",
    "postcode": "WV6 0BY",
    "lat": 52.59062,
    "lng": -2.154569
  },
  {
    "id": "school-140802",
    "type": "school",
    "name": "St John Fisher Catholic College",
    "address": "Ashfields New Road, Newcastle Under Lyme",
    "postcode": "ST5 2SJ",
    "lat": 53.015707,
    "lng": -2.233752
  },
  {
    "id": "school-140863",
    "type": "school",
    "name": "The University of Birmingham School",
    "address": "Weoley Park Road, Birmingham",
    "postcode": "B29 6QU",
    "lat": 52.435939,
    "lng": -1.947348
  },
  {
    "id": "school-140868",
    "type": "school",
    "name": "Fairfield High School",
    "address": "Peterchurch, Hereford",
    "postcode": "HR2 0SG",
    "lat": 52.037214,
    "lng": -2.95525
  },
  {
    "id": "school-140922",
    "type": "school",
    "name": "Idsall School",
    "address": "Coppice Green Lane, Shifnal",
    "postcode": "TF11 8PD",
    "lat": 52.671877,
    "lng": -2.364687
  },
  {
    "id": "school-140958",
    "type": "school",
    "name": "Eden Girls' School, Coventry",
    "address": "Stoney Stanton Rd, Coventry",
    "postcode": "CV1 4FS",
    "lat": 52.414675,
    "lng": -1.502674
  },
  {
    "id": "school-140961",
    "type": "school",
    "name": "WMG Academy for Young Engineers",
    "address": "Mitchell Avenue, Coventry",
    "postcode": "CV4 8DY",
    "lat": 52.389948,
    "lng": -1.568819
  },
  {
    "id": "school-141074",
    "type": "school",
    "name": "Woodhouse Academy",
    "address": "Woodhouse Lane, Stoke-on-Trent",
    "postcode": "ST8 7DR",
    "lat": 53.125803,
    "lng": -2.161354
  },
  {
    "id": "school-141104",
    "type": "school",
    "name": "Seva School",
    "address": "Link House, Coventry",
    "postcode": "CV2 2TB",
    "lat": 52.43323,
    "lng": -1.434031
  },
  {
    "id": "school-141105",
    "type": "school",
    "name": "Holy Trinity School",
    "address": "Birmingham Road, Kidderminster",
    "postcode": "DY10 2BY",
    "lat": 52.390119,
    "lng": -2.237091
  },
  {
    "id": "school-141169",
    "type": "school",
    "name": "Tenbury High Ormiston Academy",
    "address": "Oldwood Road, Tenbury Wells",
    "postcode": "WR15 8XA",
    "lat": 52.303883,
    "lng": -2.596733
  },
  {
    "id": "school-141245",
    "type": "school",
    "name": "Wednesfield Academy",
    "address": "Lichfield Road, Wolverhampton",
    "postcode": "WV11 3ES",
    "lat": 52.603251,
    "lng": -2.070543
  },
  {
    "id": "school-141277",
    "type": "school",
    "name": "Lawrence Sheriff School",
    "address": "Clifton Road, Rugby",
    "postcode": "CV21 3AG",
    "lat": 52.370881,
    "lng": -1.253629
  },
  {
    "id": "school-141325",
    "type": "school",
    "name": "The Crestwood School",
    "address": "Bromley Lane, Dudley",
    "postcode": "DY6 8QG",
    "lat": 52.490269,
    "lng": -2.149975
  },
  {
    "id": "school-141342",
    "type": "school",
    "name": "Kinver High School and Sixth Form",
    "address": "Enville Road, Stourbridge",
    "postcode": "DY7 6AA",
    "lat": 52.452865,
    "lng": -2.229805
  },
  {
    "id": "school-141343",
    "type": "school",
    "name": "Wombourne High School",
    "address": "Ounsdale Road, Wolverhampton",
    "postcode": "WV5 8BJ",
    "lat": 52.535275,
    "lng": -2.195157
  },
  {
    "id": "school-141414",
    "type": "school",
    "name": "Hagley Catholic High School",
    "address": "Brake Lane, Hagley",
    "postcode": "DY8 2XL",
    "lat": 52.421886,
    "lng": -2.147786
  },
  {
    "id": "school-141451",
    "type": "school",
    "name": "The Lacon Childe School",
    "address": "Love Lane, Kidderminster",
    "postcode": "DY14 8PE",
    "lat": 52.380118,
    "lng": -2.483024
  },
  {
    "id": "school-141570",
    "type": "school",
    "name": "Ellowes Hall Sports College",
    "address": "Stickley Lane, Dudley",
    "postcode": "DY3 2JH",
    "lat": 52.526097,
    "lng": -2.128014
  },
  {
    "id": "school-141698",
    "type": "school",
    "name": "Q3 Academy Langley",
    "address": "Moat Road, Oldbury",
    "postcode": "B68 8ED",
    "lat": 52.484763,
    "lng": -1.999676
  },
  {
    "id": "school-141712",
    "type": "school",
    "name": "Ridgewood High School",
    "address": "Park Road West, Stourbridge",
    "postcode": "DY8 3NQ",
    "lat": 52.457548,
    "lng": -2.172397
  },
  {
    "id": "school-141802",
    "type": "school",
    "name": "Our Lady and St Chad Catholic Academy",
    "address": "Old Fallings Lane, Wolverhampton",
    "postcode": "WV10 8BL",
    "lat": 52.61056,
    "lng": -2.107007
  },
  {
    "id": "school-141836",
    "type": "school",
    "name": "St Thomas More Catholic School and Sixth Form College",
    "address": "Greenmoor Road, Nuneaton",
    "postcode": "CV10 7EX",
    "lat": 52.516829,
    "lng": -1.479089
  },
  {
    "id": "school-141939",
    "type": "school",
    "name": "Finham Park 2",
    "address": "Torrington Avenue, Coventry",
    "postcode": "CV4 9WT",
    "lat": 52.397304,
    "lng": -1.571687
  },
  {
    "id": "school-141992",
    "type": "school",
    "name": "Cardinal Wiseman Catholic School",
    "address": "Potters Green Road, Coventry",
    "postcode": "CV2 2AJ",
    "lat": 52.435758,
    "lng": -1.451491
  },
  {
    "id": "school-142015",
    "type": "school",
    "name": "The Orme Academy",
    "address": "Milehouse Lane, Newcastle",
    "postcode": "ST5 9JU",
    "lat": 53.026806,
    "lng": -2.221645
  },
  {
    "id": "school-142067",
    "type": "school",
    "name": "Holy Trinity Academy",
    "address": "Teece Drive, Telford",
    "postcode": "TF2 9SQ",
    "lat": 52.68485,
    "lng": -2.416666
  },
  {
    "id": "school-142075",
    "type": "school",
    "name": "Lyndon School",
    "address": "Daylesford Road, Solihull",
    "postcode": "B92 8EJ",
    "lat": 52.44793,
    "lng": -1.790602
  },
  {
    "id": "school-142080",
    "type": "school",
    "name": "The Khalsa Academy Wolverhampton",
    "address": "Millfields Road, Wolverhampton",
    "postcode": "WV4 6JP",
    "lat": 52.563397,
    "lng": -2.093849
  },
  {
    "id": "school-142153",
    "type": "school",
    "name": "Oldbury Wells School",
    "address": "Oldbury Wells, Bridgnorth",
    "postcode": "WV16 5JD",
    "lat": 52.530294,
    "lng": -2.425212
  },
  {
    "id": "school-142186",
    "type": "school",
    "name": "Ormiston Meridian Academy",
    "address": "Sandon Road, Stoke-on-Trent",
    "postcode": "ST3 7DF",
    "lat": 52.971162,
    "lng": -2.116369
  },
  {
    "id": "school-142193",
    "type": "school",
    "name": "Blessed William Howard Catholic School",
    "address": "Rowley Avenue, Stafford",
    "postcode": "ST17 9AB",
    "lat": 52.799594,
    "lng": -2.12128
  },
  {
    "id": "school-142202",
    "type": "school",
    "name": "North Leamington School",
    "address": "Sandy Lane, Leamington Spa",
    "postcode": "CV32 6RD",
    "lat": 52.309259,
    "lng": -1.528471
  },
  {
    "id": "school-142219",
    "type": "school",
    "name": "Waverley School",
    "address": "Yardley Green Road, Birmingham",
    "postcode": "B9 5QA",
    "lat": 52.475135,
    "lng": -1.828476
  },
  {
    "id": "school-142277",
    "type": "school",
    "name": "Newcastle Academy",
    "address": "Gallowstree Lane, Newcastle Under Lyme",
    "postcode": "ST5 2QS",
    "lat": 53.00317,
    "lng": -2.244952
  },
  {
    "id": "school-142278",
    "type": "school",
    "name": "Clayton Hall Academy",
    "address": "Clayton Lane, Newcastle-under-Lyme",
    "postcode": "ST5 3DN",
    "lat": 52.988515,
    "lng": -2.217486
  },
  {
    "id": "school-142313",
    "type": "school",
    "name": "Kingsmead School",
    "address": "Kings Avenue, Cannock",
    "postcode": "WS12 1DH",
    "lat": 52.701937,
    "lng": -1.993695
  },
  {
    "id": "school-142317",
    "type": "school",
    "name": "Highfields School",
    "address": "Boundary Way, Wolverhampton",
    "postcode": "WV4 4NT",
    "lat": 52.565246,
    "lng": -2.175711
  },
  {
    "id": "school-142339",
    "type": "school",
    "name": "Barr's Hill School",
    "address": "Radford Road, Coventry",
    "postcode": "CV1 4BU",
    "lat": 52.414832,
    "lng": -1.514597
  },
  {
    "id": "school-142594",
    "type": "school",
    "name": "Pool Hayes Academy",
    "address": "Castle Drive, Willenhall",
    "postcode": "WV12 4QZ",
    "lat": 52.601211,
    "lng": -2.051063
  },
  {
    "id": "school-142605",
    "type": "school",
    "name": "UTC Sheffield Olympic Legacy Park",
    "address": "2 Old Hall Road, Sheffield",
    "postcode": "S9 3TU",
    "lat": 53.396754,
    "lng": -1.424172
  },
  {
    "id": "school-142696",
    "type": "school",
    "name": "Churnet View Middle School",
    "address": "Churnet View, Leek",
    "postcode": "ST13 6PU",
    "lat": 53.115106,
    "lng": -2.012536
  },
  {
    "id": "school-142711",
    "type": "school",
    "name": "Leek High School",
    "address": "Springfield Road, Leek",
    "postcode": "ST13 6EU",
    "lat": 53.106916,
    "lng": -2.008411
  },
  {
    "id": "school-142755",
    "type": "school",
    "name": "Westwood College",
    "address": "Westwood Park, Leek",
    "postcode": "ST13 8NP",
    "lat": 53.103795,
    "lng": -2.051058
  },
  {
    "id": "school-142821",
    "type": "school",
    "name": "Charlton School",
    "address": "Apley Avenue, Telford",
    "postcode": "TF1 3FA",
    "lat": 52.708799,
    "lng": -2.515778
  },
  {
    "id": "school-142881",
    "type": "school",
    "name": "Rugby Free Secondary School",
    "address": "Anderson Avenue, Rugby",
    "postcode": "CV22 5PE",
    "lat": 52.358919,
    "lng": -1.261673
  },
  {
    "id": "school-142900",
    "type": "school",
    "name": "WMG Academy for Young Engineers (Solihull)",
    "address": "Chelmsley Road, Birmingham",
    "postcode": "B37 5FD",
    "lat": 52.482133,
    "lng": -1.74084
  },
  {
    "id": "school-142960",
    "type": "school",
    "name": "Lyng Hall School",
    "address": "Blackberry Lane, Coventry",
    "postcode": "CV2 3JS",
    "lat": 52.423399,
    "lng": -1.468205
  },
  {
    "id": "school-142980",
    "type": "school",
    "name": "Codsall Middle School",
    "address": "Wolverhampton Road, Wolverhampton",
    "postcode": "WV8 1PB",
    "lat": 52.625317,
    "lng": -2.190549
  },
  {
    "id": "school-142983",
    "type": "school",
    "name": "Sir Graham Balfour High School",
    "address": "North Avenue, Stafford",
    "postcode": "ST16 1NR",
    "lat": 52.828145,
    "lng": -2.123883
  },
  {
    "id": "school-142987",
    "type": "school",
    "name": "Walton High School",
    "address": "The Rise, Stafford",
    "postcode": "ST17 0LJ",
    "lat": 52.78597,
    "lng": -2.068985
  },
  {
    "id": "school-143101",
    "type": "school",
    "name": "The Royal School, Wolverhampton",
    "address": "Penn Road, Wolverhampton",
    "postcode": "WV3 0EG",
    "lat": 52.571743,
    "lng": -2.136735
  },
  {
    "id": "school-143129",
    "type": "school",
    "name": "Phoenix Academy",
    "address": "The Curve, London",
    "postcode": "W12 0RQ",
    "lat": 51.51258,
    "lng": -0.236249
  },
  {
    "id": "school-143395",
    "type": "school",
    "name": "Bredon Hill Academy",
    "address": "Elmley Road, Evesham",
    "postcode": "WR11 7SW",
    "lat": 52.046364,
    "lng": -1.999533
  },
  {
    "id": "school-143438",
    "type": "school",
    "name": "Dame Elizabeth Cadbury School",
    "address": "Woodbrooke Road, Birmingham",
    "postcode": "B30 1UL",
    "lat": 52.427548,
    "lng": -1.941534
  },
  {
    "id": "school-143507",
    "type": "school",
    "name": "Alvechurch CofE Middle School",
    "address": "Birmingham Road, Birmingham",
    "postcode": "B48 7TA",
    "lat": 52.354629,
    "lng": -1.961101
  },
  {
    "id": "school-143562",
    "type": "school",
    "name": "King Edward VI Handsworth Grammar School for Boys",
    "address": "Grove Lane, Birmingham",
    "postcode": "B21 9ET",
    "lat": 52.50438,
    "lng": -1.931914
  },
  {
    "id": "school-143582",
    "type": "school",
    "name": "Leasowes High School",
    "address": "Kent Road, Halesowen",
    "postcode": "B62 8PJ",
    "lat": 52.459334,
    "lng": -2.025832
  },
  {
    "id": "school-143634",
    "type": "school",
    "name": "St Benedict's Catholic High School",
    "address": "Kinwarton Road, Alcester",
    "postcode": "B49 6PX",
    "lat": 52.217188,
    "lng": -1.864898
  },
  {
    "id": "school-143707",
    "type": "school",
    "name": "Houlton School",
    "address": "Signal Drive, RUGBY",
    "postcode": "CV23 1ED",
    "lat": 52.366298,
    "lng": -1.187241
  },
  {
    "id": "school-143818",
    "type": "school",
    "name": "Thorns Collegiate Academy",
    "address": "Stockwell Avenue, Brierley Hill",
    "postcode": "DY5 2NU",
    "lat": 52.467462,
    "lng": -2.115536
  },
  {
    "id": "school-143895",
    "type": "school",
    "name": "Smith's Wood Academy",
    "address": "Windward Way, Birmingham",
    "postcode": "B36 0UE",
    "lat": 52.497782,
    "lng": -1.743252
  },
  {
    "id": "school-143899",
    "type": "school",
    "name": "Chase Terrace Academy",
    "address": "Bridge Cross Road, Burntwood",
    "postcode": "WS7 2DB",
    "lat": 52.68309,
    "lng": -1.931044
  },
  {
    "id": "school-143905",
    "type": "school",
    "name": "Southam College",
    "address": "Welsh Road West, Southam",
    "postcode": "CV47 0JW",
    "lat": 52.256885,
    "lng": -1.392762
  },
  {
    "id": "school-143929",
    "type": "school",
    "name": "Hereford Sixth Form College",
    "address": "Folly Lane, Hereford",
    "postcode": "HR1 1LU",
    "lat": 52.062186,
    "lng": -2.697143
  },
  {
    "id": "school-144002",
    "type": "school",
    "name": "Thomas Alleyne's High School",
    "address": "Dove Bank, Uttoxeter",
    "postcode": "ST14 8DU",
    "lat": 52.901014,
    "lng": -1.861487
  },
  {
    "id": "school-144007",
    "type": "school",
    "name": "Windsor Park CE Middle School",
    "address": "Springfield Road, Uttoxeter",
    "postcode": "ST14 7JX",
    "lat": 52.900757,
    "lng": -1.873234
  },
  {
    "id": "school-144206",
    "type": "school",
    "name": "Penkridge Middle School",
    "address": "Marsh Lane, Stafford",
    "postcode": "ST19 5BW",
    "lat": 52.728532,
    "lng": -2.101786
  },
  {
    "id": "school-144278",
    "type": "school",
    "name": "Moreton School",
    "address": "Old Fallings Lane, Wolverhampton",
    "postcode": "WV10 8BY",
    "lat": 52.616586,
    "lng": -2.105322
  },
  {
    "id": "school-144306",
    "type": "school",
    "name": "Tile Cross Academy",
    "address": "Gressel Lane, Birmingham",
    "postcode": "B33 9UF",
    "lat": 52.482918,
    "lng": -1.768596
  },
  {
    "id": "school-144367",
    "type": "school",
    "name": "Baxter College",
    "address": "Habberley Road, Kidderminster",
    "postcode": "DY11 5PQ",
    "lat": 52.388351,
    "lng": -2.269279
  },
  {
    "id": "school-144558",
    "type": "school",
    "name": "Trentham Academy",
    "address": "Allerton Road, Stoke-on-Trent",
    "postcode": "ST4 8PQ",
    "lat": 52.971206,
    "lng": -2.193094
  },
  {
    "id": "school-144657",
    "type": "school",
    "name": "St James Academy",
    "address": "St James's Road, Dudley",
    "postcode": "DY1 3JE",
    "lat": 52.512458,
    "lng": -2.088686
  },
  {
    "id": "school-144853",
    "type": "school",
    "name": "Hadley Learning Community - Secondary Phase",
    "address": "Waterloo Road, Telford",
    "postcode": "TF1 5NU",
    "lat": 52.70106,
    "lng": -2.478745
  },
  {
    "id": "school-144887",
    "type": "school",
    "name": "Solihull Sixth Form College",
    "address": "Widney Manor Road, Solihull",
    "postcode": "B91 3WR",
    "lat": 52.405483,
    "lng": -1.771192
  },
  {
    "id": "school-144888",
    "type": "school",
    "name": "Worcester Sixth Form College",
    "address": "Spetchley Road, Worcester",
    "postcode": "WR5 2LU",
    "lat": 52.183573,
    "lng": -2.185379
  },
  {
    "id": "school-144952",
    "type": "school",
    "name": "The Link Academy",
    "address": "Simms Lane, Dudley",
    "postcode": "DY2 0PB",
    "lat": 52.49268,
    "lng": -2.086481
  },
  {
    "id": "school-144988",
    "type": "school",
    "name": "Great Wyrley Academy",
    "address": "Hall Lane, Walsall",
    "postcode": "WS6 6LQ",
    "lat": 52.665676,
    "lng": -2.017169
  },
  {
    "id": "school-145003",
    "type": "school",
    "name": "City of Stoke-On-Trent Sixth Form College",
    "address": "Leek Road, Stoke-on-Trent",
    "postcode": "ST4 2RU",
    "lat": 53.00597,
    "lng": -2.176616
  },
  {
    "id": "school-145008",
    "type": "school",
    "name": "Ormiston SWB Academy",
    "address": "Dudley Street, Bilston",
    "postcode": "WV14 0LN",
    "lat": 52.561386,
    "lng": -2.077159
  },
  {
    "id": "school-145047",
    "type": "school",
    "name": "Sir Thomas Boughey Academy",
    "address": "Station Road, Stoke-on-Trent",
    "postcode": "ST7 8AP",
    "lat": 53.039671,
    "lng": -2.303152
  },
  {
    "id": "school-145114",
    "type": "school",
    "name": "Coppice Performing Arts School",
    "address": "Ecclestone Road, Wolverhampton",
    "postcode": "WV11 2QE",
    "lat": 52.611173,
    "lng": -2.05264
  },
  {
    "id": "school-145134",
    "type": "school",
    "name": "Ormiston NEW Academy",
    "address": "Marsh Lane, Wolverhampton",
    "postcode": "WV10 6SE",
    "lat": 52.622461,
    "lng": -2.136125
  },
  {
    "id": "school-145174",
    "type": "school",
    "name": "King Edward VI College",
    "address": "King Edward Road, Nuneaton",
    "postcode": "CV11 4BE",
    "lat": 52.521798,
    "lng": -1.460163
  },
  {
    "id": "school-145176",
    "type": "school",
    "name": "Brewood Middle CofE Academy",
    "address": "School Road, Stafford",
    "postcode": "ST19 9DS",
    "lat": 52.675069,
    "lng": -2.175368
  },
  {
    "id": "school-145179",
    "type": "school",
    "name": "Stoke Park School",
    "address": "Dane Road, Coventry",
    "postcode": "CV2 4JW",
    "lat": 52.412983,
    "lng": -1.473167
  },
  {
    "id": "school-145375",
    "type": "school",
    "name": "Ryecroft CofE Middle School",
    "address": "Ashbourne Road, Rocester",
    "postcode": "ST14 5PB",
    "lat": 52.9557,
    "lng": -1.838223
  },
  {
    "id": "school-145376",
    "type": "school",
    "name": "Oldfields Hall Middle School",
    "address": "Stone Road, Uttoxeter",
    "postcode": "ST14 7PL",
    "lat": 52.898368,
    "lng": -1.874995
  },
  {
    "id": "school-145381",
    "type": "school",
    "name": "Wolgarston High School",
    "address": "Cannock Road, Stafford",
    "postcode": "ST19 5RX",
    "lat": 52.721793,
    "lng": -2.096943
  },
  {
    "id": "school-145575",
    "type": "school",
    "name": "Bilton School",
    "address": "Lawford Lane, Rugby",
    "postcode": "CV22 7JT",
    "lat": 52.361509,
    "lng": -1.295556
  },
  {
    "id": "school-145580",
    "type": "school",
    "name": "Arena Academy",
    "address": "Beeches Road, Birmingham",
    "postcode": "B42 2PY",
    "lat": 52.540354,
    "lng": -1.906996
  },
  {
    "id": "school-145593",
    "type": "school",
    "name": "The Pedmore High School",
    "address": "Grange Lane, Stourbridge",
    "postcode": "DY9 7HS",
    "lat": 52.449695,
    "lng": -2.125055
  },
  {
    "id": "school-145707",
    "type": "school",
    "name": "Ercall Wood Academy",
    "address": "Golf Links Lane, Telford",
    "postcode": "TF1 2DT",
    "lat": 52.692079,
    "lng": -2.515063
  },
  {
    "id": "school-146124",
    "type": "school",
    "name": "Archbishop Ilsley Catholic School",
    "address": "Victoria Road, Birmingham",
    "postcode": "B27 7XY",
    "lat": 52.444068,
    "lng": -1.820239
  },
  {
    "id": "school-146383",
    "type": "school",
    "name": "Q3 Academy Tipton",
    "address": "Alexandra Road, Tipton",
    "postcode": "DY4 7NR",
    "lat": 52.531947,
    "lng": -2.048623
  },
  {
    "id": "school-146436",
    "type": "school",
    "name": "Foxford Community School",
    "address": "Grange Road, Coventry",
    "postcode": "CV6 6BB",
    "lat": 52.45314,
    "lng": -1.47781
  },
  {
    "id": "school-146443",
    "type": "school",
    "name": "Cheslyn Hay Academy",
    "address": "Saredon Road, Walsall",
    "postcode": "WS6 7JQ",
    "lat": 52.660887,
    "lng": -2.04158
  },
  {
    "id": "school-146493",
    "type": "school",
    "name": "Nether Stowe School",
    "address": "St Chad's Road, Lichfield",
    "postcode": "WS13 7NB",
    "lat": 52.690276,
    "lng": -1.821494
  },
  {
    "id": "school-146580",
    "type": "school",
    "name": "The Grove School",
    "address": "Newcastle Road, Market Drayton",
    "postcode": "TF9 1HF",
    "lat": 52.905482,
    "lng": -2.475954
  },
  {
    "id": "school-146635",
    "type": "school",
    "name": "Kidsgrove Secondary School",
    "address": "Gloucester Road, Stoke-on-Trent",
    "postcode": "ST7 4DL",
    "lat": 53.093692,
    "lng": -2.231681
  },
  {
    "id": "school-146697",
    "type": "school",
    "name": "Kenilworth School and Sixth Form",
    "address": "Glasshouse Lane, Kenilworth",
    "postcode": "CV8 2AL",
    "lat": 52.345691,
    "lng": -1.55843
  },
  {
    "id": "school-146907",
    "type": "school",
    "name": "The Friary School",
    "address": "Eastern Avenue, Lichfield",
    "postcode": "WS13 7EW",
    "lat": 52.694203,
    "lng": -1.845643
  },
  {
    "id": "school-146914",
    "type": "school",
    "name": "James Bateman Middle School",
    "address": "Park Lane, Biddulph",
    "postcode": "ST8 7AT",
    "lat": 53.107855,
    "lng": -2.176944
  },
  {
    "id": "school-147113",
    "type": "school",
    "name": "St Regis Church of England Academy",
    "address": "Regis Road, Wolverhampton",
    "postcode": "WV6 8XG",
    "lat": 52.597908,
    "lng": -2.182294
  },
  {
    "id": "school-147345",
    "type": "school",
    "name": "Bishop Ullathorne Catholic School",
    "address": "Leasowes Avenue, Coventry",
    "postcode": "CV3 6BH",
    "lat": 52.379568,
    "lng": -1.534554
  },
  {
    "id": "school-147346",
    "type": "school",
    "name": "Cardinal Newman Catholic School",
    "address": "Sandpits Lane, Coventry",
    "postcode": "CV6 2FR",
    "lat": 52.441942,
    "lng": -1.535163
  },
  {
    "id": "school-147432",
    "type": "school",
    "name": "Kineton High School",
    "address": "Banbury Road, Warwick",
    "postcode": "CV35 0JX",
    "lat": 52.156165,
    "lng": -1.500823
  },
  {
    "id": "school-147440",
    "type": "school",
    "name": "King Edward VI Balaam Wood Academy",
    "address": "New Street, Birmingham",
    "postcode": "B45 0EU",
    "lat": 52.403483,
    "lng": -2.015715
  },
  {
    "id": "school-147707",
    "type": "school",
    "name": "St Edmund Campion Catholic School",
    "address": "Sutton Road, Birmingham",
    "postcode": "B23 5XA",
    "lat": 52.529963,
    "lng": -1.829177
  },
  {
    "id": "school-147796",
    "type": "school",
    "name": "Brownhills Ormiston Academy",
    "address": "Deakin Avenue, Walsall",
    "postcode": "WS8 7QG",
    "lat": 52.654391,
    "lng": -1.929774
  },
  {
    "id": "school-147881",
    "type": "school",
    "name": "Stuart Bathurst Catholic High School",
    "address": "Wood Green Road, Wednesbury",
    "postcode": "WS10 9QS",
    "lat": 52.563865,
    "lng": -2.004426
  },
  {
    "id": "school-148002",
    "type": "school",
    "name": "Endon High School",
    "address": "Leek Road, Stoke-on-Trent",
    "postcode": "ST9 9EE",
    "lat": 53.073319,
    "lng": -2.11548
  },
  {
    "id": "school-148142",
    "type": "school",
    "name": "King Edward VI College Stourbridge",
    "address": "Lower High Street, Stourbridge",
    "postcode": "DY8 1TD",
    "lat": 52.458176,
    "lng": -2.146539
  },
  {
    "id": "school-148187",
    "type": "school",
    "name": "City Academy",
    "address": "23 Langley Walk, Birmingham",
    "postcode": "B15 2EF",
    "lat": 52.472066,
    "lng": -1.9053
  },
  {
    "id": "school-148220",
    "type": "school",
    "name": "Birches Head Academy",
    "address": "Birches Head Road, Stoke-on-Trent",
    "postcode": "ST2 8DD",
    "lat": 53.039405,
    "lng": -2.150352
  },
  {
    "id": "school-148338",
    "type": "school",
    "name": "The De Montfort School",
    "address": "Four Pools Road, Evesham",
    "postcode": "WR11 1DQ",
    "lat": 52.084696,
    "lng": -1.937371
  },
  {
    "id": "school-148362",
    "type": "school",
    "name": "Trinity Catholic School",
    "address": "Guy's Cliffe Avenue, Leamington Spa",
    "postcode": "CV32 6NB",
    "lat": 52.295659,
    "lng": -1.550217
  },
  {
    "id": "school-148402",
    "type": "school",
    "name": "The King's CofE Academy",
    "address": "First Avenue, Stoke-on-Trent",
    "postcode": "ST7 1DP",
    "lat": 53.084559,
    "lng": -2.244398
  },
  {
    "id": "school-148429",
    "type": "school",
    "name": "Meadow Park School",
    "address": "Abbey Road, Coventry",
    "postcode": "CV3 4BD",
    "lat": 52.385945,
    "lng": -1.485084
  },
  {
    "id": "school-148508",
    "type": "school",
    "name": "Moorside High School",
    "address": "Cellarhead Road, Stoke-on-Trent",
    "postcode": "ST9 0HP",
    "lat": 53.027046,
    "lng": -2.069935
  },
  {
    "id": "school-148553",
    "type": "school",
    "name": "Prince Albert High School",
    "address": "115 Holford Drive, Birmingham",
    "postcode": "B42 2TU",
    "lat": 52.520733,
    "lng": -1.892902
  },
  {
    "id": "school-149042",
    "type": "school",
    "name": "BOA Digital Technologies Academy",
    "address": "47 Barrack Street, Birmingham",
    "postcode": "B7 4EU",
    "lat": 52.484601,
    "lng": -1.877379
  },
  {
    "id": "school-149328",
    "type": "school",
    "name": "King Edward VI High School",
    "address": "Westway, Stafford",
    "postcode": "ST17 9YJ",
    "lat": 52.795566,
    "lng": -2.129382
  },
  {
    "id": "school-149376",
    "type": "school",
    "name": "Blythe Bridge High School",
    "address": "Cheadle Road, Stoke-on-Trent",
    "postcode": "ST11 9PW",
    "lat": 52.967824,
    "lng": -2.059699
  },
  {
    "id": "school-149635",
    "type": "school",
    "name": "Smestow Academy",
    "address": "Windmill Crescent, Wolverhampton",
    "postcode": "WV3 8HU",
    "lat": 52.580797,
    "lng": -2.183596
  },
  {
    "id": "school-149717",
    "type": "school",
    "name": "Oakley School",
    "address": "Quercus Way, Leamington Spa",
    "postcode": "CV33 9WN",
    "lat": 52.256274,
    "lng": -1.535436
  },
  {
    "id": "school-149989",
    "type": "school",
    "name": "Cardinal Griffin Catholic College",
    "address": "Cardinal Way, Cannock",
    "postcode": "WS11 4AW",
    "lat": 52.696357,
    "lng": -2.034688
  },
  {
    "id": "school-150363",
    "type": "school",
    "name": "The Burton Borough School",
    "address": "Audley Avenue, Newport",
    "postcode": "TF10 7DS",
    "lat": 52.765019,
    "lng": -2.368058
  },
  {
    "id": "school-150453",
    "type": "school",
    "name": "Hartshill Academy",
    "address": "Church Road, Nuneaton",
    "postcode": "CV10 0NA",
    "lat": 52.540146,
    "lng": -1.517832
  },
  {
    "id": "school-150454",
    "type": "school",
    "name": "Nuneaton Academy",
    "address": "Radnor Drive, Nuneaton",
    "postcode": "CV10 7PD",
    "lat": 52.514524,
    "lng": -1.501179
  },
  {
    "id": "school-150518",
    "type": "school",
    "name": "Catshill Middle School",
    "address": "Meadow Road, Bromsgrove",
    "postcode": "B61 0JW",
    "lat": 52.360815,
    "lng": -2.05967
  },
  {
    "id": "school-150716",
    "type": "school",
    "name": "The Telford Park School",
    "address": "Grange Avenue, Telford",
    "postcode": "TF3 1FA",
    "lat": 52.655981,
    "lng": -2.434089
  },
  {
    "id": "school-150790",
    "type": "school",
    "name": "Co-op Academy Florence MacWilliams",
    "address": "Weston Road, Stoke-on-Trent",
    "postcode": "ST3 6AP",
    "lat": 52.983295,
    "lng": -2.101505
  },
  {
    "id": "school-150811",
    "type": "school",
    "name": "New Road Academy",
    "address": "New Road, Telford",
    "postcode": "TF2 7AB",
    "lat": 52.70648,
    "lng": -2.44695
  },
  {
    "id": "school-151403",
    "type": "school",
    "name": "Swanshurst School",
    "address": "Brook Lane, Birmingham",
    "postcode": "B13 0TW",
    "lat": 52.429547,
    "lng": -1.875546
  },
  {
    "id": "school-151700",
    "type": "school",
    "name": "Higham Lane North Academy",
    "address": "Upper Farm Drive, Nuneaton",
    "postcode": "CV11 6YN",
    "lat": 52.543741,
    "lng": -1.451488
  },
  {
    "id": "school-151701",
    "type": "school",
    "name": "Rugeley John Taylor",
    "address": "Kingfisher Avenue, Rugeley",
    "postcode": "WS15 1FY",
    "lat": 52.753905,
    "lng": -1.910306
  },
  {
    "id": "school-151792",
    "type": "school",
    "name": "The Wordsley School",
    "address": "Brierley Hill Road, Stourbridge",
    "postcode": "DY8 5SP",
    "lat": 52.480256,
    "lng": -2.148365
  }
]