[
  {
    "id": "school-100257",
    "type": "school",
    "name": "Holmleigh Primary School",
    "address": "Fairholt Road, London",
    "postcode": "N16 5ED",
    "lat": 51.569852,
    "lng": -0.07944
  },
  {
    "id": "school-100279",
    "type": "school",
    "name": "Stoke Newington School and Sixth Form",
    "address": "Clissold Road, London",
    "postcode": "N16 9EX",
    "lat": 51.557382,
    "lng": -0.082996
  },
  {
    "id": "school-100432",
    "type": "school",
    "name": "Ashmount Primary School",
    "address": "Crouch Hill Park, London",
    "postcode": "N8 9EG",
    "lat": 51.573158,
    "lng": -0.122585
  },
  {
    "id": "school-100446",
    "type": "school",
    "name": "St Mary's CofE Primary School",
    "address": "Fowler Road, London",
    "postcode": "N1 2EP",
    "lat": 51.53911,
    "lng": -0.098676
  },
  {
    "id": "school-100469",
    "type": "school",
    "name": "Samuel Rhodes MLD School",
    "address": "11 Highbury New Park, London",
    "postcode": "N5 2EG",
    "lat": 51.548495,
    "lng": -0.096193
  },
  {
    "id": "school-101329",
    "type": "school",
    "name": "All Saints' CofE Nursery and Primary School N20",
    "address": "116 Oakleigh Road North, London",
    "postcode": "N20 9EZ",
    "lat": 51.628509,
    "lng": -0.166151
  },
  {
    "id": "school-102062",
    "type": "school",
    "name": "Grange Park Preparatory School",
    "address": "13 The Chine, London",
    "postcode": "N21 2EA",
    "lat": 51.640256,
    "lng": -0.093942
  },
  {
    "id": "school-102092",
    "type": "school",
    "name": "Highgate Primary School",
    "address": "North Hill, London",
    "postcode": "N6 4ED",
    "lat": 51.578711,
    "lng": -0.153448
  },
  {
    "id": "school-102124",
    "type": "school",
    "name": "Welbourne Primary School",
    "address": "Stainby Road, London",
    "postcode": "N15 4EA",
    "lat": 51.587568,
    "lng": -0.06567
  },
  {
    "id": "school-102157",
    "type": "school",
    "name": "Gladesmore Community School",
    "address": "Crowland Road, London",
    "postcode": "N15 6EB",
    "lat": 51.579562,
    "lng": -0.064466
  },
  {
    "id": "school-102165",
    "type": "school",
    "name": "Norfolk House School",
    "address": "10 Muswell Avenue",
    "postcode": "N10 2EG",
    "lat": 51.594382,
    "lng": -0.141189
  },
  {
    "id": "school-106588",
    "type": "school",
    "name": "Thurlstone Primary School",
    "address": "Royd Moor Road, Sheffield",
    "postcode": "S36 9RD",
    "lat": 53.529209,
    "lng": -1.649685
  },
  {
    "id": "school-106603",
    "type": "school",
    "name": "Gawber Primary School",
    "address": "Church Street, Barnsley",
    "postcode": "S75 2RJ",
    "lat": 53.558726,
    "lng": -1.512533
  },
  {
    "id": "school-107069",
    "type": "school",
    "name": "Brunswick Community Primary School",
    "address": "Station Road, Sheffield",
    "postcode": "S13 7RB",
    "lat": 53.359533,
    "lng": -1.359949
  },
  {
    "id": "school-107073",
    "type": "school",
    "name": "Springfield Primary School",
    "address": "Cavendish Street, Sheffield",
    "postcode": "S3 7RZ",
    "lat": 53.377912,
    "lng": -1.479165
  },
  {
    "id": "school-107094",
    "type": "school",
    "name": "Walkley Primary School",
    "address": "Burnaby Crescent, Sheffield",
    "postcode": "S6 2RZ",
    "lat": 53.395762,
    "lng": -1.49507
  },
  {
    "id": "school-108320",
    "type": "school",
    "name": "Bensham Grove Nursery School",
    "address": "Sidney Grove and Carr Hill Road, Gateshead",
    "postcode": "NE8 2XD",
    "lat": 54.952383,
    "lng": -1.615431
  },
  {
    "id": "school-108321",
    "type": "school",
    "name": "Carr Hill Community Primary School",
    "address": "Carr Hill Road, Gateshead",
    "postcode": "NE9 5NB",
    "lat": 54.946154,
    "lng": -1.582437
  },
  {
    "id": "school-108323",
    "type": "school",
    "name": "Kelvin Grove Community Primary School",
    "address": "Kelvin Grove, Gateshead",
    "postcode": "NE8 4UN",
    "lat": 54.948425,
    "lng": -1.608708
  },
  {
    "id": "school-108326",
    "type": "school",
    "name": "South Street Community Primary School",
    "address": "Cramer Street, Gateshead",
    "postcode": "NE8 4BB",
    "lat": 54.952501,
    "lng": -1.596472
  },
  {
    "id": "school-108327",
    "type": "school",
    "name": "Bede Community Primary School",
    "address": "Old Fold Road, Gateshead",
    "postcode": "NE10 0DJ",
    "lat": 54.957041,
    "lng": -1.580934
  },
  {
    "id": "school-108330",
    "type": "school",
    "name": "Larkspur Community Primary School",
    "address": "Beacon Lough East, Gateshead",
    "postcode": "NE9 6SS",
    "lat": 54.933177,
    "lng": -1.572379
  },
  {
    "id": "school-108333",
    "type": "school",
    "name": "Ravensworth Terrace Primary School",
    "address": "Mount Pleasant Road, Chester le Street",
    "postcode": "DH3 1AY",
    "lat": 54.898349,
    "lng": -1.566791
  },
  {
    "id": "school-108336",
    "type": "school",
    "name": "Portobello Primary School",
    "address": "Tamerton Drive, Chester le Street",
    "postcode": "DH3 2LY",
    "lat": 54.887419,
    "lng": -1.566394
  },
  {
    "id": "school-108337",
    "type": "school",
    "name": "Birtley East Community Primary School",
    "address": "Highfield, Birtley",
    "postcode": "DH3 1QQ",
    "lat": 54.906054,
    "lng": -1.572588
  },
  {
    "id": "school-108338",
    "type": "school",
    "name": "Dunston Hill Community Primary School",
    "address": "Market Lane, Gateshead",
    "postcode": "NE11 9NX",
    "lat": 54.948823,
    "lng": -1.650785
  },
  {
    "id": "school-108339",
    "type": "school",
    "name": "Emmaville Primary School",
    "address": "Main Street, Ryton",
    "postcode": "NE40 4ND",
    "lat": 54.968135,
    "lng": -1.78584
  },
  {
    "id": "school-108340",
    "type": "school",
    "name": "High Spen Primary School",
    "address": "Hugar Road, Rowlands Gill",
    "postcode": "NE39 2BQ",
    "lat": 54.929709,
    "lng": -1.782798
  },
  {
    "id": "school-108342",
    "type": "school",
    "name": "Swalwell Primary School",
    "address": "South View Terrace, Newcastle-upon-Tyne",
    "postcode": "NE16 3HZ",
    "lat": 54.950797,
    "lng": -1.675502
  },
  {
    "id": "school-108346",
    "type": "school",
    "name": "West Lane Primary School",
    "address": "West Lane, Blaydon-on-Tyne",
    "postcode": "NE21 6PH",
    "lat": 54.951092,
    "lng": -1.730091
  },
  {
    "id": "school-108348",
    "type": "school",
    "name": "Greenside Primary School",
    "address": "Rockwood Hill Road, Ryton",
    "postcode": "NE40 4AX",
    "lat": 54.952513,
    "lng": -1.784721
  },
  {
    "id": "school-108349",
    "type": "school",
    "name": "Blaydon West Primary School",
    "address": "Blaydon Bank, Blaydon-on-Tyne",
    "postcode": "NE21 4PY",
    "lat": 54.963546,
    "lng": -1.713466
  },
  {
    "id": "school-108350",
    "type": "school",
    "name": "Front Street Community Primary School",
    "address": "North View, Newcastle-upon-Tyne",
    "postcode": "NE16 4AY",
    "lat": 54.947187,
    "lng": -1.680262
  },
  {
    "id": "school-108351",
    "type": "school",
    "name": "Highfield Community Primary School",
    "address": "Whinfield Way, Rowlands Gill",
    "postcode": "NE39 2JE",
    "lat": 54.920673,
    "lng": -1.757273
  },
  {
    "id": "school-108352",
    "type": "school",
    "name": "Ryton Community Infant School",
    "address": "Main Road, Ryton",
    "postcode": "NE40 3AF",
    "lat": 54.97178,
    "lng": -1.77401
  },
  {
    "id": "school-108355",
    "type": "school",
    "name": "Ryton Junior School",
    "address": "Main Road, Ryton",
    "postcode": "NE40 3AF",
    "lat": 54.972621,
    "lng": -1.776474
  },
  {
    "id": "school-108356",
    "type": "school",
    "name": "Washingwell Community Primary School",
    "address": "Bucks Hill View, Newcastle-upon-Tyne",
    "postcode": "NE16 4RB",
    "lat": 54.939107,
    "lng": -1.666558
  },
  {
    "id": "school-108357",
    "type": "school",
    "name": "Bill Quay Primary School",
    "address": "Davidson Road, Gateshead",
    "postcode": "NE10 0UN",
    "lat": 54.957331,
    "lng": -1.534671
  },
  {
    "id": "school-108358",
    "type": "school",
    "name": "Falla Park Community Primary School",
    "address": "Falla Park Road, Gateshead",
    "postcode": "NE10 9HP",
    "lat": 54.948718,
    "lng": -1.572854
  },
  {
    "id": "school-108359",
    "type": "school",
    "name": "Brandling Primary School",
    "address": "Mulberry Street, Gateshead",
    "postcode": "NE10 0JB",
    "lat": 54.953409,
    "lng": -1.567557
  },
  {
    "id": "school-108360",
    "type": "school",
    "name": "Lingey House Primary School",
    "address": "Millford, Gateshead",
    "postcode": "NE10 8DN",
    "lat": 54.944265,
    "lng": -1.537367
  },
  {
    "id": "school-108361",
    "type": "school",
    "name": "The Drive Community Primary School",
    "address": "The Drive, Gateshead",
    "postcode": "NE10 0PY",
    "lat": 54.949586,
    "lng": -1.556871
  },
  {
    "id": "school-108362",
    "type": "school",
    "name": "White Mere Community Primary School",
    "address": "Sherburn Way, Gateshead",
    "postcode": "NE10 8BA",
    "lat": 54.942343,
    "lng": -1.530551
  },
  {
    "id": "school-108363",
    "type": "school",
    "name": "Clover Hill Community Primary School",
    "address": "Glenhurst Drive, Newcastle-upon-Tyne",
    "postcode": "NE16 5SJ",
    "lat": 54.933116,
    "lng": -1.688303
  },
  {
    "id": "school-108366",
    "type": "school",
    "name": "Crookhill Community Primary School",
    "address": "Hexham Old Road, Ryton",
    "postcode": "NE40 3ES",
    "lat": 54.970258,
    "lng": -1.745132
  },
  {
    "id": "school-108368",
    "type": "school",
    "name": "Brighton Avenue Primary School",
    "address": "Brighton Road, Gateshead",
    "postcode": "NE8 1XS",
    "lat": 54.952348,
    "lng": -1.612933
  },
  {
    "id": "school-108369",
    "type": "school",
    "name": "Lobley Hill Primary School",
    "address": "Rothbury Gardens, Gateshead",
    "postcode": "NE11 0AT",
    "lat": 54.939101,
    "lng": -1.636179
  },
  {
    "id": "school-108371",
    "type": "school",
    "name": "Wardley Primary School",
    "address": "Keir Hardie Avenue, Gateshead",
    "postcode": "NE10 8TX",
    "lat": 54.950006,
    "lng": -1.539097
  },
  {
    "id": "school-108372",
    "type": "school",
    "name": "Glynwood Community Primary School",
    "address": "Glynwood Gardens, Gateshead",
    "postcode": "NE9 5SY",
    "lat": 54.93605,
    "lng": -1.587084
  },
  {
    "id": "school-108373",
    "type": "school",
    "name": "Barley Mow Primary School",
    "address": "Pembroke Avenue, Chester le Street",
    "postcode": "DH3 2DJ",
    "lat": 54.884219,
    "lng": -1.568829
  },
  {
    "id": "school-108374",
    "type": "school",
    "name": "Windy Nook Primary School",
    "address": "Albion Street, Gateshead",
    "postcode": "NE10 9BD",
    "lat": 54.941772,
    "lng": -1.565559
  },
  {
    "id": "school-108376",
    "type": "school",
    "name": "Roman Road Primary School",
    "address": "Leam Lane Estate, Gateshead",
    "postcode": "NE10 8SA",
    "lat": 54.934661,
    "lng": -1.545375
  },
  {
    "id": "school-108378",
    "type": "school",
    "name": "Fellside Community Primary School",
    "address": "Fellside Road, Newcastle-upon-Tyne",
    "postcode": "NE16 5AY",
    "lat": 54.939541,
    "lng": -1.687925
  },
  {
    "id": "school-108379",
    "type": "school",
    "name": "Fell Dyke Community Primary School",
    "address": "Springwell Road, Gateshead",
    "postcode": "NE9 7AA",
    "lat": 54.927266,
    "lng": -1.565606
  },
  {
    "id": "school-108380",
    "type": "school",
    "name": "Caedmon Community Primary School",
    "address": "Whitehall Road, Gateshead",
    "postcode": "NE8 4LH",
    "lat": 54.952471,
    "lng": -1.603546
  },
  {
    "id": "school-108381",
    "type": "school",
    "name": "Whickham Parochial Church of England Primary School",
    "address": "Broadway, Newcastle-upon-Tyne",
    "postcode": "NE16 5QW",
    "lat": 54.935498,
    "lng": -1.68855
  },
  {
    "id": "school-108391",
    "type": "school",
    "name": "St Joseph's Roman Catholic Voluntary Aided Primary School, Highfield",
    "address": "Whinfield Way, Rowlands Gill",
    "postcode": "NE39 2JE",
    "lat": 54.920673,
    "lng": -1.757273
  },
  {
    "id": "school-108410",
    "type": "school",
    "name": "Kingsmeadow Community School",
    "address": "Market Lane, Gateshead",
    "postcode": "NE11 9NX",
    "lat": 54.950111,
    "lng": -1.651882
  },
  {
    "id": "school-108414",
    "type": "school",
    "name": "Gateshead Jewish Boarding School",
    "address": "10 Rydal Street, Gateshead",
    "postcode": "NE8 1HG",
    "lat": 54.953928,
    "lng": -1.606733
  },
  {
    "id": "school-108416",
    "type": "school",
    "name": "Keser Torah Boys' School",
    "address": "18-22 Gladstone Terrace, Gateshead",
    "postcode": "NE8 4EA",
    "lat": 54.954703,
    "lng": -1.60201
  },
  {
    "id": "school-108419",
    "type": "school",
    "name": "Gateshead Jewish Nursery School",
    "address": "Alexandra Road, Gateshead",
    "postcode": "NE8 1RB",
    "lat": 54.956618,
    "lng": -1.604958
  },
  {
    "id": "school-108420",
    "type": "school",
    "name": "Emmanuel College",
    "address": "Consett Road, Gateshead",
    "postcode": "NE11 0AN",
    "lat": 54.938286,
    "lng": -1.640199
  },
  {
    "id": "school-108426",
    "type": "school",
    "name": "Furrowfield School",
    "address": "Whitehill Drive, Gateshead",
    "postcode": "NE10 9RZ",
    "lat": 54.938311,
    "lng": -1.57056
  },
  {
    "id": "school-108427",
    "type": "school",
    "name": "Ashfield Nursery School",
    "address": "97-101 Elswick Road, Newcastle-upon-Tyne",
    "postcode": "NE4 6JR",
    "lat": 54.969015,
    "lng": -1.634534
  },
  {
    "id": "school-108430",
    "type": "school",
    "name": "Newburn Manor Nursery School",
    "address": "Townfield Gardens, Newcastle-upon-Tyne",
    "postcode": "NE15 8PY",
    "lat": 54.985865,
    "lng": -1.738813
  },
  {
    "id": "school-108431",
    "type": "school",
    "name": "Monkchester Road Nursery School",
    "address": "Monkchester Road, Newcastle-upon-Tyne",
    "postcode": "NE6 2LJ",
    "lat": 54.970872,
    "lng": -1.560386
  },
  {
    "id": "school-108437",
    "type": "school",
    "name": "Dinnington First School",
    "address": "Sycamore Avenue, Newcastle-upon-Tyne",
    "postcode": "NE13 7JY",
    "lat": 55.053299,
    "lng": -1.669821
  },
  {
    "id": "school-108438",
    "type": "school",
    "name": "Archibald First School",
    "address": "Archibald Street, Newcastle-upon-Tyne",
    "postcode": "NE3 1EB",
    "lat": 55.007131,
    "lng": -1.623226
  },
  {
    "id": "school-108439",
    "type": "school",
    "name": "South Gosforth First School",
    "address": "Alnmouth Drive, Newcastle-upon-Tyne",
    "postcode": "NE3 1YF",
    "lat": 55.002048,
    "lng": -1.607279
  },
  {
    "id": "school-108440",
    "type": "school",
    "name": "Regent Farm First School",
    "address": "Wansbeck Road South, Newcastle-upon-Tyne",
    "postcode": "NE3 3PE",
    "lat": 55.013028,
    "lng": -1.635573
  },
  {
    "id": "school-108442",
    "type": "school",
    "name": "Gosforth Park First School",
    "address": "Granville Road, Newcastle-upon-Tyne",
    "postcode": "NE3 5JQ",
    "lat": 55.017803,
    "lng": -1.615869
  },
  {
    "id": "school-108443",
    "type": "school",
    "name": "Havannah First School",
    "address": "Primrose Lane, Newcastle-upon-Tyne",
    "postcode": "NE13 9FR",
    "lat": 55.033252,
    "lng": -1.661317
  },
  {
    "id": "school-108444",
    "type": "school",
    "name": "Grange First School",
    "address": "Norham Road, Newcastle-upon-Tyne",
    "postcode": "NE3 2NP",
    "lat": 55.013648,
    "lng": -1.626496
  },
  {
    "id": "school-108456",
    "type": "school",
    "name": "Lemington Riverside Primary School",
    "address": "Rokeby Street, Newcastle-upon-Tyne",
    "postcode": "NE15 8RR",
    "lat": 54.976737,
    "lng": -1.708606
  },
  {
    "id": "school-108458",
    "type": "school",
    "name": "Byker Primary School",
    "address": "Commercial Road, Newcastle-upon-Tyne",
    "postcode": "NE6 2AT",
    "lat": 54.973193,
    "lng": -1.578625
  },
  {
    "id": "school-108459",
    "type": "school",
    "name": "Benton Park Primary School",
    "address": "Corchester Walk, Newcastle-upon-Tyne",
    "postcode": "NE7 7SS",
    "lat": 55.004639,
    "lng": -1.57853
  },
  {
    "id": "school-108460",
    "type": "school",
    "name": "Hawthorn Primary School",
    "address": "Park Close, Newcastle upon Tyne",
    "postcode": "NE4 6SB",
    "lat": 54.968657,
    "lng": -1.635116
  },
  {
    "id": "school-108461",
    "type": "school",
    "name": "Canning Street Primary School",
    "address": "Wellfield Road, Newcastle-upon-Tyne",
    "postcode": "NE4 8PA",
    "lat": 54.972998,
    "lng": -1.656887
  },
  {
    "id": "school-108463",
    "type": "school",
    "name": "Chillingham Road Primary School",
    "address": "Ninth Avenue, Newcastle-upon-Tyne",
    "postcode": "NE6 5XX",
    "lat": 54.983879,
    "lng": -1.57631
  },
  {
    "id": "school-108465",
    "type": "school",
    "name": "Cragside Primary School",
    "address": "Cragside, Newcastle-upon-Tyne",
    "postcode": "NE7 7EL",
    "lat": 54.999002,
    "lng": -1.585859
  },
  {
    "id": "school-108466",
    "type": "school",
    "name": "Bridgewater Primary School",
    "address": "Bridgewater, Newcastle-upon-Tyne",
    "postcode": "NE15 6NL",
    "lat": 54.971018,
    "lng": -1.672121
  },
  {
    "id": "school-108468",
    "type": "school",
    "name": "Broadwood Primary School",
    "address": "Broadwood Road, Newcastle-upon-Tyne",
    "postcode": "NE15 7TB",
    "lat": 54.980259,
    "lng": -1.693501
  },
  {
    "id": "school-108475",
    "type": "school",
    "name": "Ravenswood Primary School",
    "address": "Ravenswood Road, Newcastle upon Tyne",
    "postcode": "NE6 5TU",
    "lat": 54.991184,
    "lng": -1.575717
  },
  {
    "id": "school-108476",
    "type": "school",
    "name": "St Johns Primary School",
    "address": "Teindland Close, Newcastle-upon-Tyne",
    "postcode": "NE4 8HE",
    "lat": 54.966689,
    "lng": -1.653551
  },
  {
    "id": "school-108487",
    "type": "school",
    "name": "Wingrove Primary School",
    "address": "Hadrian Road, Newcastle-upon-Tyne",
    "postcode": "NE4 9HN",
    "lat": 54.978141,
    "lng": -1.648062
  },
  {
    "id": "school-108491",
    "type": "school",
    "name": "Hotspur Primary School",
    "address": "Mowbray Street, Newcastle-upon-Tyne",
    "postcode": "NE6 5PA",
    "lat": 54.978576,
    "lng": -1.589179
  },
  {
    "id": "school-108492",
    "type": "school",
    "name": "Moorside Primary School",
    "address": "Beaconsfield Street, Newcastle-upon-Tyne",
    "postcode": "NE4 5AW",
    "lat": 54.976778,
    "lng": -1.634073
  },
  {
    "id": "school-108493",
    "type": "school",
    "name": "Christ Church CofE Primary School",
    "address": "Shieldfield Green, Newcastle upon Tyne",
    "postcode": "NE2 1XA",
    "lat": 54.975183,
    "lng": -1.601073
  },
  {
    "id": "school-108495",
    "type": "school",
    "name": "Archbishop Runcie CofE First School",
    "address": "Christon Road, Newcastle-upon-Tyne",
    "postcode": "NE3 1US",
    "lat": 55.009302,
    "lng": -1.607803
  },
  {
    "id": "school-108502",
    "type": "school",
    "name": "St Paul's CofE Primary School",
    "address": "Victoria Street, Newcastle-upon-Tyne",
    "postcode": "NE4 7JU",
    "lat": 54.969589,
    "lng": -1.628343
  },
  {
    "id": "school-108519",
    "type": "school",
    "name": "Gosforth Central Middle School",
    "address": "Great North Road, Newcastle-upon-Tyne",
    "postcode": "NE3 1UN",
    "lat": 55.010299,
    "lng": -1.616003
  },
  {
    "id": "school-108521",
    "type": "school",
    "name": "Gosforth East Middle School",
    "address": "Harewood Road, Newcastle-upon-Tyne",
    "postcode": "NE3 5JT",
    "lat": 55.015661,
    "lng": -1.614857
  },
  {
    "id": "school-108538",
    "type": "school",
    "name": "Newcastle High School for Girls GDST",
    "address": "Tankerville Terrace",
    "postcode": "NE2 3BA",
    "lat": 54.987545,
    "lng": -1.607999
  },
  {
    "id": "school-108540",
    "type": "school",
    "name": "Newcastle Preparatory School",
    "address": "6 Eslington Road, Newcastle-upon-Tyne",
    "postcode": "NE2 4RH",
    "lat": 54.983293,
    "lng": -1.604899
  },
  {
    "id": "school-108542",
    "type": "school",
    "name": "Westfield School",
    "address": "Oakfield Road, Newcastle-upon-Tyne",
    "postcode": "NE3 4HS",
    "lat": 54.999352,
    "lng": -1.627317
  },
  {
    "id": "school-108544",
    "type": "school",
    "name": "Newcastle School for Boys",
    "address": "30 West Avenue, Newcastle-upon-Tyne",
    "postcode": "NE3 4ES",
    "lat": 55.004352,
    "lng": -1.622486
  },
  {
    "id": "school-108547",
    "type": "school",
    "name": "Dame Allan's Schools",
    "address": "Fowberry Crescent, Newcastle-upon-Tyne",
    "postcode": "NE4 9YJ",
    "lat": 54.982103,
    "lng": -1.650855
  },
  {
    "id": "school-108549",
    "type": "school",
    "name": "Royal Grammar School",
    "address": "Eskdale Terrace, Newcastle-upon-Tyne",
    "postcode": "NE2 4DX",
    "lat": 54.982729,
    "lng": -1.605827
  },
  {
    "id": "school-108551",
    "type": "school",
    "name": "Northern Counties School",
    "address": "Tankerville Terrace, Newcastle-upon-Tyne",
    "postcode": "NE2 3BB",
    "lat": 54.988934,
    "lng": -1.609658
  },
  {
    "id": "school-108563",
    "type": "school",
    "name": "Sir James Knott Memorial Nursery School",
    "address": "Percy Square, North Shields",
    "postcode": "NE30 4AG",
    "lat": 55.013794,
    "lng": -1.429966
  },
  {
    "id": "school-108565",
    "type": "school",
    "name": "Moorbridge",
    "address": "Earsdon Road, Newcastle-upon-Tyne",
    "postcode": "NE27 0HJ",
    "lat": 55.038382,
    "lng": -1.505673
  },
  {
    "id": "school-108569",
    "type": "school",
    "name": "Cullercoats Primary School",
    "address": "Marden Avenue, North Shields",
    "postcode": "NE30 4PB",
    "lat": 55.033012,
    "lng": -1.432651
  },
  {
    "id": "school-108571",
    "type": "school",
    "name": "Waterville Primary School",
    "address": "Waterville Road, North Shields",
    "postcode": "NE29 6SL",
    "lat": 55.003574,
    "lng": -1.453174
  },
  {
    "id": "school-108572",
    "type": "school",
    "name": "Percy Main Primary School",
    "address": "Nelson Terrace, North Shields",
    "postcode": "NE29 6JA",
    "lat": 54.996202,
    "lng": -1.473018
  },
  {
    "id": "school-108573",
    "type": "school",
    "name": "King Edward Primary School",
    "address": "Preston Avenue, North Tyneside",
    "postcode": "NE30 2BD",
    "lat": 55.016513,
    "lng": -1.442753
  },
  {
    "id": "school-108575",
    "type": "school",
    "name": "Riverside Primary School",
    "address": "Minton Lane, North Shields",
    "postcode": "NE29 6DQ",
    "lat": 55.001608,
    "lng": -1.459814
  },
  {
    "id": "school-108576",
    "type": "school",
    "name": "Monkhouse Primary School",
    "address": "Wallington Avenue, North Shields",
    "postcode": "NE30 3SH",
    "lat": 55.026461,
    "lng": -1.442412
  },
  {
    "id": "school-108578",
    "type": "school",
    "name": "Preston Grange Primary School",
    "address": "Chiltern Road, North Shields",
    "postcode": "NE29 9QL",
    "lat": 55.026724,
    "lng": -1.4609
  },
  {
    "id": "school-108579",
    "type": "school",
    "name": "Shiremoor Primary School",
    "address": "Stanton Road, Newcastle-upon-Tyne",
    "postcode": "NE27 0PW",
    "lat": 55.032952,
    "lng": -1.507649
  },
  {
    "id": "school-108580",
    "type": "school",
    "name": "Backworth Park Primary School",
    "address": "Hotspur North, Newcastle-upon-Tyne",
    "postcode": "NE27 0FZ",
    "lat": 55.042726,
    "lng": -1.529205
  },
  {
    "id": "school-108581",
    "type": "school",
    "name": "Holystone Primary School",
    "address": "Whitley Road, Newcastle-upon-Tyne",
    "postcode": "NE27 0DA",
    "lat": 55.028358,
    "lng": -1.5254
  },
  {
    "id": "school-108582",
    "type": "school",
    "name": "Westmoor Primary School",
    "address": "Southgate, Newcastle-upon-Tyne",
    "postcode": "NE12 6SA",
    "lat": 55.028852,
    "lng": -1.571079
  },
  {
    "id": "school-108583",
    "type": "school",
    "name": "Rockcliffe First School",
    "address": "Grafton Road, Whitley Bay",
    "postcode": "NE26 2NR",
    "lat": 55.040291,
    "lng": -1.432407
  },
  {
    "id": "school-108584",
    "type": "school",
    "name": "Appletree Gardens First School",
    "address": "Appletree Gardens, Whitley Bay",
    "postcode": "NE25 8XS",
    "lat": 55.036994,
    "lng": -1.462374
  },
  {
    "id": "school-108585",
    "type": "school",
    "name": "Southridge First School",
    "address": "Cranleigh Place, Whitley Bay",
    "postcode": "NE25 9UD",
    "lat": 55.049481,
    "lng": -1.469423
  },
  {
    "id": "school-108586",
    "type": "school",
    "name": "Amberley Primary School",
    "address": "East Bailey, Newcastle-upon-Tyne",
    "postcode": "NE12 6SQ",
    "lat": 55.037968,
    "lng": -1.561874
  },
  {
    "id": "school-108587",
    "type": "school",
    "name": "Bailey Green Primary School",
    "address": "West Bailey, Killingworth",
    "postcode": "NE12 6QL",
    "lat": 55.038738,
    "lng": -1.571318
  },
  {
    "id": "school-108588",
    "type": "school",
    "name": "South Wellfield First School",
    "address": "Otterburn Avenue, Whitley Bay",
    "postcode": "NE25 9QL",
    "lat": 55.041224,
    "lng": -1.488954
  },
  {
    "id": "school-108589",
    "type": "school",
    "name": "Marine Park First School",
    "address": "Park Road, Whitley Bay",
    "postcode": "NE26 1LT",
    "lat": 55.046882,
    "lng": -1.446902
  },
  {
    "id": "school-108590",
    "type": "school",
    "name": "Coquet Park First School",
    "address": "The Links, Whitley Bay",
    "postcode": "NE26 1TQ",
    "lat": 55.051972,
    "lng": -1.453407
  },
  {
    "id": "school-108591",
    "type": "school",
    "name": "Langley First School",
    "address": "Drumoyne Gardens, Whitley Bay",
    "postcode": "NE25 9DL",
    "lat": 55.035813,
    "lng": -1.471795
  },
  {
    "id": "school-108594",
    "type": "school",
    "name": "Wallsend Jubilee Primary School",
    "address": "Mullen Road, Wallsend",
    "postcode": "NE28 9HA",
    "lat": 55.005222,
    "lng": -1.541075
  },
  {
    "id": "school-108596",
    "type": "school",
    "name": "Richardson Dees Primary School",
    "address": "High Street East, Wallsend",
    "postcode": "NE28 7RT",
    "lat": 54.992507,
    "lng": -1.522791
  },
  {
    "id": "school-108599",
    "type": "school",
    "name": "Redesdale Primary School",
    "address": "Wiltshire Drive, Wallsend",
    "postcode": "NE28 8TS",
    "lat": 55.004655,
    "lng": -1.547883
  },
  {
    "id": "school-108600",
    "type": "school",
    "name": "Whitley Lodge First School",
    "address": "Woodburn Drive, Whitley Bay",
    "postcode": "NE26 3HW",
    "lat": 55.05559,
    "lng": -1.462814
  },
  {
    "id": "school-108602",
    "type": "school",
    "name": "Collingwood Primary School",
    "address": "Oswin Terrace, North Shields",
    "postcode": "NE29 7JQ",
    "lat": 55.0087,
    "lng": -1.468085
  },
  {
    "id": "school-108604",
    "type": "school",
    "name": "Benton Dene Primary School",
    "address": "Hailsham Avenue, Newcastle-upon-Tyne",
    "postcode": "NE12 8FD",
    "lat": 55.018476,
    "lng": -1.572566
  },
  {
    "id": "school-108605",
    "type": "school",
    "name": "Forest Hall Primary School",
    "address": "Delaval Road, Newcastle-upon-Tyne",
    "postcode": "NE12 9BA",
    "lat": 55.024995,
    "lng": -1.56322
  },
  {
    "id": "school-108606",
    "type": "school",
    "name": "Ivy Road Primary School",
    "address": "Ivy Road Primary School, Newcastle upon Tyne",
    "postcode": "NE12 9AP",
    "lat": 55.022782,
    "lng": -1.555157
  },
  {
    "id": "school-108607",
    "type": "school",
    "name": "New York Primary School",
    "address": "Lanark Close, North Shields",
    "postcode": "NE29 8DP",
    "lat": 55.021723,
    "lng": -1.482742
  },
  {
    "id": "school-108609",
    "type": "school",
    "name": "Greenfields Community Primary School",
    "address": "Taylor Avenue, Newcastle-upon-Tyne",
    "postcode": "NE13 6NB",
    "lat": 55.049419,
    "lng": -1.618431
  },
  {
    "id": "school-108610",
    "type": "school",
    "name": "Hazlewood Community Primary School",
    "address": "Canterbury Way, Newcastle-upon-Tyne",
    "postcode": "NE13 6JJ",
    "lat": 55.045144,
    "lng": -1.628066
  },
  {
    "id": "school-108611",
    "type": "school",
    "name": "Fordley Primary School",
    "address": "Dudley Drive, Cramlington",
    "postcode": "NE23 7AL",
    "lat": 55.056955,
    "lng": -1.586905
  },
  {
    "id": "school-108612",
    "type": "school",
    "name": "Burradon Community Primary School",
    "address": "Burradon Road, Cramlington",
    "postcode": "NE23 7NG",
    "lat": 55.045137,
    "lng": -1.576274
  },
  {
    "id": "school-108614",
    "type": "school",
    "name": "Christ Church CofE Primary School",
    "address": "Kielder Terrace, North Shields",
    "postcode": "NE30 2AD",
    "lat": 55.011797,
    "lng": -1.445086
  },
  {
    "id": "school-108615",
    "type": "school",
    "name": "St Bartholomew's Church of England Primary School (Aided)",
    "address": "Goathland Avenue, Newcastle-upon-Tyne",
    "postcode": "NE12 8FA",
    "lat": 55.013337,
    "lng": -1.572903
  },
  {
    "id": "school-108627",
    "type": "school",
    "name": "Marden High School",
    "address": "Hartington Road, North Shields",
    "postcode": "NE30 3RZ",
    "lat": 55.027177,
    "lng": -1.439805
  },
  {
    "id": "school-108628",
    "type": "school",
    "name": "Norham High School",
    "address": "Alnwick Avenue, North Shields",
    "postcode": "NE29 7BU",
    "lat": 55.005856,
    "lng": -1.471297
  },
  {
    "id": "school-108635",
    "type": "school",
    "name": "Marden Bridge Middle School",
    "address": "Lovaine Avenue, Whitley Bay",
    "postcode": "NE25 8RW",
    "lat": 55.038712,
    "lng": -1.448642
  },
  {
    "id": "school-108636",
    "type": "school",
    "name": "Valley Gardens Middle School",
    "address": "Valley Gardens, Whitley Bay",
    "postcode": "NE25 9AQ",
    "lat": 55.046878,
    "lng": -1.468049
  },
  {
    "id": "school-108637",
    "type": "school",
    "name": "Monkseaton Middle School",
    "address": "Vernon Drive, Whitley Bay",
    "postcode": "NE25 8JW",
    "lat": 55.038715,
    "lng": -1.461318
  },
  {
    "id": "school-108638",
    "type": "school",
    "name": "Whitley Bay High School",
    "address": "Deneholm, Whitley Bay",
    "postcode": "NE25 9AS",
    "lat": 55.048048,
    "lng": -1.464323
  },
  {
    "id": "school-108639",
    "type": "school",
    "name": "George Stephenson High School",
    "address": "Southgate, Newcastle-upon-Tyne",
    "postcode": "NE12 6SA",
    "lat": 55.03311,
    "lng": -1.565573
  },
  {
    "id": "school-108640",
    "type": "school",
    "name": "Burnside College",
    "address": "St Peter's Road, Wallsend",
    "postcode": "NE28 7LQ",
    "lat": 54.994709,
    "lng": -1.518403
  },
  {
    "id": "school-108642",
    "type": "school",
    "name": "Monkseaton High School",
    "address": "Seatonville Road, Whitley Bay",
    "postcode": "NE25 9EQ",
    "lat": 55.031351,
    "lng": -1.46259
  },
  {
    "id": "school-108645",
    "type": "school",
    "name": "Longbenton High School",
    "address": "Hailsham Avenue, Newcastle-upon-Tyne",
    "postcode": "NE12 8ER",
    "lat": 55.018476,
    "lng": -1.572566
  },
  {
    "id": "school-108649",
    "type": "school",
    "name": "Wellfield Middle School",
    "address": "Kielder Road, Whitley Bay",
    "postcode": "NE25 9QW",
    "lat": 55.041423,
    "lng": -1.489187
  },
  {
    "id": "school-108652",
    "type": "school",
    "name": "Woodlawn School",
    "address": "Drumoyne Gardens, Whitley Bay",
    "postcode": "NE25 9DL",
    "lat": 55.035622,
    "lng": -1.471296
  },
  {
    "id": "school-108653",
    "type": "school",
    "name": "Southlands School",
    "address": "Beach Road, North Shields",
    "postcode": "NE30 2QR",
    "lat": 55.023059,
    "lng": -1.445368
  },
  {
    "id": "school-108655",
    "type": "school",
    "name": "Benton Dene School",
    "address": "Hailsham Avenue, Newcastle upon Tyne",
    "postcode": "NE12 8FD",
    "lat": 55.01965,
    "lng": -1.571412
  },
  {
    "id": "school-108657",
    "type": "school",
    "name": "Percy Hedley School",
    "address": "West Lane, Newcastle-upon-Tyne",
    "postcode": "NE12 7BH",
    "lat": 55.029603,
    "lng": -1.565016
  },
  {
    "id": "school-108661",
    "type": "school",
    "name": "Clervaux Nursery School",
    "address": "Clervaux Terrace, Jarrow",
    "postcode": "NE32 5UP",
    "lat": 54.97631,
    "lng": -1.482748
  },
  {
    "id": "school-108663",
    "type": "school",
    "name": "Helen Gibson Nursery School",
    "address": "North Lane, East Boldon",
    "postcode": "NE36 0DL",
    "lat": 54.946562,
    "lng": -1.430496
  },
  {
    "id": "school-108665",
    "type": "school",
    "name": "Boldon Nursery School",
    "address": "Reginald Street, Boldon Colliery",
    "postcode": "NE35 9DG",
    "lat": 54.948108,
    "lng": -1.456175
  },
  {
    "id": "school-108666",
    "type": "school",
    "name": "Alternative Education Service - The Beacon Centre",
    "address": "Temple Park Road, South Shields",
    "postcode": "NE34 0QA",
    "lat": 54.977395,
    "lng": -1.430029
  },
  {
    "id": "school-108668",
    "type": "school",
    "name": "Hadrian Primary School",
    "address": "Baring Street, South Shields",
    "postcode": "NE33 2BB",
    "lat": 55.003662,
    "lng": -1.431157
  },
  {
    "id": "school-108672",
    "type": "school",
    "name": "Laygate Community School",
    "address": "Laygate Lane, South Shields",
    "postcode": "NE33 4JJ",
    "lat": 54.98761,
    "lng": -1.431072
  },
  {
    "id": "school-108673",
    "type": "school",
    "name": "Mortimer Primary School",
    "address": "Mortimer Road, South Shields",
    "postcode": "NE34 0RW",
    "lat": 54.980562,
    "lng": -1.423123
  },
  {
    "id": "school-108676",
    "type": "school",
    "name": "Stanhope Primary School",
    "address": "Gresford Street, South Shields",
    "postcode": "NE33 4SZ",
    "lat": 54.978402,
    "lng": -1.43578
  },
  {
    "id": "school-108678",
    "type": "school",
    "name": "Biddick Hall Junior School",
    "address": "Chesterton Road, South Shields",
    "postcode": "NE34 9SP",
    "lat": 54.965198,
    "lng": -1.443213
  },
  {
    "id": "school-108682",
    "type": "school",
    "name": "Biddick Hall Infants' School",
    "address": "Galsworthy Road, South Shields",
    "postcode": "NE34 9JD",
    "lat": 54.961179,
    "lng": -1.44683
  },
  {
    "id": "school-108686",
    "type": "school",
    "name": "Hedworth Lane Primary School",
    "address": "Hedworth Lane, Boldon Colliery",
    "postcode": "NE35 9JB",
    "lat": 54.952015,
    "lng": -1.469786
  },
  {
    "id": "school-108687",
    "type": "school",
    "name": "Marsden Primary School",
    "address": "Mill Lane, Sunderland",
    "postcode": "SR6 7HJ",
    "lat": 54.961348,
    "lng": -1.365482
  },
  {
    "id": "school-108688",
    "type": "school",
    "name": "East Boldon Infants' School",
    "address": "Front Street, East Boldon",
    "postcode": "NE36 0SW",
    "lat": 54.944329,
    "lng": -1.429622
  },
  {
    "id": "school-108692",
    "type": "school",
    "name": "East Boldon Junior School",
    "address": "North Lane, Tyne & Wear",
    "postcode": "NE36 0DL",
    "lat": 54.945635,
    "lng": -1.430259
  },
  {
    "id": "school-108693",
    "type": "school",
    "name": "Bede Burn Primary School",
    "address": "Dene Terrace, Jarrow",
    "postcode": "NE32 5NJ",
    "lat": 54.966576,
    "lng": -1.495495
  },
  {
    "id": "school-108694",
    "type": "school",
    "name": "Valley View Primary School",
    "address": "Valley View, Jarrow",
    "postcode": "NE32 5QY",
    "lat": 54.966174,
    "lng": -1.487549
  },
  {
    "id": "school-108698",
    "type": "school",
    "name": "Simonside Primary School",
    "address": "Glasgow Road, Jarrow",
    "postcode": "NE32 4AU",
    "lat": 54.965267,
    "lng": -1.468878
  },
  {
    "id": "school-108699",
    "type": "school",
    "name": "Hedworthfield Primary School",
    "address": "Linkway, Jarrow",
    "postcode": "NE32 4QF",
    "lat": 54.953893,
    "lng": -1.476008
  },
  {
    "id": "school-108700",
    "type": "school",
    "name": "Lord Blyton Primary School",
    "address": "Blyton Avenue, South Shields",
    "postcode": "NE34 9BN",
    "lat": 54.970148,
    "lng": -1.454722
  },
  {
    "id": "school-108701",
    "type": "school",
    "name": "West Boldon Primary School",
    "address": "Hindmarch Drive, Boldon",
    "postcode": "NE36 0HX",
    "lat": 54.946663,
    "lng": -1.446608
  },
  {
    "id": "school-108704",
    "type": "school",
    "name": "Toner Avenue Primary School",
    "address": "Johnston Avenue, Hebburn",
    "postcode": "NE31 2LJ",
    "lat": 54.96275,
    "lng": -1.518332
  },
  {
    "id": "school-108711",
    "type": "school",
    "name": "St Oswald's CofE Aided Primary School",
    "address": "St Oswald's Road, Hebburn",
    "postcode": "NE31 1HT",
    "lat": 54.980278,
    "lng": -1.501027
  },
  {
    "id": "school-108727",
    "type": "school",
    "name": "Mortimer Community College",
    "address": "Reading Road, South Shields",
    "postcode": "NE33 4UG",
    "lat": 54.981127,
    "lng": -1.424662
  },
  {
    "id": "school-108730",
    "type": "school",
    "name": "Boldon School",
    "address": "New Road, Boldon Colliery",
    "postcode": "NE35 9DZ",
    "lat": 54.950341,
    "lng": -1.445012
  },
  {
    "id": "school-108731",
    "type": "school",
    "name": "Hebburn Comprehensive School",
    "address": "Campbell Park Road, Hebburn",
    "postcode": "NE31 2QU",
    "lat": 54.96743,
    "lng": -1.510872
  },
  {
    "id": "school-108738",
    "type": "school",
    "name": "Bamburgh School",
    "address": "Norham Avenue, South Shields",
    "postcode": "NE34 7TD",
    "lat": 54.98487,
    "lng": -1.399634
  },
  {
    "id": "school-108741",
    "type": "school",
    "name": "Epinay Business and Enterprise School",
    "address": "Nevinson Avenue, South Shields",
    "postcode": "NE34 8BT",
    "lat": 54.961901,
    "lng": -1.414816
  },
  {
    "id": "school-108746",
    "type": "school",
    "name": "Houghton Le Spring Nursery School",
    "address": "Neasham Place, Houghton le Spring",
    "postcode": "DH5 8AE",
    "lat": 54.842402,
    "lng": -1.463391
  },
  {
    "id": "school-108748",
    "type": "school",
    "name": "Hylton Red House Nursery School",
    "address": "Rotherham Road, Sunderland",
    "postcode": "SR5 5QL",
    "lat": 54.922564,
    "lng": -1.428307
  },
  {
    "id": "school-108749",
    "type": "school",
    "name": "Usworth Colliery Nursery School",
    "address": "Manor Road, Washington",
    "postcode": "NE37 3BL",
    "lat": 54.91587,
    "lng": -1.513354
  },
  {
    "id": "school-108750",
    "type": "school",
    "name": "Hetton Lyons Nursery School",
    "address": "Four Lane Ends, Houghton Le Spring",
    "postcode": "DH5 0AH",
    "lat": 54.814815,
    "lng": -1.450373
  },
  {
    "id": "school-108751",
    "type": "school",
    "name": "Oxclose Nursery School",
    "address": "Brancepeth Road, Washington",
    "postcode": "NE38 0LA",
    "lat": 54.897486,
    "lng": -1.542332
  },
  {
    "id": "school-108752",
    "type": "school",
    "name": "Mill Hill Nursery School",
    "address": "Torphin Hill Drive, Sunderland",
    "postcode": "SR3 2PJ",
    "lat": 54.865494,
    "lng": -1.404105
  },
  {
    "id": "school-108753",
    "type": "school",
    "name": "Pennywell Early Years Centre",
    "address": "Portsmouth Road, Sunderland",
    "postcode": "SR4 9AX",
    "lat": 54.898541,
    "lng": -1.442059
  },
  {
    "id": "school-108755",
    "type": "school",
    "name": "Barnes Junior School",
    "address": "Mount Road, Sunderland",
    "postcode": "SR4 7QF",
    "lat": 54.896669,
    "lng": -1.409119
  },
  {
    "id": "school-108757",
    "type": "school",
    "name": "Broadway Junior School",
    "address": "Springwell Road, Sunderland",
    "postcode": "SR4 8NW",
    "lat": 54.894256,
    "lng": -1.426946
  },
  {
    "id": "school-108758",
    "type": "school",
    "name": "Grangetown Primary School",
    "address": "Spelter Works Road, Sunderland",
    "postcode": "SR2 8PX",
    "lat": 54.888765,
    "lng": -1.363785
  },
  {
    "id": "school-108763",
    "type": "school",
    "name": "Fulwell Junior School",
    "address": "Sea Road, Sunderland",
    "postcode": "SR6 9EE",
    "lat": 54.93105,
    "lng": -1.373966
  },
  {
    "id": "school-108765",
    "type": "school",
    "name": "Grange Park Primary School",
    "address": "Swan Street, Sunderland",
    "postcode": "SR5 1EA",
    "lat": 54.919696,
    "lng": -1.38753
  },
  {
    "id": "school-108766",
    "type": "school",
    "name": "Grindon Infant School",
    "address": "Gleneagles Road, Sunderland",
    "postcode": "SR4 9QN",
    "lat": 54.887963,
    "lng": -1.446056
  },
  {
    "id": "school-108769",
    "type": "school",
    "name": "Southwick Community Primary School",
    "address": "Shakespeare Street, Southwick",
    "postcode": "SR5 2JX",
    "lat": 54.923057,
    "lng": -1.398308
  },
  {
    "id": "school-108772",
    "type": "school",
    "name": "Hudson Road Primary School",
    "address": "Villiers Street South, Sunderland",
    "postcode": "SR1 2AH",
    "lat": 54.903397,
    "lng": -1.372461
  },
  {
    "id": "school-108783",
    "type": "school",
    "name": "Willow Wood Community Primary School",
    "address": "Redcar Road, Sunderland",
    "postcode": "SR5 5AU",
    "lat": 54.924914,
    "lng": -1.415914
  },
  {
    "id": "school-108784",
    "type": "school",
    "name": "Mill Hill Primary School",
    "address": "Torphin Hill Drive, Sunderland",
    "postcode": "SR3 2PJ",
    "lat": 54.865917,
    "lng": -1.404348
  },
  {
    "id": "school-108786",
    "type": "school",
    "name": "Seaburn Dene Primary School",
    "address": "Torver Crescent, Sunderland",
    "postcode": "SR6 8LG",
    "lat": 54.935647,
    "lng": -1.383572
  },
  {
    "id": "school-108787",
    "type": "school",
    "name": "Ryhope Junior School",
    "address": "Shaftesbury Avenue, Sunderland",
    "postcode": "SR2 0RT",
    "lat": 54.871872,
    "lng": -1.369646
  },
  {
    "id": "school-108792",
    "type": "school",
    "name": "Castletown Primary School",
    "address": "Grange Road, Sunderland",
    "postcode": "SR5 3EQ",
    "lat": 54.914705,
    "lng": -1.442943
  },
  {
    "id": "school-108794",
    "type": "school",
    "name": "East Rainton Primary School",
    "address": "School Road, Houghton le Spring",
    "postcode": "DH5 9RA",
    "lat": 54.823431,
    "lng": -1.480221
  },
  {
    "id": "school-108795",
    "type": "school",
    "name": "Easington Lane Primary School",
    "address": "High Street, Houghton le Spring",
    "postcode": "DH5 0JT",
    "lat": 54.807178,
    "lng": -1.431431
  },
  {
    "id": "school-108799",
    "type": "school",
    "name": "Usworth Colliery Primary School",
    "address": "Manor Road, Washington",
    "postcode": "NE37 3BL",
    "lat": 54.91587,
    "lng": -1.513354
  },
  {
    "id": "school-108803",
    "type": "school",
    "name": "Hetton Primary School",
    "address": "Moorsley Road, Houghton le Spring",
    "postcode": "DH5 9ND",
    "lat": 54.817172,
    "lng": -1.456955
  },
  {
    "id": "school-108816",
    "type": "school",
    "name": "Biddick Primary School",
    "address": "Kirkham, Washington",
    "postcode": "NE38 7HQ",
    "lat": 54.895825,
    "lng": -1.521704
  },
  {
    "id": "school-108817",
    "type": "school",
    "name": "Lambton Primary School",
    "address": "Caradoc Close, Washington",
    "postcode": "NE38 0PL",
    "lat": 54.890984,
    "lng": -1.538913
  },
  {
    "id": "school-108818",
    "type": "school",
    "name": "Rickleton Primary School",
    "address": "Vigo Lane, Washington",
    "postcode": "NE38 9EZ",
    "lat": 54.877886,
    "lng": -1.54988
  },
  {
    "id": "school-108819",
    "type": "school",
    "name": "Richard Avenue Primary School",
    "address": "Hurstwood Road, Sunderland",
    "postcode": "SR4 7LQ",
    "lat": 54.894746,
    "lng": -1.400087
  },
  {
    "id": "school-108822",
    "type": "school",
    "name": "Marlborough Primary School",
    "address": "Marlborough Road, Washington",
    "postcode": "NE37 3BG",
    "lat": 54.915835,
    "lng": -1.504742
  },
  {
    "id": "school-108826",
    "type": "school",
    "name": "Shiney Row Primary School",
    "address": "Rear South View, Houghton le Spring",
    "postcode": "DH4 4QP",
    "lat": 54.866336,
    "lng": -1.490405
  },
  {
    "id": "school-108828",
    "type": "school",
    "name": "Thorney Close Primary School",
    "address": "Torquay Road, Sunderland",
    "postcode": "SR3 4BB",
    "lat": 54.883231,
    "lng": -1.425622
  },
  {
    "id": "school-108830",
    "type": "school",
    "name": "Bernard Gilpin Primary School",
    "address": "Hall Lane, Houghton le Spring",
    "postcode": "DH5 8DA",
    "lat": 54.840199,
    "lng": -1.465133
  },
  {
    "id": "school-108832",
    "type": "school",
    "name": "Hylton Castle Primary School",
    "address": "Caithness Road, Sunderland",
    "postcode": "SR5 3RE",
    "lat": 54.923698,
    "lng": -1.45418
  },
  {
    "id": "school-108833",
    "type": "school",
    "name": "Blackfell Primary School",
    "address": "Knoulberry, Washington",
    "postcode": "NE37 1HA",
    "lat": 54.903433,
    "lng": -1.546273
  },
  {
    "id": "school-108835",
    "type": "school",
    "name": "Barmston Village Primary School",
    "address": "Barmston Centre, Washington",
    "postcode": "NE38 8JA",
    "lat": 54.901058,
    "lng": -1.506499
  },
  {
    "id": "school-108836",
    "type": "school",
    "name": "St Paul's CofE Primary School",
    "address": "Waterworks Road, Sunderland",
    "postcode": "SR2 0LW",
    "lat": 54.866171,
    "lng": -1.36746
  },
  {
    "id": "school-108837",
    "type": "school",
    "name": "St Benet's Roman Catholic Voluntary Aided Primary School",
    "address": "Fulwell Road, Sunderland",
    "postcode": "SR6 9QU",
    "lat": 54.923501,
    "lng": -1.377547
  },
  {
    "id": "school-108843",
    "type": "school",
    "name": "St Anne's Roman Catholic Voluntary Aided Primary School",
    "address": "Hylton Road, Sunderland",
    "postcode": "SR4 9AA",
    "lat": 54.900475,
    "lng": -1.440442
  },
  {
    "id": "school-108873",
    "type": "school",
    "name": "Argyle House School",
    "address": "19-20 Thornhill Park, Sunderland",
    "postcode": "SR2 7LA",
    "lat": 54.898466,
    "lng": -1.389068
  },
  {
    "id": "school-108877",
    "type": "school",
    "name": "Thornhill Park School",
    "address": "Portland Road, Sunderland",
    "postcode": "SR3 1SS",
    "lat": 54.888864,
    "lng": -1.410231
  },
  {
    "id": "school-108882",
    "type": "school",
    "name": "Sunningdale School",
    "address": "Doxford Park Way, Sunderland",
    "postcode": "SR3 2PP",
    "lat": 54.887816,
    "lng": -1.42208
  },
  {
    "id": "school-111524",
    "type": "school",
    "name": "Billingham South Community Primary School",
    "address": "Belasis Avenue, Billingham",
    "postcode": "TS23 1BE",
    "lat": 54.59665,
    "lng": -1.284448
  },
  {
    "id": "school-111533",
    "type": "school",
    "name": "Lockwood Primary School",
    "address": "Lockwood Primary School, Saltburn-by-the-Sea",
    "postcode": "TS12 3BL",
    "lat": 54.541796,
    "lng": -0.982131
  },
  {
    "id": "school-111539",
    "type": "school",
    "name": "Mill Lane Primary School",
    "address": "Wellington Street, Stockton-on-Tees",
    "postcode": "TS18 1QX",
    "lat": 54.565806,
    "lng": -1.31614
  },
  {
    "id": "school-111540",
    "type": "school",
    "name": "Bowesfield Primary School",
    "address": "Northcote Street, Stockton-on-Tees",
    "postcode": "TS18 3JB",
    "lat": 54.557804,
    "lng": -1.318857
  },
  {
    "id": "school-111550",
    "type": "school",
    "name": "The Glebe Primary School",
    "address": "Pulford Road, Stockton-on-Tees",
    "postcode": "TS20 1QY",
    "lat": 54.587652,
    "lng": -1.325014
  },
  {
    "id": "school-111562",
    "type": "school",
    "name": "Durham Lane Primary School",
    "address": "Amberley Way, Stockton-on-Tees",
    "postcode": "TS16 0NG",
    "lat": 54.521043,
    "lng": -1.360028
  },
  {
    "id": "school-111577",
    "type": "school",
    "name": "Beech Grove Primary School",
    "address": "Beechwood Avenue, Middlesbrough",
    "postcode": "TS4 3AP",
    "lat": 54.554274,
    "lng": -1.223629
  },
  {
    "id": "school-111580",
    "type": "school",
    "name": "Newport Primary School",
    "address": "St Paul's Road, Middlesbrough",
    "postcode": "TS1 5NQ",
    "lat": 54.571391,
    "lng": -1.245565
  },
  {
    "id": "school-111600",
    "type": "school",
    "name": "Fens Primary School",
    "address": "Mowbray Road, Hartlepool",
    "postcode": "TS25 2LY",
    "lat": 54.652953,
    "lng": -1.231933
  },
  {
    "id": "school-111601",
    "type": "school",
    "name": "Kingsley Primary School",
    "address": "Taybrooke Avenue, Hartlepool",
    "postcode": "TS25 5JR",
    "lat": 54.671539,
    "lng": -1.230311
  },
  {
    "id": "school-111612",
    "type": "school",
    "name": "Throston Primary School",
    "address": "Flint Walk, Hartlepool",
    "postcode": "TS26 0TJ",
    "lat": 54.696946,
    "lng": -1.237108
  },
  {
    "id": "school-111618",
    "type": "school",
    "name": "Hummersea Primary School",
    "address": "Westfield Way, Saltburn-by-the-Sea",
    "postcode": "TS13 4XD",
    "lat": 54.558268,
    "lng": -0.888803
  },
  {
    "id": "school-111626",
    "type": "school",
    "name": "Berwick Hills Primary School",
    "address": "Westerdale Road, Middlesbrough",
    "postcode": "TS3 7QH",
    "lat": 54.56071,
    "lng": -1.208442
  },
  {
    "id": "school-111632",
    "type": "school",
    "name": "Park End Primary School",
    "address": "Overdale Road, Middlesbrough",
    "postcode": "TS3 0AA",
    "lat": 54.549873,
    "lng": -1.195339
  },
  {
    "id": "school-111638",
    "type": "school",
    "name": "Newcomen Primary School",
    "address": "Trent Road, Redcar",
    "postcode": "TS10 1NL",
    "lat": 54.60708,
    "lng": -1.077711
  },
  {
    "id": "school-111640",
    "type": "school",
    "name": "Rift House Primary School",
    "address": "Masefield Road, Hartlepool",
    "postcode": "TS25 4JY",
    "lat": 54.672338,
    "lng": -1.237243
  },
  {
    "id": "school-111662",
    "type": "school",
    "name": "Belmont Primary School",
    "address": "Lauderdale Drive, Guisborough",
    "postcode": "TS14 7BS",
    "lat": 54.527507,
    "lng": -1.04866
  },
  {
    "id": "school-111668",
    "type": "school",
    "name": "St John the Baptist Church of England Voluntary Controlled Primary School",
    "address": "St John's Way, Stockton-on-Tees",
    "postcode": "TS19 0FB",
    "lat": 54.579743,
    "lng": -1.325021
  },
  {
    "id": "school-111720",
    "type": "school",
    "name": "William Cassidi Church of England Aided Primary School",
    "address": "Morrison Street, Stockton-on-Tees",
    "postcode": "TS21 1JD",
    "lat": 54.606453,
    "lng": -1.414258
  },
  {
    "id": "school-111731",
    "type": "school",
    "name": "Northfield School and Sports College",
    "address": "Thames Road, Billingham",
    "postcode": "TS22 5EG",
    "lat": 54.617043,
    "lng": -1.308978
  },
  {
    "id": "school-111748",
    "type": "school",
    "name": "High Tunstall College of Science",
    "address": "Elwick Road, Hartlepool",
    "postcode": "TS26 0LQ",
    "lat": 54.687898,
    "lng": -1.246229
  },
  {
    "id": "school-111767",
    "type": "school",
    "name": "Red House School",
    "address": "36 The Green, Stockton-on-Tees",
    "postcode": "TS20 1DX",
    "lat": 54.593069,
    "lng": -1.311644
  },
  {
    "id": "school-111768",
    "type": "school",
    "name": "Teesside High School",
    "address": "The Avenue",
    "postcode": "TS16 9AT",
    "lat": 54.527974,
    "lng": -1.341731
  },
  {
    "id": "school-111769",
    "type": "school",
    "name": "Yarm School",
    "address": "The Friarage, Yarm",
    "postcode": "TS15 9EJ",
    "lat": 54.506557,
    "lng": -1.350431
  },
  {
    "id": "school-111771",
    "type": "school",
    "name": "Yarm Preparatory School",
    "address": "Grammar School Lane, Yarm",
    "postcode": "TS15 9ES",
    "lat": 54.503149,
    "lng": -1.351767
  },
  {
    "id": "school-111773",
    "type": "school",
    "name": "Beverley School",
    "address": "Saltersgill Avenue, Middlesbrough",
    "postcode": "TS4 3JS",
    "lat": 54.547861,
    "lng": -1.232811
  },
  {
    "id": "school-111775",
    "type": "school",
    "name": "Holmwood School",
    "address": "Saltersgill Avenue, Middlesbrough",
    "postcode": "TS4 3PT",
    "lat": 54.538825,
    "lng": -1.21695
  },
  {
    "id": "school-111777",
    "type": "school",
    "name": "Kirkleatham Hall School",
    "address": "Kirkleatham, Redcar",
    "postcode": "TS10 4QR",
    "lat": 54.588218,
    "lng": -1.078261
  },
  {
    "id": "school-112539",
    "type": "school",
    "name": "Dronfield Junior School",
    "address": "School Lane, Dronfield",
    "postcode": "S18 1RY",
    "lat": 53.299292,
    "lng": -1.469917
  },
  {
    "id": "school-112540",
    "type": "school",
    "name": "Dronfield Infant School",
    "address": "School Lane, Dronfield",
    "postcode": "S18 1RY",
    "lat": 53.299292,
    "lng": -1.469917
  },
  {
    "id": "school-112544",
    "type": "school",
    "name": "Marsh Lane Primary School",
    "address": "School Lane, Sheffield",
    "postcode": "S21 5RS",
    "lat": 53.306983,
    "lng": -1.393561
  },
  {
    "id": "school-113970",
    "type": "school",
    "name": "Oxhill Nursery School",
    "address": "Oxhill, Stanley",
    "postcode": "DH9 7LR",
    "lat": 54.86613,
    "lng": -1.709046
  },
  {
    "id": "school-113971",
    "type": "school",
    "name": "Wingate Community Nursery School",
    "address": "Partridge Terrace, Wingate",
    "postcode": "TS28 5BD",
    "lat": 54.732869,
    "lng": -1.378655
  },
  {
    "id": "school-113972",
    "type": "school",
    "name": "Aclet Close Nursery School",
    "address": "Aclet Close, Bishop Auckland",
    "postcode": "DL14 6PX",
    "lat": 54.645513,
    "lng": -1.681239
  },
  {
    "id": "school-113975",
    "type": "school",
    "name": "Seaham Harbour Nursery School",
    "address": "Bottleworks Road, Seaham",
    "postcode": "SR7 7NN",
    "lat": 54.832198,
    "lng": -1.32737
  },
  {
    "id": "school-113976",
    "type": "school",
    "name": "Etherley Lane Nursery School",
    "address": "Hazel Grove, Bishop Auckland",
    "postcode": "DL14 7RF",
    "lat": 54.65948,
    "lng": -1.681332
  },
  {
    "id": "school-113977",
    "type": "school",
    "name": "Langley Moor Nursery School",
    "address": "Brandon Lane, Durham",
    "postcode": "DH7 8LL",
    "lat": 54.75961,
    "lng": -1.609738
  },
  {
    "id": "school-113982",
    "type": "school",
    "name": "Borough Road Nursery School",
    "address": "Borough Road, Darlington",
    "postcode": "DL1 1SG",
    "lat": 54.52548,
    "lng": -1.54624
  },
  {
    "id": "school-113983",
    "type": "school",
    "name": "George Dent Nursery School",
    "address": "Elms Road, Darlington",
    "postcode": "DL3 7PY",
    "lat": 54.528781,
    "lng": -1.561286
  },
  {
    "id": "school-113985",
    "type": "school",
    "name": "Beechdale Nursery School",
    "address": "Beechdale Road, Consett",
    "postcode": "DH8 6AY",
    "lat": 54.856606,
    "lng": -1.822013
  },
  {
    "id": "school-113986",
    "type": "school",
    "name": "Horden Nursery School",
    "address": "Cotsford Park, Peterlee",
    "postcode": "SR8 4TB",
    "lat": 54.759529,
    "lng": -1.302963
  },
  {
    "id": "school-113989",
    "type": "school",
    "name": "Rosemary Lane Nursery School",
    "address": "Rosemary Lane, Peterlee",
    "postcode": "SR8 3BQ",
    "lat": 54.785118,
    "lng": -1.35347
  },
  {
    "id": "school-113991",
    "type": "school",
    "name": "Tudhoe Moor Nursery School",
    "address": "Tudhoe Moor, Spennymoor",
    "postcode": "DL16 6EX",
    "lat": 54.701998,
    "lng": -1.582636
  },
  {
    "id": "school-113992",
    "type": "school",
    "name": "The Woodlands",
    "address": "Broom Road, Ferryhill",
    "postcode": "DL17 8AN",
    "lat": 54.687286,
    "lng": -1.545321
  },
  {
    "id": "school-113993",
    "type": "school",
    "name": "Ropery Walk Primary School",
    "address": "Ropery Walk, Seaham",
    "postcode": "SR7 7JZ",
    "lat": 54.83384,
    "lng": -1.328526
  },
  {
    "id": "school-113998",
    "type": "school",
    "name": "Westlea Primary School",
    "address": "Winslow Crescent, Seaham",
    "postcode": "SR7 8JU",
    "lat": 54.838722,
    "lng": -1.369011
  },
  {
    "id": "school-114002",
    "type": "school",
    "name": "Lumley Junior School",
    "address": "Cocken Lane, Chester le Street",
    "postcode": "DH3 4JJ",
    "lat": 54.837167,
    "lng": -1.538966
  },
  {
    "id": "school-114003",
    "type": "school",
    "name": "Lumley Infant and Nursery School",
    "address": "Great Lumley, Chester le Street",
    "postcode": "DH3 4JL",
    "lat": 54.839803,
    "lng": -1.541864
  },
  {
    "id": "school-114004",
    "type": "school",
    "name": "West Pelton Primary School",
    "address": "Twizell Lane, Stanley",
    "postcode": "DH9 6SQ",
    "lat": 54.869807,
    "lng": -1.642196
  },
  {
    "id": "school-114005",
    "type": "school",
    "name": "Nettlesworth Primary School",
    "address": "Front Street, Chester le Street",
    "postcode": "DH2 3PF",
    "lat": 54.824108,
    "lng": -1.599512
  },
  {
    "id": "school-114008",
    "type": "school",
    "name": "Red Rose Primary School",
    "address": "York Terrace, Chester le Street",
    "postcode": "DH3 3NA",
    "lat": 54.848173,
    "lng": -1.569696
  },
  {
    "id": "school-114012",
    "type": "school",
    "name": "Cestria Primary School",
    "address": "Church Chare, Chester le Street",
    "postcode": "DH3 3PZ",
    "lat": 54.855025,
    "lng": -1.570558
  },
  {
    "id": "school-114018",
    "type": "school",
    "name": "Bournmoor Primary School",
    "address": "Lambourne Close, Houghton le Spring",
    "postcode": "DH4 6HF",
    "lat": 54.856483,
    "lng": -1.514038
  },
  {
    "id": "school-114020",
    "type": "school",
    "name": "Cotherstone Primary School",
    "address": "Cotherstone, Barnard Castle",
    "postcode": "DL12 9QB",
    "lat": 54.570982,
    "lng": -1.980168
  },
  {
    "id": "school-114033",
    "type": "school",
    "name": "Stanley Burnside Primary School",
    "address": "Mendip Terrace, Stanley",
    "postcode": "DH9 6QP",
    "lat": 54.865615,
    "lng": -1.679287
  },
  {
    "id": "school-114035",
    "type": "school",
    "name": "Burnopfield Primary School",
    "address": "Front Street, Newcastle-upon-Tyne",
    "postcode": "NE16 6PT",
    "lat": 54.906018,
    "lng": -1.733184
  },
  {
    "id": "school-114038",
    "type": "school",
    "name": "Shotley Bridge Primary School",
    "address": "Snows Green Road, Consett",
    "postcode": "DH8 0ES",
    "lat": 54.872412,
    "lng": -1.853332
  },
  {
    "id": "school-114039",
    "type": "school",
    "name": "Leadgate Primary School - Split Site",
    "address": "Alder Grove and West Street, Consett",
    "postcode": "DH8 7RH",
    "lat": 54.857092,
    "lng": -1.804625
  },
  {
    "id": "school-114045",
    "type": "school",
    "name": "Benfieldside Primary School",
    "address": "Moorlands, Consett",
    "postcode": "DH8 0JX",
    "lat": 54.86256,
    "lng": -1.851685
  },
  {
    "id": "school-114046",
    "type": "school",
    "name": "The Grove Primary School",
    "address": "Oakfield Lane, Consett",
    "postcode": "DH8 8AP",
    "lat": 54.847115,
    "lng": -1.855526
  },
  {
    "id": "school-114047",
    "type": "school",
    "name": "Delves Lane Primary School",
    "address": "Delves Lane, Consett",
    "postcode": "DH8 7ES",
    "lat": 54.842635,
    "lng": -1.819069
  },
  {
    "id": "school-114051",
    "type": "school",
    "name": "Consett Junior School",
    "address": "Beechdale Road, Consett",
    "postcode": "DH8 6AY",
    "lat": 54.85675,
    "lng": -1.82234
  },
  {
    "id": "school-114052",
    "type": "school",
    "name": "Consett Infant School",
    "address": "Teasdale Street, Consett",
    "postcode": "DH8 6AF",
    "lat": 54.85417,
    "lng": -1.828068
  },
  {
    "id": "school-114053",
    "type": "school",
    "name": "Hamsterley Primary School",
    "address": "Hamsterley Primary School, Bishop Auckland",
    "postcode": "DL13 3QF",
    "lat": 54.673898,
    "lng": -1.822115
  },
  {
    "id": "school-114055",
    "type": "school",
    "name": "Tow Law Millennium Primary School",
    "address": "Wear Street, Bishop Auckland",
    "postcode": "DL13 4LF",
    "lat": 54.741023,
    "lng": -1.813713
  },
  {
    "id": "school-114056",
    "type": "school",
    "name": "Crook Primary School",
    "address": "Croft Avenue, Crook",
    "postcode": "DL15 8QG",
    "lat": 54.712006,
    "lng": -1.746676
  },
  {
    "id": "school-114059",
    "type": "school",
    "name": "Stanley (Crook) Primary School",
    "address": "Wooley Terrace, Crook",
    "postcode": "DL15 9AN",
    "lat": 54.737512,
    "lng": -1.737555
  },
  {
    "id": "school-114060",
    "type": "school",
    "name": "Sunnybrow Primary School",
    "address": "Hunwick Lane, Crook",
    "postcode": "DL15 0LT",
    "lat": 54.705652,
    "lng": -1.706998
  },
  {
    "id": "school-114062",
    "type": "school",
    "name": "Frosterley Primary School",
    "address": "Bridge End, Bishop Auckland",
    "postcode": "DL13 2SN",
    "lat": 54.723698,
    "lng": -1.965746
  },
  {
    "id": "school-114064",
    "type": "school",
    "name": "St John's Chapel Primary School",
    "address": "Burnfoot, Bishop Auckland",
    "postcode": "DL13 1QH",
    "lat": 54.737475,
    "lng": -2.178924
  },
  {
    "id": "school-114065",
    "type": "school",
    "name": "Wearhead Primary School",
    "address": "Wearhead, Bishop Auckland",
    "postcode": "DL13 1BN",
    "lat": 54.751279,
    "lng": -2.222741
  },
  {
    "id": "school-114066",
    "type": "school",
    "name": "Willington Primary School",
    "address": "Chapel Street, Crook",
    "postcode": "DL15 0EQ",
    "lat": 54.710014,
    "lng": -1.693416
  },
  {
    "id": "school-114068",
    "type": "school",
    "name": "Wolsingham Primary School",
    "address": "Upper Town, Bishop Auckland",
    "postcode": "DL13 3ET",
    "lat": 54.732962,
    "lng": -1.877738
  },
  {
    "id": "school-114069",
    "type": "school",
    "name": "Oakley Cross Primary School and Nursery",
    "address": "Lomond Walk, Bishop Auckland",
    "postcode": "DL14 9UD",
    "lat": 54.629143,
    "lng": -1.719678
  },
  {
    "id": "school-114070",
    "type": "school",
    "name": "Byers Green Primary School",
    "address": "Wear View, Spennymoor",
    "postcode": "DL16 7PN",
    "lat": 54.700628,
    "lng": -1.658864
  },
  {
    "id": "school-114074",
    "type": "school",
    "name": "Kirk Merrington Primary School",
    "address": "South View, Spennymoor",
    "postcode": "DL16 7JB",
    "lat": 54.674,
    "lng": -1.59288
  },
  {
    "id": "school-114075",
    "type": "school",
    "name": "Cassop Primary School",
    "address": "Cassop, Durham",
    "postcode": "DH6 4RA",
    "lat": 54.733393,
    "lng": -1.472101
  },
  {
    "id": "school-114078",
    "type": "school",
    "name": "Ferryhill Station Primary School",
    "address": "Chilton Lane, Ferryhill",
    "postcode": "DL17 0DB",
    "lat": 54.674517,
    "lng": -1.529489
  },
  {
    "id": "school-114079",
    "type": "school",
    "name": "West Cornforth Primary School",
    "address": "High Street, Ferryhill",
    "postcode": "DL17 9HP",
    "lat": 54.702786,
    "lng": -1.516451
  },
  {
    "id": "school-114080",
    "type": "school",
    "name": "Coxhoe Primary School",
    "address": "Cornforth Lane, Durham",
    "postcode": "DH6 4EJ",
    "lat": 54.710617,
    "lng": -1.508146
  },
  {
    "id": "school-114086",
    "type": "school",
    "name": "Dean Bank Primary and Nursery School",
    "address": "Dean Bank, Ferryhill",
    "postcode": "DL17 8PP",
    "lat": 54.687701,
    "lng": -1.557945
  },
  {
    "id": "school-114091",
    "type": "school",
    "name": "Springmoor Grange School",
    "address": "Durham Road, Spennymoor",
    "postcode": "DL16 6SQ",
    "lat": 54.704697,
    "lng": -1.593907
  },
  {
    "id": "school-114096",
    "type": "school",
    "name": "Broom Cottages Primary & Nursery School",
    "address": "Broom Road, Ferryhill",
    "postcode": "DL17 8AN",
    "lat": 54.687286,
    "lng": -1.545321
  },
  {
    "id": "school-114097",
    "type": "school",
    "name": "Etherley Lane Primary School",
    "address": "Clarence Gardens, Bishop Auckland",
    "postcode": "DL14 7RB",
    "lat": 54.660072,
    "lng": -1.680536
  },
  {
    "id": "school-114099",
    "type": "school",
    "name": "Ramshaw Primary School",
    "address": "Oaks Bank, Bishop Auckland",
    "postcode": "DL14 9SD",
    "lat": 54.626974,
    "lng": -1.764849
  },
  {
    "id": "school-114102",
    "type": "school",
    "name": "Butterknowle Primary School",
    "address": "Pinfold Lane, Bishop Auckland",
    "postcode": "DL13 5PB",
    "lat": 54.626376,
    "lng": -1.832144
  },
  {
    "id": "school-114103",
    "type": "school",
    "name": "Escomb Primary School",
    "address": "Three Lane Ends, Bishop Auckland",
    "postcode": "DL14 7SR",
    "lat": 54.658495,
    "lng": -1.711322
  },
  {
    "id": "school-114106",
    "type": "school",
    "name": "Thornhill Primary School",
    "address": "Thornhill Gardens, Shildon",
    "postcode": "DL4 1ES",
    "lat": 54.635571,
    "lng": -1.651243
  },
  {
    "id": "school-114107",
    "type": "school",
    "name": "Toft Hill Primary School",
    "address": "Toft Hill, Bishop Auckland",
    "postcode": "DL14 0JA",
    "lat": 54.647798,
    "lng": -1.746921
  },
  {
    "id": "school-114108",
    "type": "school",
    "name": "Woodland Primary School",
    "address": "Woodland, Bishop Auckland",
    "postcode": "DL13 5RF",
    "lat": 54.633522,
    "lng": -1.887038
  },
  {
    "id": "school-114110",
    "type": "school",
    "name": "Cockton Hill Junior School",
    "address": "McIntyre Terrace, Bishop Auckland",
    "postcode": "DL14 6HW",
    "lat": 54.652456,
    "lng": -1.672861
  },
  {
    "id": "school-114111",
    "type": "school",
    "name": "Cockton Hill Infant School",
    "address": "McIntyre Terrace, Bishop Auckland",
    "postcode": "DL14 6HW",
    "lat": 54.652456,
    "lng": -1.672861
  },
  {
    "id": "school-114113",
    "type": "school",
    "name": "Timothy Hackworth Primary School",
    "address": "Byerley Road, Shildon",
    "postcode": "DL4 1HN",
    "lat": 54.628164,
    "lng": -1.647898
  },
  {
    "id": "school-114114",
    "type": "school",
    "name": "Cockfield Primary School",
    "address": "Front Street, Bishop Auckland",
    "postcode": "DL13 5EN",
    "lat": 54.612897,
    "lng": -1.809993
  },
  {
    "id": "school-114115",
    "type": "school",
    "name": "Montalbo Nursery & Primary School",
    "address": "Fairfield Road, Barnard Castle",
    "postcode": "DL12 8TN",
    "lat": 54.548379,
    "lng": -1.919726
  },
  {
    "id": "school-114120",
    "type": "school",
    "name": "Langley Moor Primary School",
    "address": "Brandon Lane, Durham",
    "postcode": "DH7 8LL",
    "lat": 54.75994,
    "lng": -1.609036
  },
  {
    "id": "school-114122",
    "type": "school",
    "name": "Witton Gilbert Primary School",
    "address": "Sacriston Lane, Durham",
    "postcode": "DH7 6TF",
    "lat": 54.806401,
    "lng": -1.636283
  },
  {
    "id": "school-114125",
    "type": "school",
    "name": "Pittington Primary School",
    "address": "Hallgarth Lane, DURHAM",
    "postcode": "DH6 1AF",
    "lat": 54.790157,
    "lng": -1.488362
  },
  {
    "id": "school-114126",
    "type": "school",
    "name": "Ludworth Primary School",
    "address": "Moor Crescent, Durham",
    "postcode": "DH6 1LZ",
    "lat": 54.765438,
    "lng": -1.440845
  },
  {
    "id": "school-114127",
    "type": "school",
    "name": "Sherburn Primary School",
    "address": "Cookshold Lane, Durham",
    "postcode": "DH6 1DU",
    "lat": 54.77733,
    "lng": -1.500776
  },
  {
    "id": "school-114128",
    "type": "school",
    "name": "West Rainton Primary School",
    "address": "West Rainton, Houghton le Spring",
    "postcode": "DH4 6RN",
    "lat": 54.811809,
    "lng": -1.507976
  },
  {
    "id": "school-114129",
    "type": "school",
    "name": "Bearpark Primary School",
    "address": "Colliery Road, Durham",
    "postcode": "DH7 7AU",
    "lat": 54.785663,
    "lng": -1.629083
  },
  {
    "id": "school-114130",
    "type": "school",
    "name": "Neville's Cross Primary School and Nursery",
    "address": "Relly Path, Durham",
    "postcode": "DH1 4JG",
    "lat": 54.771775,
    "lng": -1.594713
  },
  {
    "id": "school-114134",
    "type": "school",
    "name": "Durham Newton Hall Infants' School",
    "address": "Langley Road, Durham",
    "postcode": "DH1 5LP",
    "lat": 54.796641,
    "lng": -1.572888
  },
  {
    "id": "school-114139",
    "type": "school",
    "name": "Belmont Cheveley Park Primary School",
    "address": "Scardale Way, Durham",
    "postcode": "DH1 2TX",
    "lat": 54.788512,
    "lng": -1.516689
  },
  {
    "id": "school-114140",
    "type": "school",
    "name": "Laurel Avenue Community Primary School",
    "address": "Laurel Avenue, Durham",
    "postcode": "DH1 2EY",
    "lat": 54.775864,
    "lng": -1.54879
  },
  {
    "id": "school-114143",
    "type": "school",
    "name": "Hesleden Primary School",
    "address": "Hesleden, Hartlepool",
    "postcode": "TS27 4PT",
    "lat": 54.736794,
    "lng": -1.311555
  },
  {
    "id": "school-114147",
    "type": "school",
    "name": "Wheatley Hill Community Primary School",
    "address": "Wheatley Hill Primary School, Durham",
    "postcode": "DH6 3RQ",
    "lat": 54.74301,
    "lng": -1.418923
  },
  {
    "id": "school-114150",
    "type": "school",
    "name": "Cotsford Primary School",
    "address": "Third Street, Peterlee",
    "postcode": "SR8 4EH",
    "lat": 54.762356,
    "lng": -1.308401
  },
  {
    "id": "school-114152",
    "type": "school",
    "name": "Shotton Primary School",
    "address": "Grange Terrace, Shotton Colliery",
    "postcode": "DH6 2JP",
    "lat": 54.764336,
    "lng": -1.3875
  },
  {
    "id": "school-114154",
    "type": "school",
    "name": "Acre Rigg Infant School",
    "address": "Acre Rigg Road, Peterlee",
    "postcode": "SR8 2DU",
    "lat": 54.766531,
    "lng": -1.346662
  },
  {
    "id": "school-114159",
    "type": "school",
    "name": "Sedgefield Primary School",
    "address": "Rectory Row, Stockton-on-Tees",
    "postcode": "TS21 2BJ",
    "lat": 54.651789,
    "lng": -1.449041
  },
  {
    "id": "school-114183",
    "type": "school",
    "name": "Red Hall Primary School",
    "address": "Headingley Crescent, Darlington",
    "postcode": "DL1 2ST",
    "lat": 54.534766,
    "lng": -1.516245
  },
  {
    "id": "school-114189",
    "type": "school",
    "name": "Byerley Park Primary School",
    "address": "Greenfield Way, Newton Aycliffe",
    "postcode": "DL5 7LE",
    "lat": 54.624935,
    "lng": -1.595415
  },
  {
    "id": "school-114197",
    "type": "school",
    "name": "Yohden Primary School",
    "address": "Windsor Terrace, Peterlee",
    "postcode": "SR8 4HP",
    "lat": 54.760601,
    "lng": -1.306442
  },
  {
    "id": "school-114198",
    "type": "school",
    "name": "Howletch Lane Primary School",
    "address": "Pennine Drive, Peterlee",
    "postcode": "SR8 2NQ",
    "lat": 54.758688,
    "lng": -1.35229
  },
  {
    "id": "school-114201",
    "type": "school",
    "name": "Blackhall Primary School",
    "address": "Middle Street, Hartlepool",
    "postcode": "TS27 4NA",
    "lat": 54.748481,
    "lng": -1.291779
  },
  {
    "id": "school-114207",
    "type": "school",
    "name": "Sugar Hill Primary School",
    "address": "Sheraton Road, Newton Aycliffe",
    "postcode": "DL5 5NU",
    "lat": 54.617767,
    "lng": -1.568026
  },
  {
    "id": "school-114208",
    "type": "school",
    "name": "Roseberry Primary and Nursery School",
    "address": "Pelton Lane, Chester le Street",
    "postcode": "DH2 1NP",
    "lat": 54.86637,
    "lng": -1.622857
  },
  {
    "id": "school-114209",
    "type": "school",
    "name": "Bullion Lane Primary School",
    "address": "Bullion Lane, Chester le Street",
    "postcode": "DH2 2DP",
    "lat": 54.853206,
    "lng": -1.582494
  },
  {
    "id": "school-114210",
    "type": "school",
    "name": "Easington Colliery Primary School",
    "address": "Whickham Street, Peterlee",
    "postcode": "SR8 3DJ",
    "lat": 54.787064,
    "lng": -1.337529
  },
  {
    "id": "school-114211",
    "type": "school",
    "name": "Durham Gilesgate Primary School",
    "address": "Kepier Crescent, Durham",
    "postcode": "DH1 1PH",
    "lat": 54.782915,
    "lng": -1.545306
  },
  {
    "id": "school-114213",
    "type": "school",
    "name": "Chester-Le-Street CofE (Controlled) Primary School",
    "address": "Hilda Park, Chester le Street",
    "postcode": "DH2 2JT",
    "lat": 54.862349,
    "lng": -1.58335
  },
  {
    "id": "school-114214",
    "type": "school",
    "name": "Ebchester CofE Primary School",
    "address": "Shaw Lane, Consett",
    "postcode": "DH8 0QB",
    "lat": 54.89318,
    "lng": -1.837726
  },
  {
    "id": "school-114216",
    "type": "school",
    "name": "St Stephen's Church of England Primary School",
    "address": "Hall Lane, Crook",
    "postcode": "DL15 0QH",
    "lat": 54.707956,
    "lng": -1.686726
  },
  {
    "id": "school-114220",
    "type": "school",
    "name": "St Anne's CofE Primary School",
    "address": "Warwick Road, Bishop Auckland",
    "postcode": "DL14 6LS",
    "lat": 54.653025,
    "lng": -1.684095
  },
  {
    "id": "school-114226",
    "type": "school",
    "name": "Staindrop CofE (Controlled) Primary School",
    "address": "Black Swan Wynd, Darlington",
    "postcode": "DL2 3NL",
    "lat": 54.579574,
    "lng": -1.795449
  },
  {
    "id": "school-114227",
    "type": "school",
    "name": "Belmont CofE (Controlled) Primary School",
    "address": "The Links, Durham",
    "postcode": "DH1 2AG",
    "lat": 54.785336,
    "lng": -1.525015
  },
  {
    "id": "school-114228",
    "type": "school",
    "name": "St Oswald's Church of England Aided Primary and Nursery School",
    "address": "Church Street, Durham",
    "postcode": "DH1 3DQ",
    "lat": 54.770891,
    "lng": -1.570408
  },
  {
    "id": "school-114229",
    "type": "school",
    "name": "Shincliffe CofE (Controlled) Primary School",
    "address": "Beal Walk, Durham",
    "postcode": "DH1 2PN",
    "lat": 54.755316,
    "lng": -1.538591
  },
  {
    "id": "school-114230",
    "type": "school",
    "name": "St Margaret's Church of England Primary School",
    "address": "Crossgate Peth, Durham",
    "postcode": "DH1 4QB",
    "lat": 54.771959,
    "lng": -1.585492
  },
  {
    "id": "school-114237",
    "type": "school",
    "name": "Bowes Hutchinson's CofE (Aided) School",
    "address": "Bowes, Barnard Castle",
    "postcode": "DL12 9LG",
    "lat": 54.51737,
    "lng": -2.012035
  },
  {
    "id": "school-114267",
    "type": "school",
    "name": "St Francis Horndale CofE Primary School",
    "address": "Scholars Path, Newton Aycliffe",
    "postcode": "DL5 7HB",
    "lat": 54.621934,
    "lng": -1.592951
  },
  {
    "id": "school-114274",
    "type": "school",
    "name": "Blue Coat CofE (Aided) Junior School",
    "address": "Langley Road, Durham",
    "postcode": "DH1 5LP",
    "lat": 54.797082,
    "lng": -1.573303
  },
  {
    "id": "school-114276",
    "type": "school",
    "name": "St Joseph's Catholic Primary School, Murton",
    "address": "Church Lane, Seaham",
    "postcode": "SR7 9RD",
    "lat": 54.815109,
    "lng": -1.389704
  },
  {
    "id": "school-114285",
    "type": "school",
    "name": "St John's Church of England Aided Primary School, Shildon",
    "address": "Jubilee Road, Shildon",
    "postcode": "DL4 2EQ",
    "lat": 54.632629,
    "lng": -1.638006
  },
  {
    "id": "school-114308",
    "type": "school",
    "name": "Belmont Community School",
    "address": "The Links, Durham",
    "postcode": "DH1 2AG",
    "lat": 54.783972,
    "lng": -1.525451
  },
  {
    "id": "school-114312",
    "type": "school",
    "name": "Durham Johnston Comprehensive School",
    "address": "Crossgate Moor, Durham",
    "postcode": "DH1 4SU",
    "lat": 54.779379,
    "lng": -1.594823
  },
  {
    "id": "school-114330",
    "type": "school",
    "name": "Durham High School",
    "address": "Farewell Hall",
    "postcode": "DH1 3TB",
    "lat": 54.756231,
    "lng": -1.585606
  },
  {
    "id": "school-114331",
    "type": "school",
    "name": "Durham Cathedral Schools Foundation",
    "address": "Durham Cathedral Schools Foundation",
    "postcode": "DH1 4SZ",
    "lat": 54.771386,
    "lng": -1.580896
  },
  {
    "id": "school-114336",
    "type": "school",
    "name": "Barnard Castle School",
    "address": "Newgate, Barnard Castle",
    "postcode": "DL12 8UN",
    "lat": 54.541541,
    "lng": -1.90997
  },
  {
    "id": "school-114337",
    "type": "school",
    "name": "Elemore Hall School",
    "address": "Pittington, Durham",
    "postcode": "DH6 1QD",
    "lat": 54.791077,
    "lng": -1.45407
  },
  {
    "id": "school-114340",
    "type": "school",
    "name": "Croft Community School",
    "address": "Greencroft Road End, Stanley",
    "postcode": "DH9 8PR",
    "lat": 54.867257,
    "lng": -1.746499
  },
  {
    "id": "school-114341",
    "type": "school",
    "name": "Walworth School",
    "address": "Bluebell Way, Newton Aycliffe",
    "postcode": "DL5 7LP",
    "lat": 54.625493,
    "lng": -1.58754
  },
  {
    "id": "school-114345",
    "type": "school",
    "name": "Villa Real School",
    "address": "Villa Real Road, Consett",
    "postcode": "DH8 6BH",
    "lat": 54.859803,
    "lng": -1.820114
  },
  {
    "id": "school-114349",
    "type": "school",
    "name": "Durham Trinity School & Sports College",
    "address": "Dunholme Close, Durham",
    "postcode": "DH1 5WB",
    "lat": 54.789989,
    "lng": -1.582943
  },
  {
    "id": "school-121293",
    "type": "school",
    "name": "Leeming and Londonderry Community Primary School",
    "address": "Roman Road, Northallerton",
    "postcode": "DL7 9SG",
    "lat": 54.298671,
    "lng": -1.548199
  },
  {
    "id": "school-121301",
    "type": "school",
    "name": "Staithes, Seton Community Primary School",
    "address": "Seaton Close, Saltburn-by-the-Sea",
    "postcode": "TS13 5AU",
    "lat": 54.551292,
    "lng": -0.788436
  },
  {
    "id": "school-121302",
    "type": "school",
    "name": "Hunton and Arrathorne Community Primary School",
    "address": "South View, Bedale",
    "postcode": "DL8 1QB",
    "lat": 54.327327,
    "lng": -1.709125
  },
  {
    "id": "school-121308",
    "type": "school",
    "name": "Applegarth Primary School",
    "address": "Upwell Road, Northallerton",
    "postcode": "DL7 8QF",
    "lat": 54.338335,
    "lng": -1.436843
  },
  {
    "id": "school-121309",
    "type": "school",
    "name": "North and South Cowton Community Primary School",
    "address": "Main Road, Northallerton",
    "postcode": "DL7 0HF",
    "lat": 54.430004,
    "lng": -1.562003
  },
  {
    "id": "school-121311",
    "type": "school",
    "name": "Reeth Community Primary School",
    "address": "Healaugh Road, Richmond",
    "postcode": "DL11 6SP",
    "lat": 54.389037,
    "lng": -1.947606
  },
  {
    "id": "school-121312",
    "type": "school",
    "name": "Romanby Primary School",
    "address": "The Close, Northallerton",
    "postcode": "DL7 8BL",
    "lat": 54.330189,
    "lng": -1.445905
  },
  {
    "id": "school-121323",
    "type": "school",
    "name": "Snape Community Primary School",
    "address": "Ings Lane, Bedale",
    "postcode": "DL8 2TF",
    "lat": 54.253608,
    "lng": -1.587192
  },
  {
    "id": "school-121333",
    "type": "school",
    "name": "Leeming RAF Community Primary School",
    "address": "Gatenby, Northallerton",
    "postcode": "DL7 9NQ",
    "lat": 54.291321,
    "lng": -1.514293
  },
  {
    "id": "school-121334",
    "type": "school",
    "name": "Colburn Community Primary School",
    "address": "Colburn Lane, Catterick Garrison",
    "postcode": "DL9 4LS",
    "lat": 54.379599,
    "lng": -1.68977
  },
  {
    "id": "school-121338",
    "type": "school",
    "name": "Catterick Garrison, Le Cateau Community Primary School",
    "address": "Brough Road, Catterick Garrison",
    "postcode": "DL9 4ED",
    "lat": 54.371626,
    "lng": -1.707857
  },
  {
    "id": "school-121344",
    "type": "school",
    "name": "Wavell Community Primary School",
    "address": "Wavell Road, Catterick Garrison",
    "postcode": "DL9 3BJ",
    "lat": 54.379934,
    "lng": -1.728108
  },
  {
    "id": "school-121361",
    "type": "school",
    "name": "Hutton Rudby Primary School",
    "address": "Doctors Lane, Yarm",
    "postcode": "TS15 0EQ",
    "lat": 54.448136,
    "lng": -1.28252
  },
  {
    "id": "school-121368",
    "type": "school",
    "name": "Alverton Primary School",
    "address": "Mount Road, Northallerton",
    "postcode": "DL6 1RB",
    "lat": 54.344581,
    "lng": -1.419557
  },
  {
    "id": "school-121371",
    "type": "school",
    "name": "Appleton Wiske Community Primary School",
    "address": "Front Street, Northallerton",
    "postcode": "DL6 2AA",
    "lat": 54.435121,
    "lng": -1.397679
  },
  {
    "id": "school-121372",
    "type": "school",
    "name": "Brompton Community Primary School",
    "address": "Station Road, Northallerton",
    "postcode": "DL6 2RE",
    "lat": 54.362749,
    "lng": -1.421795
  },
  {
    "id": "school-121472",
    "type": "school",
    "name": "Aiskew, Leeming Bar Church of England Primary School",
    "address": "2 Leeming Lane, Northallerton",
    "postcode": "DL7 9AU",
    "lat": 54.303353,
    "lng": -1.557708
  },
  {
    "id": "school-121477",
    "type": "school",
    "name": "Bainbridge Church of England Primary and Nursery School",
    "address": "Bainbridge, Leyburn",
    "postcode": "DL8 3EL",
    "lat": 54.307104,
    "lng": -2.103044
  },
  {
    "id": "school-121479",
    "type": "school",
    "name": "Bedale Church of England Primary School",
    "address": "Firby Road, Bedale",
    "postcode": "DL8 2AT",
    "lat": 54.284846,
    "lng": -1.590843
  },
  {
    "id": "school-121480",
    "type": "school",
    "name": "Bilsdale Midcable Chop Gate Church of England Voluntary Controlled Primary School",
    "address": "Chop Gate, Middlesbrough",
    "postcode": "TS9 7JL",
    "lat": 54.389739,
    "lng": -1.139394
  },
  {
    "id": "school-121481",
    "type": "school",
    "name": "Brompton-on-Swale Church of England Primary School",
    "address": "Brompton Park, Richmond",
    "postcode": "DL10 7JW",
    "lat": 54.393531,
    "lng": -1.663095
  },
  {
    "id": "school-121482",
    "type": "school",
    "name": "West Burton Church of England Primary School",
    "address": "West Burton, Leyburn",
    "postcode": "DL8 4JY",
    "lat": 54.273907,
    "lng": -1.975949
  },
  {
    "id": "school-121483",
    "type": "school",
    "name": "Crakehall Church of England Primary School",
    "address": "The Green, Bedale",
    "postcode": "DL8 1HP",
    "lat": 54.304446,
    "lng": -1.625753
  },
  {
    "id": "school-121495",
    "type": "school",
    "name": "Marwood Church of England Voluntary Controlled Infant School, Great Ayton",
    "address": "Low Green, Middlesbrough",
    "postcode": "TS9 6NN",
    "lat": 54.489005,
    "lng": -1.140398
  },
  {
    "id": "school-121499",
    "type": "school",
    "name": "Hipswell Church of England Primary School",
    "address": "Hipswell, Catterick Garrison",
    "postcode": "DL9 4BB",
    "lat": 54.378719,
    "lng": -1.711887
  },
  {
    "id": "school-121503",
    "type": "school",
    "name": "Ingleby Greenhow Church of England Voluntary Controlled Primary School",
    "address": "Ingleby Greenhow, MIDDLESBROUGH",
    "postcode": "TS9 6LL",
    "lat": 54.450454,
    "lng": -1.103339
  },
  {
    "id": "school-121517",
    "type": "school",
    "name": "Spennithorne Church of England Primary School",
    "address": "Spennithorne, Leyburn",
    "postcode": "DL8 5PR",
    "lat": 54.298247,
    "lng": -1.790069
  },
  {
    "id": "school-121542",
    "type": "school",
    "name": "Gunnerside Methodist Primary School",
    "address": "Gunnerside, Richmond",
    "postcode": "DL11 6LE",
    "lat": 54.378544,
    "lng": -2.076847
  },
  {
    "id": "school-121543",
    "type": "school",
    "name": "Melsonby Methodist Primary School",
    "address": "West Road, Richmond",
    "postcode": "DL10 5ND",
    "lat": 54.471286,
    "lng": -1.696438
  },
  {
    "id": "school-121544",
    "type": "school",
    "name": "Richmond Methodist Primary School",
    "address": "Darlington Road, Richmond",
    "postcode": "DL10 7BH",
    "lat": 54.408596,
    "lng": -1.71969
  },
  {
    "id": "school-121602",
    "type": "school",
    "name": "Askrigg Voluntary Controlled Primary School",
    "address": "Yorebridge, Leyburn",
    "postcode": "DL8 3BJ",
    "lat": 54.313714,
    "lng": -2.086427
  },
  {
    "id": "school-121604",
    "type": "school",
    "name": "Bolton-On-Swale St Mary's CofE Primary School",
    "address": "Bolton-on-Swale, Richmond",
    "postcode": "DL10 6AQ",
    "lat": 54.392474,
    "lng": -1.613338
  },
  {
    "id": "school-121608",
    "type": "school",
    "name": "Carlton and Faceby Church of England Voluntary Aided Primary School",
    "address": "Carlton-in-Cleveland, Middlesbrough",
    "postcode": "TS9 7BB",
    "lat": 54.431493,
    "lng": -1.215129
  },
  {
    "id": "school-121609",
    "type": "school",
    "name": "Michael Syddall Church of England Aided Primary School",
    "address": "Noels Court, Richmond",
    "postcode": "DL10 7LB",
    "lat": 54.379196,
    "lng": -1.629815
  },
  {
    "id": "school-121611",
    "type": "school",
    "name": "Kirkby and Great Broughton Church of England Voluntary Aided Primary School",
    "address": "Kirkby Lane, Middlesbrough",
    "postcode": "TS9 7AL",
    "lat": 54.44776,
    "lng": -1.161236
  },
  {
    "id": "school-121614",
    "type": "school",
    "name": "Middleham Church of England Aided School",
    "address": "Park Lane, Leyburn",
    "postcode": "DL8 4QX",
    "lat": 54.285589,
    "lng": -1.81032
  },
  {
    "id": "school-121619",
    "type": "school",
    "name": "Burneston Church of England Voluntary Aided Primary School",
    "address": "Burneston, Bedale",
    "postcode": "DL8 2HX",
    "lat": 54.26099,
    "lng": -1.529036
  },
  {
    "id": "school-121663",
    "type": "school",
    "name": "Risedale School",
    "address": "Hipswell, Catterick Garrison",
    "postcode": "DL9 4BD",
    "lat": 54.378129,
    "lng": -1.7134
  },
  {
    "id": "school-121670",
    "type": "school",
    "name": "Bedale High School",
    "address": "Fitzalan Road, Bedale",
    "postcode": "DL8 2EQ",
    "lat": 54.283835,
    "lng": -1.589393
  },
  {
    "id": "school-121679",
    "type": "school",
    "name": "Wensleydale School",
    "address": "Richmond Road, Leyburn",
    "postcode": "DL8 5HY",
    "lat": 54.313129,
    "lng": -1.822414
  },
  {
    "id": "school-121738",
    "type": "school",
    "name": "Aysgarth School",
    "address": "Newton-le-Willows, Bedale",
    "postcode": "DL8 1TF",
    "lat": 54.295909,
    "lng": -1.679535
  },
  {
    "id": "school-121771",
    "type": "school",
    "name": "The Dales School",
    "address": "Morton-on-Swale, Northallerton",
    "postcode": "DL7 9QW",
    "lat": 54.323312,
    "lng": -1.494741
  },
  {
    "id": "school-122170",
    "type": "school",
    "name": "Acomb First School",
    "address": "Bishops Hill, Hexham",
    "postcode": "NE46 4PL",
    "lat": 54.994245,
    "lng": -2.101201
  },
  {
    "id": "school-122171",
    "type": "school",
    "name": "Allendale Primary School",
    "address": "Allendale",
    "postcode": "NE47 9PS",
    "lat": 54.897552,
    "lng": -2.250042
  },
  {
    "id": "school-122173",
    "type": "school",
    "name": "Amble Links Primary School",
    "address": "Links Avenue, Morpeth",
    "postcode": "NE65 0SA",
    "lat": 55.332854,
    "lng": -1.570545
  },
  {
    "id": "school-122174",
    "type": "school",
    "name": "King Edwin Primary School",
    "address": "King Edwin Primary School, South Avenue, Amble",
    "postcode": "NE65 0ND",
    "lat": 55.329062,
    "lng": -1.586302
  },
  {
    "id": "school-122176",
    "type": "school",
    "name": "Bedlington West End Primary School",
    "address": "Ridge Terrace, Bedlington",
    "postcode": "NE22 6EB",
    "lat": 55.131982,
    "lng": -1.601001
  },
  {
    "id": "school-122177",
    "type": "school",
    "name": "Bedlington Station Primary School",
    "address": "School Road, Bedlington",
    "postcode": "NE22 7JQ",
    "lat": 55.141354,
    "lng": -1.566406
  },
  {
    "id": "school-122178",
    "type": "school",
    "name": "Stakeford Primary School",
    "address": "East Ford Road, Choppington",
    "postcode": "NE62 5TZ",
    "lat": 55.164416,
    "lng": -1.574225
  },
  {
    "id": "school-122179",
    "type": "school",
    "name": "Cambois Primary School",
    "address": "Cowgate, Blyth",
    "postcode": "NE24 1RD",
    "lat": 55.148063,
    "lng": -1.521956
  },
  {
    "id": "school-122180",
    "type": "school",
    "name": "Choppington Primary School",
    "address": "Eastgate, Choppington",
    "postcode": "NE62 5RR",
    "lat": 55.152109,
    "lng": -1.599623
  },
  {
    "id": "school-122181",
    "type": "school",
    "name": "Stead Lane Primary School",
    "address": "Stead Lane, Bedlington",
    "postcode": "NE22 5JS",
    "lat": 55.133587,
    "lng": -1.573392
  },
  {
    "id": "school-122183",
    "type": "school",
    "name": "Bellingham Primary School",
    "address": "Redesmouth Road, Hexham",
    "postcode": "NE48 2EL",
    "lat": 55.142112,
    "lng": -2.245309
  },
  {
    "id": "school-122191",
    "type": "school",
    "name": "Eastlea Primary School",
    "address": "Skipton Close, Cramlington",
    "postcode": "NE23 3ST",
    "lat": 55.097028,
    "lng": -1.576133
  },
  {
    "id": "school-122193",
    "type": "school",
    "name": "Beaconhill Community Primary School",
    "address": "Langdale Drive, Cramlington",
    "postcode": "NE23 8EH",
    "lat": 55.084493,
    "lng": -1.60326
  },
  {
    "id": "school-122194",
    "type": "school",
    "name": "Cramlington Shanklea Primary School",
    "address": "Nairn Road, Cramlington",
    "postcode": "NE23 1RQ",
    "lat": 55.089707,
    "lng": -1.58218
  },
  {
    "id": "school-122195",
    "type": "school",
    "name": "Holywell Village First School",
    "address": "Holywell, Whitley Bay",
    "postcode": "NE25 0LN",
    "lat": 55.06645,
    "lng": -1.503683
  },
  {
    "id": "school-122196",
    "type": "school",
    "name": "Broomhill Primary School",
    "address": "Station Road, Morpeth",
    "postcode": "NE65 9UT",
    "lat": 55.304716,
    "lng": -1.613589
  },
  {
    "id": "school-122197",
    "type": "school",
    "name": "Red Row Primary School",
    "address": "Red Row, Morpeth",
    "postcode": "NE61 5AS",
    "lat": 55.285826,
    "lng": -1.599648
  },
  {
    "id": "school-122198",
    "type": "school",
    "name": "Ellington Primary School",
    "address": "Warkworth Drive, Morpeth",
    "postcode": "NE61 5HL",
    "lat": 55.221732,
    "lng": -1.558128
  },
  {
    "id": "school-122199",
    "type": "school",
    "name": "Linton Primary School",
    "address": "Linton, Morpeth",
    "postcode": "NE61 5SG",
    "lat": 55.215798,
    "lng": -1.58556
  },
  {
    "id": "school-122202",
    "type": "school",
    "name": "Stamfordham Primary School",
    "address": "Stamfordham, Newcastle-upon-Tyne",
    "postcode": "NE18 0NA",
    "lat": 55.042583,
    "lng": -1.874888
  },
  {
    "id": "school-122203",
    "type": "school",
    "name": "Hexham First School",
    "address": "Beaufront Avenue, Hexham",
    "postcode": "NE46 1JD",
    "lat": 54.967258,
    "lng": -2.087355
  },
  {
    "id": "school-122210",
    "type": "school",
    "name": "Morpeth First School",
    "address": "Morpeth",
    "postcode": "NE61 2AP",
    "lat": 55.154865,
    "lng": -1.684285
  },
  {
    "id": "school-122214",
    "type": "school",
    "name": "Seahouses Primary School",
    "address": "James Street, Seahouses",
    "postcode": "NE68 7YF",
    "lat": 55.577215,
    "lng": -1.657967
  },
  {
    "id": "school-122215",
    "type": "school",
    "name": "Otterburn Primary School",
    "address": "Otterburn",
    "postcode": "NE19 1JF",
    "lat": 55.237839,
    "lng": -2.197064
  },
  {
    "id": "school-122216",
    "type": "school",
    "name": "Pegswood Primary School",
    "address": "Longhirst Road, Morpeth",
    "postcode": "NE61 6XG",
    "lat": 55.182934,
    "lng": -1.642929
  },
  {
    "id": "school-122221",
    "type": "school",
    "name": "Rothbury First School",
    "address": "Addycombe, Morpeth",
    "postcode": "NE65 7PG",
    "lat": 55.311548,
    "lng": -1.908596
  },
  {
    "id": "school-122222",
    "type": "school",
    "name": "Beaufront First School",
    "address": "Sandhoe, Hexham",
    "postcode": "NE46 4LY",
    "lat": 54.991951,
    "lng": -2.065932
  },
  {
    "id": "school-122223",
    "type": "school",
    "name": "Seaton Delaval First School",
    "address": "Western Avenue, Whitley Bay",
    "postcode": "NE25 0EP",
    "lat": 55.070667,
    "lng": -1.531368
  },
  {
    "id": "school-122224",
    "type": "school",
    "name": "New Hartley First School",
    "address": "New Hartley, Whitley Bay",
    "postcode": "NE25 0RD",
    "lat": 55.08435,
    "lng": -1.521165
  },
  {
    "id": "school-122225",
    "type": "school",
    "name": "Seghill First School",
    "address": "Seghill, Cramlington",
    "postcode": "NE23 7SB",
    "lat": 55.063294,
    "lng": -1.552108
  },
  {
    "id": "school-122226",
    "type": "school",
    "name": "Greenhaugh Primary School",
    "address": "Greenhaugh, Hexham",
    "postcode": "NE48 1LX",
    "lat": 55.180701,
    "lng": -2.323254
  },
  {
    "id": "school-122227",
    "type": "school",
    "name": "Slaley First School",
    "address": "Slaley Village",
    "postcode": "NE47 0AA",
    "lat": 54.914672,
    "lng": -2.037131
  },
  {
    "id": "school-122228",
    "type": "school",
    "name": "Stannington First School",
    "address": "Church Road, Morpeth",
    "postcode": "NE61 6HJ",
    "lat": 55.10932,
    "lng": -1.671397
  },
  {
    "id": "school-122232",
    "type": "school",
    "name": "Cambo First School",
    "address": "Cambo, Morpeth",
    "postcode": "NE61 4BE",
    "lat": 55.16696,
    "lng": -1.962149
  },
  {
    "id": "school-122233",
    "type": "school",
    "name": "Kielder Primary School and Nursery",
    "address": "Kielder, Hexham",
    "postcode": "NE48 1HQ",
    "lat": 55.231821,
    "lng": -2.578054
  },
  {
    "id": "school-122234",
    "type": "school",
    "name": "Seaton Sluice First School",
    "address": "Granville Avenue, Whitley Bay",
    "postcode": "NE26 4BX",
    "lat": 55.078422,
    "lng": -1.469949
  },
  {
    "id": "school-122236",
    "type": "school",
    "name": "Wooler First School",
    "address": "15 Brewery Road, Wooler",
    "postcode": "NE71 6QG",
    "lat": 55.544802,
    "lng": -2.003281
  },
  {
    "id": "school-122240",
    "type": "school",
    "name": "Swarland Primary School",
    "address": "Leamington Lane, Morpeth",
    "postcode": "NE65 9JP",
    "lat": 55.329354,
    "lng": -1.741414
  },
  {
    "id": "school-122242",
    "type": "school",
    "name": "The Sele First School",
    "address": "The Sele, Hexham",
    "postcode": "NE46 3QZ",
    "lat": 54.972448,
    "lng": -2.104974
  },
  {
    "id": "school-122243",
    "type": "school",
    "name": "Mowbray Primary School",
    "address": "Stakeford Lane, Choppington",
    "postcode": "NE62 5HQ",
    "lat": 55.162021,
    "lng": -1.593951
  },
  {
    "id": "school-122244",
    "type": "school",
    "name": "Belford Primary School",
    "address": "West Street, Belford",
    "postcode": "NE70 7QD",
    "lat": 55.597115,
    "lng": -1.832706
  },
  {
    "id": "school-122247",
    "type": "school",
    "name": "Ringway Primary School",
    "address": "Ringway, Choppington",
    "postcode": "NE62 5YP",
    "lat": 55.16749,
    "lng": -1.592718
  },
  {
    "id": "school-122254",
    "type": "school",
    "name": "Horton Grange Primary School",
    "address": "Cowpen Road, Blyth",
    "postcode": "NE24 4RE",
    "lat": 55.127826,
    "lng": -1.550743
  },
  {
    "id": "school-122258",
    "type": "school",
    "name": "New Delaval Primary School",
    "address": "Delaval Gardens, Blyth",
    "postcode": "NE24 4DA",
    "lat": 55.111601,
    "lng": -1.535545
  },
  {
    "id": "school-122261",
    "type": "school",
    "name": "Newsham Primary School",
    "address": "Warwick Street, Blyth",
    "postcode": "NE24 4NX",
    "lat": 55.113844,
    "lng": -1.52746
  },
  {
    "id": "school-122264",
    "type": "school",
    "name": "Hipsburn Primary School",
    "address": "Lesbury, Alnwick",
    "postcode": "NE66 3PX",
    "lat": 55.393297,
    "lng": -1.624426
  },
  {
    "id": "school-122266",
    "type": "school",
    "name": "Burnside Primary School",
    "address": "Northumbrian Road, Cramlington",
    "postcode": "NE23 1XZ",
    "lat": 55.095471,
    "lng": -1.580663
  },
  {
    "id": "school-122268",
    "type": "school",
    "name": "Hareside Primary School",
    "address": "Hareside Primary School, Cramlington",
    "postcode": "NE23 6BL",
    "lat": 55.080207,
    "lng": -1.58737
  },
  {
    "id": "school-122269",
    "type": "school",
    "name": "Cramlington Northburn Primary School",
    "address": "Horton Drive, Cramlington",
    "postcode": "NE23 3QS",
    "lat": 55.097756,
    "lng": -1.5865
  },
  {
    "id": "school-122272",
    "type": "school",
    "name": "Chollerton Church of England Aided First School",
    "address": "Station Road, Hexham",
    "postcode": "NE48 4AA",
    "lat": 55.054575,
    "lng": -2.130582
  },
  {
    "id": "school-122273",
    "type": "school",
    "name": "Felton Church of England Primary School",
    "address": "Mouldshaugh Lane, Morpeth",
    "postcode": "NE65 9PY",
    "lat": 55.300748,
    "lng": -1.709024
  },