[{"id": "school-100335", "type": "school", "name": "Old Oak Primary School", "address": "Mellitus Street, London", "postcode": "W12 0AS", "lat": 51.517508, "lng": -0.242243, "districtCode": "E09000013"}, {"id": "school-100485", "type": "school", "name": "Oxford Gardens Primary School", "address": "Oxford Gardens, London", "postcode": "W10 6NF", "lat": 51.516332, "lng": -0.217379, "districtCode": "E09000020"}, {"id": "school-100499", "type": "school", "name": "Saint Mary's Catholic Primary School", "address": "East Row, London", "postcode": "W10 5AW", "lat": 51.524581, "lng": -0.2092, "districtCode": "E09000033"}, {"id": "school-100536", "type": "school", "name": "Kensington Park School", "address": "40-44 Bark Place, London", "postcode": "W2 4AT", "lat": 51.510703, "lng": -0.188096, "districtCode": "E09000033"}, {"id": "school-101139", "type": "school", "name": "St Peter's CofE School", "address": "Chippenham Mews, London", "postcode": "W9 2AN", "lat": 51.523631, "lng": -0.195368, "districtCode": "E09000033"}, {"id": "school-101181", "type": "school", "name": "Bales College", "address": "2j Kilburn Lane, London", "postcode": "W10 4AA", "lat": 51.52796, "lng": -0.213753, "districtCode": "E09000033"}, {"id": "school-101874", "type": "school", "name": "St Mark's Primary School", "address": "Lower Boston Road, London", "postcode": "W7 2NR", "lat": 51.506427, "lng": -0.339053, "districtCode": "E09000009"}, {"id": "school-101954", "type": "school", "name": "Notting Hill & Ealing High School GDST", "address": "2 Cleveland Road", "postcode": "W13 8AX", "lat": 51.521006, "lng": -0.314476, "districtCode": "E09000009"}, {"id": "school-102503", "type": "school", "name": "Strand-on-the-Green Junior School", "address": "Thames Road, London", "postcode": "W4 3NX", "lat": 51.486951, "lng": -0.278783, "districtCode": "E09000018"}, {"id": "school-102504", "type": "school", "name": "Strand-on-the-Green Infant and Nursery School", "address": "Thames Road, London", "postcode": "W4 3NX", "lat": 51.486951, "lng": -0.278783, "districtCode": "E09000018"}, {"id": "school-103134", "type": "school", "name": "Highters Heath Nursery School", "address": "11 School Road, Birmingham", "postcode": "B14 4BH", "lat": 52.412718, "lng": -1.869859, "districtCode": "E08000025"}, {"id": "school-103137", "type": "school", "name": "Lillian De Lissa Nursery School", "address": "Bellevue, Birmingham", "postcode": "B5 7LX", "lat": 52.465056, "lng": -1.898249, "districtCode": "E08000025"}, {"id": "school-103138", "type": "school", "name": "Bloomsbury Nursery School", "address": "Bloomsbury Street, Birmingham", "postcode": "B7 5BX", "lat": 52.493289, "lng": -1.871301, "districtCode": "E08000025"}, {"id": "school-103142", "type": "school", "name": "Shenley Fields Nursery School", "address": "Woodcock Lane, Birmingham", "postcode": "B31 1BU", "lat": 52.430483, "lng": -1.982452, "districtCode": "E08000025"}, {"id": "school-103146", "type": "school", "name": "City of Birmingham School", "address": "14 Court Road, Birmingham", "postcode": "B11 4LX", "lat": 52.450015, "lng": -1.863716, "districtCode": "E08000025"}, {"id": "school-103150", "type": "school", "name": "Edith Cadbury Nursery School", "address": "Somerford Road, Birmingham", "postcode": "B29 5LB", "lat": 52.436064, "lng": -1.968915, "districtCode": "E08000025"}, {"id": "school-103178", "type": "school", "name": "Cherry Orchard Primary School", "address": "Cherry Orchard Road, Birmingham", "postcode": "B20 2LB", "lat": 52.519792, "lng": -1.919642, "districtCode": "E08000025"}, {"id": "school-103192", "type": "school", "name": "Anderton Park Primary School", "address": "Dennis Road, Birmingham", "postcode": "B12 8BL", "lat": 52.45088, "lng": -1.87372, "districtCode": "E08000025"}, {"id": "school-103200", "type": "school", "name": "George Dixon Primary School", "address": "City Road, Birmingham", "postcode": "B17 8LE", "lat": 52.477058, "lng": -1.954088, "districtCode": "E08000025"}, {"id": "school-103228", "type": "school", "name": "Lyndon Green Junior School", "address": "Wensley Road, Birmingham", "postcode": "B26 1LU", "lat": 52.460165, "lng": -1.794238, "districtCode": "E08000025"}, {"id": "school-103229", "type": "school", "name": "Lyndon Green Infant School", "address": "Wychwood Cresent, Birmingham", "postcode": "B26 1LZ", "lat": 52.460388, "lng": -1.793516, "districtCode": "E08000025"}, {"id": "school-103241", "type": "school", "name": "Park Hill Primary School", "address": "Alcester Road, Birmingham", "postcode": "B13 8BB", "lat": 52.450471, "lng": -1.886509, "districtCode": "E08000025"}, {"id": "school-103263", "type": "school", "name": "Colebourne Primary School", "address": "Stechford Road, Birmingham", "postcode": "B34 6BJ", "lat": 52.492749, "lng": -1.80562, "districtCode": "E08000025"}, {"id": "school-103268", "type": "school", "name": "Thornton Primary School", "address": "Thornton Road, Birmingham", "postcode": "B8 2LQ", "lat": 52.490444, "lng": -1.826517, "districtCode": "E08000025"}, {"id": "school-103284", "type": "school", "name": "Yorkmead Junior and Infant School", "address": "York Road, Birmingham", "postcode": "B28 8BB", "lat": 52.440363, "lng": -1.844913, "districtCode": "E08000025"}, {"id": "school-103328", "type": "school", "name": "Welford Primary School", "address": "Welford Road, Birmingham", "postcode": "B20 2BL", "lat": 52.503823, "lng": -1.918566, "districtCode": "E08000025"}, {"id": "school-103345", "type": "school", "name": "Minworth Junior and Infant School", "address": "Water Orton Lane, SUTTON COLDFIELD", "postcode": "B76 9BU", "lat": 52.527475, "lng": -1.767123, "districtCode": "E08000025"}, {"id": "school-103356", "type": "school", "name": "Penns Primary School", "address": "Berwood Road, Sutton Coldfield", "postcode": "B72 1BS", "lat": 52.532585, "lng": -1.815042, "districtCode": "E08000025"}, {"id": "school-103368", "type": "school", "name": "Kingsthorne Primary School", "address": "Cranbourne Road, Birmingham", "postcode": "B44 0BX", "lat": 52.543918, "lng": -1.880989, "districtCode": "E08000025"}, {"id": "school-103372", "type": "school", "name": "Woodcock Hill Primary School", "address": "Farwood Road, Birmingham", "postcode": "B31 1BS", "lat": 52.430887, "lng": -1.982201, "districtCode": "E08000025"}, {"id": "school-103391", "type": "school", "name": "Calshot Primary School", "address": "Calshot Road, Birmingham", "postcode": "B42 2BY", "lat": 52.542033, "lng": -1.916032, "districtCode": "E08000025"}, {"id": "school-103397", "type": "school", "name": "Christ Church CofE Controlled Primary School and Nursery", "address": "Claremont Road, Birmingham", "postcode": "B11 1LF", "lat": 52.463647, "lng": -1.872889, "districtCode": "E08000025"}, {"id": "school-103424", "type": "school", "name": "Corpus Christi Catholic Primary School", "address": "Lyttelton Road, Birmingham", "postcode": "B33 8BL", "lat": 52.48027, "lng": -1.811094, "districtCode": "E08000025"}, {"id": "school-103455", "type": "school", "name": "St Dunstan's Catholic Primary School", "address": "Drayton Road, Birmingham", "postcode": "B14 7LP", "lat": 52.43187, "lng": -1.888352, "districtCode": "E08000025"}, {"id": "school-103458", "type": "school", "name": "St Gerard's Catholic Primary School", "address": "Yatesbury Avenue, Birmingham", "postcode": "B35 6LB", "lat": 52.522258, "lng": -1.785163, "districtCode": "E08000025"}, {"id": "school-103586", "type": "school", "name": "Darul Uloom Islamic High School", "address": "521-527 Coventry Road, Birmingham", "postcode": "B10 0LL", "lat": 52.468202, "lng": -1.854708, "districtCode": "E08000025"}, {"id": "school-103598", "type": "school", "name": "Prenton Primary School", "address": "Bramwell Avenue, Prenton", "postcode": "CH43 0RQ", "lat": 53.366538, "lng": -3.05092, "districtCode": "E08000015"}, {"id": "school-103601", "type": "school", "name": "Victoria School", "address": "Bell Hill, Birmingham", "postcode": "B31 1LD", "lat": 52.419835, "lng": -1.969015, "districtCode": "E08000025"}, {"id": "school-103603", "type": "school", "name": "Longwill A Primary School for Deaf Children", "address": "Bell Hill, Birmingham", "postcode": "B31 1LD", "lat": 52.418792, "lng": -1.969765, "districtCode": "E08000025"}, {"id": "school-103847", "type": "school", "name": "Halesowen CofE Primary School", "address": "High Street, Halesowen", "postcode": "B63 3BB", "lat": 52.450236, "lng": -2.051094, "districtCode": "E08000027"}, {"id": "school-103895", "type": "school", "name": "Hamstead Primary School", "address": "Hamstead Road, Birmingham", "postcode": "B43 5BE", "lat": 52.53607, "lng": -1.942422, "districtCode": "E08000028"}, {"id": "school-103914", "type": "school", "name": "Burnt Tree Primary School", "address": "Hill Road, Oldbury", "postcode": "B69 2LN", "lat": 52.512982, "lng": -2.054674, "districtCode": "E08000028"}, {"id": "school-103923", "type": "school", "name": "Eaton Valley Primary School", "address": "Dagger Lane, West Bromwich", "postcode": "B71 4BU", "lat": 52.527163, "lng": -1.981632, "districtCode": "E08000028"}, {"id": "school-103929", "type": "school", "name": "Abbey Junior School", "address": "Barclay Road, Smethwick", "postcode": "B67 5LT", "lat": 52.475986, "lng": -1.978929, "districtCode": "E08000028"}, {"id": "school-103930", "type": "school", "name": "Abbey Infant School", "address": "Maurice Road, Smethwick", "postcode": "B67 5LR", "lat": 52.47738, "lng": -1.978825, "districtCode": "E08000028"}, {"id": "school-103932", "type": "school", "name": "Annie Lennard Primary School", "address": "The Oval, Smethwick", "postcode": "B67 6LE", "lat": 52.481192, "lng": -1.983109, "districtCode": "E08000028"}, {"id": "school-103945", "type": "school", "name": "Grace Mary Primary School", "address": "Hawfield Road, Oldbury", "postcode": "B69 1LD", "lat": 52.501047, "lng": -2.041576, "districtCode": "E08000028"}, {"id": "school-103983", "type": "school", "name": "Causeway Green Primary School", "address": "Penncricket Lane, Oldbury", "postcode": "B68 8LX", "lat": 52.480995, "lng": -2.017892, "districtCode": "E08000028"}, {"id": "school-104000", "type": "school", "name": "St Matthew's CofE Primary School", "address": "Windmill Lane, Smethwick", "postcode": "B66 3LX", "lat": 52.490662, "lng": -1.955664, "districtCode": "E08000028"}, {"id": "school-104054", "type": "school", "name": "Widney Junior School", "address": "Clifton Crescent, Solihull", "postcode": "B91 3LQ", "lat": 52.400194, "lng": -1.799501, "districtCode": "E08000029"}, {"id": "school-104057", "type": "school", "name": "Mill Lodge Primary School", "address": "Aqueduct Road, Solihull", "postcode": "B90 1BT", "lat": 52.404703, "lng": -1.850918, "districtCode": "E08000029"}, {"id": "school-104060", "type": "school", "name": "Marston Green Junior School", "address": "Station Road, Birmingham", "postcode": "B37 7BA", "lat": 52.466236, "lng": -1.748795, "districtCode": "E08000029"}, {"id": "school-104128", "type": "school", "name": "Kingswood School", "address": "St James Place, Solihull", "postcode": "B90 2BA", "lat": 52.406772, "lng": -1.825448, "districtCode": "E08000029"}, {"id": "school-104418", "type": "school", "name": "Meadow Park School", "address": "Haswell Drive, Knowsley", "postcode": "L28 1RX", "lat": 53.436925, "lng": -2.86064, "districtCode": "E08000011"}, {"id": "school-104427", "type": "school", "name": "Malvern Primary School", "address": "Willoughby Road, Liverpool", "postcode": "L14 6XA", "lat": 53.409098, "lng": -2.878314, "districtCode": "E08000011"}, {"id": "school-104429", "type": "school", "name": "Park Brow Community Primary School", "address": "Broad Lane, Liverpool", "postcode": "L32 6QH", "lat": 53.474223, "lng": -2.873148, "districtCode": "E08000011"}, {"id": "school-104431", "type": "school", "name": "Westvale Primary School", "address": "Melverley Road, Liverpool", "postcode": "L32 0RQ", "lat": 53.482525, "lng": -2.905104, "districtCode": "E08000011"}, {"id": "school-104432", "type": "school", "name": "Millbrook Community Primary School", "address": "Kirkby Row, Liverpool", "postcode": "L32 0TG", "lat": 53.48509, "lng": -2.893945, "districtCode": "E08000011"}, {"id": "school-104444", "type": "school", "name": "Ravenscroft Community Primary School", "address": "Ebony Way, Liverpool", "postcode": "L33 1XT", "lat": 53.494519, "lng": -2.885656, "districtCode": "E08000011"}, {"id": "school-104448", "type": "school", "name": "Kirkby CofE Primary School", "address": "Hall Lane, Liverpool", "postcode": "L32 1TZ", "lat": 53.484025, "lng": -2.887306, "districtCode": "E08000011"}, {"id": "school-104454", "type": "school", "name": "Holy Family Catholic Primary School & Nursery", "address": "Hall Lane, Widnes", "postcode": "WA8 5DW", "lat": 53.390542, "lng": -2.757727, "districtCode": "E08000011"}, {"id": "school-104459", "type": "school", "name": "Our Lady's Catholic Primary School", "address": "Ward Street, Prescot", "postcode": "L34 6JJ", "lat": 53.432123, "lng": -2.800013, "districtCode": "E08000011"}, {"id": "school-104460", "type": "school", "name": "St Luke's Catholic Primary School", "address": "Shaw Lane, Prescot", "postcode": "L35 5AT", "lat": 53.419954, "lng": -2.790139, "districtCode": "E08000011"}, {"id": "school-104461", "type": "school", "name": "St Laurence's Catholic Primary School", "address": "Leeside Avenue, Liverpool", "postcode": "L32 9QX", "lat": 53.476778, "lng": -2.877782, "districtCode": "E08000011"}, {"id": "school-104463", "type": "school", "name": "St Aidan's Catholic Primary School", "address": "Adswood Road, Liverpool", "postcode": "L36 7XR", "lat": 53.417919, "lng": -2.832823, "districtCode": "E08000011"}, {"id": "school-104464", "type": "school", "name": "St Michael and All Angels Catholic Primary School", "address": "Sidney Powell Avenue, Liverpool", "postcode": "L32 0TP", "lat": 53.484133, "lng": -2.89816, "districtCode": "E08000011"}, {"id": "school-104466", "type": "school", "name": "St Marie's Catholic Primary School", "address": "Bigdale Drive, Liverpool", "postcode": "L33 6XL", "lat": 53.486637, "lng": -2.871911, "districtCode": "E08000011"}, {"id": "school-104467", "type": "school", "name": "St Albert's Catholic Primary School", "address": "Steers Croft, Liverpool", "postcode": "L28 8AJ", "lat": 53.439168, "lng": -2.86987, "districtCode": "E08000012"}, {"id": "school-104468", "type": "school", "name": "Holy Family Catholic Primary School", "address": "Arncliffe Road, Liverpool", "postcode": "L25 9PA", "lat": 53.368873, "lng": -2.845289, "districtCode": "E08000011"}, {"id": "school-104469", "type": "school", "name": "St Mark's Catholic Primary School", "address": "Fir Avenue, Liverpool", "postcode": "L26 0XR", "lat": 53.363562, "lng": -2.824444, "districtCode": "E08000011"}, {"id": "school-104470", "type": "school", "name": "St Andrew the Apostle Catholic Primary School", "address": "Higher Road, Liverpool", "postcode": "L26 1TD", "lat": 53.360466, "lng": -2.844236, "districtCode": "E08000011"}, {"id": "school-104474", "type": "school", "name": "St Brigid's Catholic Primary School", "address": "Waterpark Drive, Liverpool", "postcode": "L28 7RE", "lat": 53.433641, "lng": -2.867123, "districtCode": "E08000012"}, {"id": "school-104476", "type": "school", "name": "St John Fisher Catholic Primary School", "address": "Tithebarn Road, Prescot", "postcode": "L34 0HA", "lat": 53.453134, "lng": -2.849221, "districtCode": "E08000011"}, {"id": "school-104477", "type": "school", "name": "St Anne's Catholic Primary School", "address": "Marina Crescent, Liverpool", "postcode": "L36 5XL", "lat": 53.405463, "lng": -2.845187, "districtCode": "E08000011"}, {"id": "school-104480", "type": "school", "name": "St Columba's Catholic Primary School", "address": "Hillside Road, Liverpool", "postcode": "L36 8BL", "lat": 53.424927, "lng": -2.838604, "districtCode": "E08000011"}, {"id": "school-104481", "type": "school", "name": "St Margaret Mary's Catholic Infant School", "address": "Pilch Lane, Liverpool", "postcode": "L14 0JG", "lat": 53.413996, "lng": -2.876127, "districtCode": "E08000011"}, {"id": "school-104482", "type": "school", "name": "St Margaret Mary's Catholic Junior School", "address": "St Margaret Mary's Catholic Junior School, Liverpool", "postcode": "L14 0JG", "lat": 53.41422, "lng": -2.877441, "districtCode": "E08000011"}, {"id": "school-104495", "type": "school", "name": "Bluebell Park School", "address": "Cawthorne Walk, Liverpool", "postcode": "L32 3XP", "lat": 53.470548, "lng": -2.886272, "districtCode": "E08000011"}, {"id": "school-104498", "type": "school", "name": "Alt Bridge School", "address": "Wellcroft Road, Liverpool", "postcode": "L36 7TA", "lat": 53.420151, "lng": -2.835154, "districtCode": "E08000011"}, {"id": "school-104503", "type": "school", "name": "Chatham Place Nursery School", "address": "139 Earle Road, Liverpool", "postcode": "L7 6HD", "lat": 53.39855, "lng": -2.941226, "districtCode": "E08000012"}, {"id": "school-104504", "type": "school", "name": "East Prescot Road Nursery School", "address": "86 East Prescot Road, Liverpool", "postcode": "L14 1PW", "lat": 53.415752, "lng": -2.901113, "districtCode": "E08000012"}, {"id": "school-104505", "type": "school", "name": "Everton Nursery School and Family Centre", "address": "Spencer Street, Liverpool", "postcode": "L6 2WF", "lat": 53.417511, "lng": -2.964699, "districtCode": "E08000012"}, {"id": "school-104506", "type": "school", "name": "Ellergreen Nursery School and Childcare Centre", "address": "Ellergreen Road, Liverpool", "postcode": "L11 2RY", "lat": 53.444633, "lng": -2.918107, "districtCode": "E08000012"}, {"id": "school-104507", "type": "school", "name": "Abercromby Nursery School", "address": "Falkner Street, Liverpool", "postcode": "L8 7QA", "lat": 53.398989, "lng": -2.962791, "districtCode": "E08000012"}, {"id": "school-104516", "type": "school", "name": "Banks Road Primary School", "address": "Banks Road, Liverpool", "postcode": "L19 8JZ", "lat": 53.347348, "lng": -2.887846, "districtCode": "E08000012"}, {"id": "school-104519", "type": "school", "name": "Belle Vale Community Primary School", "address": "Besford Road, Liverpool", "postcode": "L25 2QF", "lat": 53.387602, "lng": -2.85739, "districtCode": "E08000012"}, {"id": "school-104521", "type": "school", "name": "Blackmoor Park Junior School", "address": "Leyfield Road, Liverpool", "postcode": "L12 9HB", "lat": 53.425504, "lng": -2.891746, "districtCode": "E08000012"}, {"id": "school-104545", "type": "school", "name": "Springwood Heath Primary School", "address": "Danefield Road, Liverpool", "postcode": "L19 4TL", "lat": 53.363231, "lng": -2.886883, "districtCode": "E08000012"}, {"id": "school-104549", "type": "school", "name": "Hunts Cross Primary School", "address": "Kingsthorne Road, Liverpool", "postcode": "L25 0PJ", "lat": 53.357574, "lng": -2.852669, "districtCode": "E08000012"}, {"id": "school-104564", "type": "school", "name": "Northcote Primary School", "address": "Cavendish Drive, Liverpool", "postcode": "L9 1HW", "lat": 53.450579, "lng": -2.962165, "districtCode": "E08000012"}, {"id": "school-104569", "type": "school", "name": "Pleasant Street Primary School", "address": "Pleasant Street, Liverpool", "postcode": "L3 5TS", "lat": 53.404177, "lng": -2.972732, "districtCode": "E08000012"}, {"id": "school-104570", "type": "school", "name": "Whitefield Primary School", "address": "Boundary Lane, Liverpool", "postcode": "L6 2HZ", "lat": 53.419898, "lng": -2.956401, "districtCode": "E08000012"}, {"id": "school-104589", "type": "school", "name": "Windsor Community Primary School", "address": "Upper Hill Street, Liverpool", "postcode": "L8 8JE", "lat": 53.39258, "lng": -2.96603, "districtCode": "E08000012"}, {"id": "school-104600", "type": "school", "name": "Norman Pannell Primary School", "address": "Brownbill Bank, Liverpool", "postcode": "L27 7AE", "lat": 53.386628, "lng": -2.840197, "districtCode": "E08000012"}, {"id": "school-104610", "type": "school", "name": "Gwladys Street Primary and Nursery School", "address": "Walton Lane, Liverpool", "postcode": "L4 5RW", "lat": 53.439133, "lng": -2.962358, "districtCode": "E08000012"}, {"id": "school-104616", "type": "school", "name": "Wavertree Church of England School", "address": "Rose Villas, Liverpool", "postcode": "L15 8HJ", "lat": 53.397775, "lng": -2.917233, "districtCode": "E08000012"}, {"id": "school-104622", "type": "school", "name": "St Anne's (Stanley) Junior Mixed and Infant School", "address": "Prescot Road, Liverpool", "postcode": "L13 3BT", "lat": 53.415197, "lng": -2.917307, "districtCode": "E08000012"}, {"id": "school-104632", "type": "school", "name": "Our Lady and St Swithin's Catholic Primary School", "address": "Parkstile Lane, Merseyside", "postcode": "L11 0BQ", "lat": 53.458191, "lng": -2.898923, "districtCode": "E08000012"}, {"id": "school-104635", "type": "school", "name": "Holy Trinity Catholic Primary School", "address": "Banks Road, Liverpool", "postcode": "L19 8JY", "lat": 53.349444, "lng": -2.890053, "districtCode": "E08000012"}, {"id": "school-104636", "type": "school", "name": "Much Woolton Catholic Primary School", "address": "Watergate Lane, Liverpool", "postcode": "L25 8QH", "lat": 53.373154, "lng": -2.858933, "districtCode": "E08000012"}, {"id": "school-104638", "type": "school", "name": "Our Lady Immaculate Catholic Primary School", "address": "Northumberland Terrace, Liverpool", "postcode": "L5 3QF", "lat": 53.425821, "lng": -2.972067, "districtCode": "E08000012"}, {"id": "school-104640", "type": "school", "name": "St Finbar's Catholic Primary School", "address": "South Hill Road, Liverpool", "postcode": "L8 9RY", "lat": 53.380241, "lng": -2.959947, "districtCode": "E08000012"}, {"id": "school-104641", "type": "school", "name": "Sacred Heart Catholic Primary School and Nursery", "address": "Hall Lane, Liverpool", "postcode": "L7 8TQ", "lat": 53.408381, "lng": -2.9587, "districtCode": "E08000012"}, {"id": "school-104649", "type": "school", "name": "St Cuthbert's Catholic Primary and Nursery School", "address": "30 Church Road, Liverpool", "postcode": "L13 2BA", "lat": 53.413665, "lng": -2.923624, "districtCode": "E08000012"}, {"id": "school-104650", "type": "school", "name": "St Francis de Sales Catholic Junior School", "address": "Hale Road, Liverpool", "postcode": "L4 3RL", "lat": 53.442182, "lng": -2.972184, "districtCode": "E08000012"}, {"id": "school-104651", "type": "school", "name": "St Francis de Sales Catholic Infant and Nursery School", "address": "Margaret Road, Liverpool", "postcode": "L4 3RX", "lat": 53.443324, "lng": -2.971081, "districtCode": "E08000012"}, {"id": "school-104652", "type": "school", "name": "St Hugh's Catholic Primary School", "address": "Earle Road, Liverpool", "postcode": "L7 6HE", "lat": 53.398327, "lng": -2.938739, "districtCode": "E08000012"}, {"id": "school-104667", "type": "school", "name": "St Vincent de Paul Catholic Primary School", "address": "St Vincent de Paul Catholic Primary School      Pitt Street, Liverpool", "postcode": "L1 5BY", "lat": 53.39957, "lng": -2.98087, "districtCode": "E08000012"}, {"id": "school-104670", "type": "school", "name": "Our Lady of Good Help Catholic Primary School", "address": "South Drive, Liverpool", "postcode": "L15 8JL", "lat": 53.399608, "lng": -2.916144, "districtCode": "E08000012"}, {"id": "school-104673", "type": "school", "name": "St Paul's and St Timothy's Catholic Infant School", "address": "South Parkside Drive, Liverpool", "postcode": "L12 8RP", "lat": 53.42989, "lng": -2.900283, "districtCode": "E08000012"}, {"id": "school-104676", "type": "school", "name": "St Anthony of Padua Catholic Primary School", "address": "Sands Road Off Elmsley Road, Liverpool", "postcode": "L18 8BD", "lat": 53.382006, "lng": -2.917345, "districtCode": "E08000012"}, {"id": "school-104678", "type": "school", "name": "St Gregory's Catholic Primary School", "address": "Montreal Road, Liverpool", "postcode": "L27 7AG", "lat": 53.388949, "lng": -2.837386, "districtCode": "E08000012"}, {"id": "school-104681", "type": "school", "name": "St Anne's Catholic Primary School", "address": "Overbury Street, Liverpool", "postcode": "L7 3HJ", "lat": 53.403136, "lng": -2.95246, "districtCode": "E08000012"}, {"id": "school-104682", "type": "school", "name": "King David Primary School", "address": "Childwall Rd, Liverpool", "postcode": "L15 6WU", "lat": 53.395935, "lng": -2.900348, "districtCode": "E08000012"}, {"id": "school-104698", "type": "school", "name": "Calderstones School", "address": "Harthill Road, Liverpool", "postcode": "L18 3HS", "lat": 53.383195, "lng": -2.899297, "districtCode": "E08000012"}, {"id": "school-104703", "type": "school", "name": "King David High School", "address": "116 Childwall Road, Liverpool", "postcode": "L15 6WU", "lat": 53.395738, "lng": -2.899005, "districtCode": "E08000012"}, {"id": "school-104712", "type": "school", "name": "St Julie's Catholic High School", "address": "Speke Road, Liverpool", "postcode": "L25 7TN", "lat": 53.372117, "lng": -2.864234, "districtCode": "E08000012"}, {"id": "school-104713", "type": "school", "name": "Broughton Hall Catholic High School", "address": "Yew Tree Lane, Liverpool", "postcode": "L12 9HJ", "lat": 53.423886, "lng": -2.885737, "districtCode": "E08000012"}, {"id": "school-104714", "type": "school", "name": "Cardinal Heenan Catholic High School", "address": "Honeysgreen Lane, Liverpool", "postcode": "L12 9HZ", "lat": 53.423235, "lng": -2.888568, "districtCode": "E08000012"}, {"id": "school-104717", "type": "school", "name": "Archbishop Beck Catholic College", "address": "55 Long Lane, Liverpool", "postcode": "L9 7BF", "lat": 53.462041, "lng": -2.949816, "districtCode": "E08000012"}, {"id": "school-104721", "type": "school", "name": "St Hilda's Church of England High School", "address": "Croxteth Drive, Liverpool", "postcode": "L17 3AL", "lat": 53.388024, "lng": -2.937671, "districtCode": "E08000012"}, {"id": "school-104729", "type": "school", "name": "The Belvedere Preparatory School", "address": "23 Belvidere Road, Liverpool", "postcode": "L8 3TF", "lat": 53.384492, "lng": -2.955607, "districtCode": "E08000012"}, {"id": "school-104730", "type": "school", "name": "Christian Fellowship School", "address": "Overbury Street, Liverpool", "postcode": "L7 3HL", "lat": 53.402454, "lng": -2.952324, "districtCode": "E08000012"}, {"id": "school-104734", "type": "school", "name": "St Vincent's School - A Specialist School for Sensory Impairment and Other Needs", "address": "Yew Tree Lane, Liverpool", "postcode": "L12 9HN", "lat": 53.426482, "lng": -2.882299, "districtCode": "E08000012"}, {"id": "school-104735", "type": "school", "name": "Royal School for the Blind (Liverpool)", "address": "Church Road North, Liverpool", "postcode": "L15 6TQ", "lat": 53.395445, "lng": -2.915107, "districtCode": "E08000012"}, {"id": "school-104739", "type": "school", "name": "Woolton High School", "address": "Woolton Hill Road, Liverpool", "postcode": "L25 6JA", "lat": 53.383098, "lng": -2.877267, "districtCode": "E08000012"}, {"id": "school-104748", "type": "school", "name": "Palmerston School", "address": "Minehead Road, Liverpool", "postcode": "L17 6AU", "lat": 53.367339, "lng": -2.929445, "districtCode": "E08000012"}, {"id": "school-104749", "type": "school", "name": "Redbridge High School", "address": "179 Long Lane, Liverpool", "postcode": "L9 6AD", "lat": 53.455297, "lng": -2.930552, "districtCode": "E08000012"}, {"id": "school-104750", "type": "school", "name": "Princes School", "address": "Selborne Street, Liverpool", "postcode": "L8 1YQ", "lat": 53.396649, "lng": -2.955323, "districtCode": "E08000012"}, {"id": "school-104757", "type": "school", "name": "Pace", "address": "Derbyshire Hill Road, St Helens", "postcode": "WA9 2LH", "lat": 53.45166, "lng": -2.693257, "districtCode": "E08000013"}, {"id": "school-104758", "type": "school", "name": "Allanson Street Primary School", "address": "Gaskell Street, Merseyside", "postcode": "WA9 1PL", "lat": 53.447914, "lng": -2.712637, "districtCode": "E08000013"}, {"id": "school-104761", "type": "school", "name": "Rivington Primary School", "address": "Tennis Street North, St Helens", "postcode": "WA10 6LF", "lat": 53.461986, "lng": -2.750276, "districtCode": "E08000013"}, {"id": "school-104762", "type": "school", "name": "Robins Lane Community Primary School", "address": "Kinmel Street, St Helens", "postcode": "WA9 3NF", "lat": 53.438425, "lng": -2.717928, "districtCode": "E08000013"}, {"id": "school-104763", "type": "school", "name": "Thatto Heath Community Primary School", "address": "Hobart Street, St Helens", "postcode": "WA9 5QX", "lat": 53.436453, "lng": -2.7521, "districtCode": "E08000013"}, {"id": "school-104764", "type": "school", "name": "Sutton Manor Community Primary School", "address": "Forest Road, St Helens", "postcode": "WA9 4AT", "lat": 53.413161, "lng": -2.730172, "districtCode": "E08000013"}, {"id": "school-104769", "type": "school", "name": "Sherdley Primary School", "address": "Mill Lane, St Helens", "postcode": "WA9 4HA", "lat": 53.427225, "lng": -2.717634, "districtCode": "E08000013"}, {"id": "school-104770", "type": "school", "name": "Eaves Primary School", "address": "Eaves Lane, St Helens", "postcode": "WA9 3UB", "lat": 53.429988, "lng": -2.72021, "districtCode": "E08000013"}, {"id": "school-104771", "type": "school", "name": "Ashurst Primary School", "address": "New Glade Hill, St Helens", "postcode": "WA11 9QJ", "lat": 53.465608, "lng": -2.707721, "districtCode": "E08000013"}, {"id": "school-104773", "type": "school", "name": "Bleak Hill Primary School", "address": "Hamilton Road, St Helens", "postcode": "WA10 6HG", "lat": 53.462633, "lng": -2.768651, "districtCode": "E08000013"}, {"id": "school-104774", "type": "school", "name": "Grange Valley Primary School", "address": "Heyes Avenue, St Helens", "postcode": "WA11 0XQ", "lat": 53.462634, "lng": -2.668429, "districtCode": "E08000013"}, {"id": "school-104775", "type": "school", "name": "Newton-le-Willows Primary School", "address": "Sanderling Road, Newton-le-Willows", "postcode": "WA12 9UF", "lat": 53.453849, "lng": -2.625518, "districtCode": "E08000013"}, {"id": "school-104776", "type": "school", "name": "Lyme Community Primary School", "address": "Lyme Street, Newton-le-Willows", "postcode": "WA12 9HD", "lat": 53.45642, "lng": -2.652517, "districtCode": "E08000013"}, {"id": "school-104777", "type": "school", "name": "Longton Lane Community Primary School", "address": "Longton Lane, St Helens", "postcode": "L35 8PB", "lat": 53.422373, "lng": -2.772018, "districtCode": "E08000013"}, {"id": "school-104778", "type": "school", "name": "Garswood Primary and Nursery School", "address": "Hamilton Road, Wigan", "postcode": "WN4 0SF", "lat": 53.490357, "lng": -2.67188, "districtCode": "E08000013"}, {"id": "school-104782", "type": "school", "name": "Legh Vale Primary School", "address": "Legh Road, St Helens", "postcode": "WA11 0ER", "lat": 53.465612, "lng": -2.683767, "districtCode": "E08000013"}, {"id": "school-104783", "type": "school", "name": "Eccleston Mere Primary School", "address": "Saleswood Avenue, St Helens", "postcode": "WA10 5NX", "lat": 53.450638, "lng": -2.777485, "districtCode": "E08000013"}, {"id": "school-104784", "type": "school", "name": "Merton Bank Primary School", "address": "Roper Street, St Helens", "postcode": "WA9 1EJ", "lat": 53.45662, "lng": -2.716488, "districtCode": "E08000013"}, {"id": "school-104787", "type": "school", "name": "Wargrave CofE Primary School", "address": "Bradlegh Road, Newton-le-Willows", "postcode": "WA12 8QL", "lat": 53.445435, "lng": -2.63074, "districtCode": "E08000013"}, {"id": "school-104788", "type": "school", "name": "Eccleston Lane Ends Primary School", "address": "Albany Avenue, Prescot", "postcode": "L34 2QN", "lat": 53.431967, "lng": -2.789699, "districtCode": "E08000011"}, {"id": "school-104791", "type": "school", "name": "Sutton Oak CofE Primary School", "address": "Goodban Street, St Helens", "postcode": "WA9 3QD", "lat": 53.438409, "lng": -2.702526, "districtCode": "E08000013"}, {"id": "school-104797", "type": "school", "name": "Rectory CofE Primary School", "address": "Rectory Road, Wigan", "postcode": "WN4 0QF", "lat": 53.498317, "lng": -2.666231, "districtCode": "E08000013"}, {"id": "school-104798", "type": "school", "name": "St Aidan's CofE Primary School Billinge", "address": "Off London Fields, Wigan", "postcode": "WN5 7LS", "lat": 53.497759, "lng": -2.702527, "districtCode": "E08000013"}, {"id": "school-104801", "type": "school", "name": "St Peter's CofE Primary School", "address": "Birley Street, Newton-le-Willows", "postcode": "WA12 9UR", "lat": 53.455651, "lng": -2.616237, "districtCode": "E08000013"}, {"id": "school-104802", "type": "school", "name": "St. Mary's Blackbrook Catholic Primary School", "address": "Chain Lane, St Helens", "postcode": "WA11 9QY", "lat": 53.464125, "lng": -2.704578, "districtCode": "E08000013"}, {"id": "school-104804", "type": "school", "name": "Holy Cross Catholic Primary School", "address": "Charles Street, St Helens", "postcode": "WA10 1LN", "lat": 53.455419, "lng": -2.730626, "districtCode": "E08000013"}, {"id": "school-104805", "type": "school", "name": "St Anne's Catholic Primary School", "address": "Monastery Lane, St Helens", "postcode": "WA9 3SP", "lat": 53.431604, "lng": -2.70693, "districtCode": "E08000013"}, {"id": "school-104806", "type": "school", "name": "St Austin's Catholic Primary School", "address": "Heath Street, St Helens", "postcode": "WA9 5NJ", "lat": 53.434542, "lng": -2.758479, "districtCode": "E08000013"}, {"id": "school-104807", "type": "school", "name": "St Teresa's Catholic Primary School, Devon Street", "address": "St Teresa's Catholic Primary School, Devon Street, St Helens", "postcode": "WA10 4HX", "lat": 53.453913, "lng": -2.756023, "districtCode": "E08000013"}, {"id": "school-104809", "type": "school", "name": "St Thomas of Canterbury Catholic Primary School", "address": "Rainford Road, St Helens", "postcode": "WA10 6BX", "lat": 53.465458, "lng": -2.759889, "districtCode": "E08000013"}, {"id": "school-104810", "type": "school", "name": "St Peter and St Paul Catholic Primary School", "address": "Derwent Road, St Helens", "postcode": "WA11 9AT", "lat": 53.469935, "lng": -2.723778, "districtCode": "E08000013"}, {"id": "school-104812", "type": "school", "name": "St John Vianney Catholic Primary School", "address": "Elton Head Road, St Helens", "postcode": "WA9 5BT", "lat": 53.427837, "lng": -2.746996, "districtCode": "E08000013"}, {"id": "school-104813", "type": "school", "name": "St Mary's Catholic Primary School", "address": "St Mary's School, Birchley Road, Nr Wigan", "postcode": "WN5 7QJ", "lat": 53.491045, "lng": -2.715862, "districtCode": "E08000013"}, {"id": "school-104814", "type": "school", "name": "Corpus Christi Catholic Primary School", "address": "Old Lane, St Helens", "postcode": "WA11 8JF", "lat": 53.505334, "lng": -2.789433, "districtCode": "E08000013"}, {"id": "school-104818", "type": "school", "name": "Haydock English Martyrs' Primary School", "address": "Piele Road, St. Helens", "postcode": "WA11 0JY", "lat": 53.468403, "lng": -2.660746, "districtCode": "E08000013"}, {"id": "school-104819", "type": "school", "name": "St Julie's Catholic Primary School", "address": "Brooklands Road, St Helens", "postcode": "WA10 5HG", "lat": 53.456549, "lng": -2.780847, "districtCode": "E08000013"}, {"id": "school-104823", "type": "school", "name": "St Theresa's Catholic Primary School", "address": "Cannon Street, St Helens", "postcode": "WA9 4XU", "lat": 53.416813, "lng": -2.72101, "districtCode": "E08000013"}, {"id": "school-104829", "type": "school", "name": "Cowley International College", "address": "Hard Lane, St Helens", "postcode": "WA10 6PN", "lat": 53.465464, "lng": -2.748937, "districtCode": "E08000013"}, {"id": "school-104835", "type": "school", "name": "St Cuthbert's Catholic High School", "address": "Berrys Lane, St Helens", "postcode": "WA9 3HE", "lat": 53.443381, "lng": -2.699341, "districtCode": "E08000013"}, {"id": "school-104839", "type": "school", "name": "Progress Arc  Billinge School", "address": "Carr Mill Road, Wigan", "postcode": "WN5 7TT", "lat": 53.491736, "lng": -2.708593, "districtCode": "E08000013"}, {"id": "school-104843", "type": "school", "name": "Willow Bank School", "address": "Winwick Road, Newton-le-Willows", "postcode": "WA12 8DE", "lat": 53.449217, "lng": -2.657813, "districtCode": "E08000013"}, {"id": "school-104845", "type": "school", "name": "Crossens Nursery School", "address": "Preston New Road, Southport", "postcode": "PR9 8PA", "lat": 53.665594, "lng": -2.961289, "districtCode": "E08000014"}, {"id": "school-104848", "type": "school", "name": "Greenacre Community Nursery School", "address": "Province Place, Bootle", "postcode": "L20 6PJ", "lat": 53.461651, "lng": -2.98465, "districtCode": "E08000014"}, {"id": "school-104850", "type": "school", "name": "Jigsaw Primary Pupil Referral Unit", "address": "Stannyfield Drive, Liverpool", "postcode": "L23 1TY", "lat": 53.497161, "lng": -2.99868, "districtCode": "E08000014"}, {"id": "school-104856", "type": "school", "name": "Netherton Moss Primary School", "address": "Swifts Lane, Bootle", "postcode": "L30 3RU", "lat": 53.486107, "lng": -2.97869, "districtCode": "E08000014"}, {"id": "school-104860", "type": "school", "name": "Birkdale Primary School", "address": "Matlock Road, Southport", "postcode": "PR8 4EL", "lat": 53.631351, "lng": -3.00416, "districtCode": "E08000014"}, {"id": "school-104862", "type": "school", "name": "Farnborough Road Junior School", "address": "Farnborough Road, Southport", "postcode": "PR8 3DF", "lat": 53.615786, "lng": -3.012046, "districtCode": "E08000014"}, {"id": "school-104863", "type": "school", "name": "Farnborough Road Infant School", "address": "Farnborough Road, Southport", "postcode": "PR8 3DF", "lat": 53.615786, "lng": -3.012046, "districtCode": "E08000014"}, {"id": "school-104865", "type": "school", "name": "Norwood Primary School", "address": "Norwood Crescent, Southport", "postcode": "PR9 7DU", "lat": 53.647955, "lng": -2.978091, "districtCode": "E08000014"}, {"id": "school-104866", "type": "school", "name": "Marshside Primary School", "address": "Elswick Road, Southport", "postcode": "PR9 9XA", "lat": 53.673402, "lng": -2.968401, "districtCode": "E08000014"}, {"id": "school-104879", "type": "school", "name": "Northway Primary School", "address": "Dodds Lane, Liverpool", "postcode": "L31 9AA", "lat": 53.520287, "lng": -2.93368, "districtCode": "E08000014"}, {"id": "school-104881", "type": "school", "name": "Woodlands Primary School", "address": "Woodlands Road, Liverpool", "postcode": "L37 2JN", "lat": 53.55574, "lng": -3.076317, "districtCode": "E08000014"}, {"id": "school-104883", "type": "school", "name": "Freshfield Primary School", "address": "Watchyard Lane, Liverpool", "postcode": "L37 3JT", "lat": 53.562728, "lng": -3.049676, "districtCode": "E08000014"}, {"id": "school-104884", "type": "school", "name": "Green Park Primary School", "address": "Green Lane, Liverpool", "postcode": "L31 8BW", "lat": 53.518826, "lng": -2.952473, "districtCode": "E08000014"}, {"id": "school-104886", "type": "school", "name": "Kings Meadow Primary School and Early Years Education Centre", "address": "Meadow Lane, Southport", "postcode": "PR8 3RS", "lat": 53.591362, "lng": -3.035094, "districtCode": "E08000014"}, {"id": "school-104887", "type": "school", "name": "Larkfield Primary School", "address": "Preston New Road, Southport", "postcode": "PR9 8PA", "lat": 53.665622, "lng": -2.961048, "districtCode": "E08000014"}, {"id": "school-104891", "type": "school", "name": "Lydiate Primary School", "address": "Lambshear Lane, Liverpool", "postcode": "L31 2JZ", "lat": 53.526776, "lng": -2.946481, "districtCode": "E08000014"}, {"id": "school-104893", "type": "school", "name": "Christ Church Church of England Controlled Primary School", "address": "Brookhill Road, Bootle", "postcode": "L20 3JL", "lat": 53.452702, "lng": -2.984097, "districtCode": "E08000014"}, {"id": "school-104894", "type": "school", "name": "St John's Church of England Primary School", "address": "Rufford Road, Southport", "postcode": "PR9 8JH", "lat": 53.674745, "lng": -2.9466, "districtCode": "E08000014"}, {"id": "school-104897", "type": "school", "name": "St Luke's Church of England Primary School", "address": "Jubilee Road, Formby", "postcode": "L37 2HW", "lat": 53.549855, "lng": -3.075971, "districtCode": "E08000014"}, {"id": "school-104900", "type": "school", "name": "St Oswald's Church of England Primary School", "address": "Ronald Ross Avenue, Bootle", "postcode": "L30 5RH", "lat": 53.486461, "lng": -2.968449, "districtCode": "E08000014"}, {"id": "school-104902", "type": "school", "name": "St Philip's Church of England Primary School", "address": "Hampton Road, Southport", "postcode": "PR8 6SS", "lat": 53.641806, "lng": -2.991217, "districtCode": "E08000014"}, {"id": "school-104915", "type": "school", "name": "Holy Family Catholic Primary School", "address": "Norwood Crescent, Southport", "postcode": "PR9 7DU", "lat": 53.648715, "lng": -2.978578, "districtCode": "E08000014"}, {"id": "school-104918", "type": "school", "name": "St Patrick's Catholic Primary School", "address": "Radnor Drive, Southport", "postcode": "PR9 9RR", "lat": 53.663005, "lng": -2.966831, "districtCode": "E08000014"}, {"id": "school-104920", "type": "school", "name": "St John's Church of England Primary School", "address": "Denmark Street, Liverpool", "postcode": "L22 9RG", "lat": 53.477257, "lng": -3.029452, "districtCode": "E08000014"}, {"id": "school-104921", "type": "school", "name": "St Luke's Halsall Church of England Primary School", "address": "Cooks Road, Liverpool", "postcode": "L23 2TB", "lat": 53.493339, "lng": -3.026464, "districtCode": "E08000014"}, {"id": "school-104922", "type": "school", "name": "St Nicholas Church of England Primary School", "address": "Nicholas Road, Liverpool", "postcode": "L23 6TS", "lat": 53.484418, "lng": -3.041381, "districtCode": "E08000014"}, {"id": "school-104925", "type": "school", "name": "St George's Catholic Primary School", "address": "Dennett Close, Liverpool", "postcode": "L31 5PD", "lat": 53.50494, "lng": -2.940822, "districtCode": "E08000014"}, {"id": "school-104926", "type": "school", "name": "Great Crosby Catholic Primary School", "address": "The Northern Road, Liverpool", "postcode": "L23 2RQ", "lat": 53.489637, "lng": -3.017843, "districtCode": "E08000014"}, {"id": "school-104929", "type": "school", "name": "Our Lady Star of the Sea Catholic Primary School", "address": "Seaforth, Select", "postcode": "L21 3TE", "lat": 53.463695, "lng": -3.003739, "districtCode": "E08000014"}, {"id": "school-104930", "type": "school", "name": "Our Lady of Compassion Catholic Primary School", "address": "Bull Cop, Liverpool", "postcode": "L37 8BZ", "lat": 53.556535, "lng": -3.050565, "districtCode": "E08000014"}, {"id": "school-104932", "type": "school", "name": "St Elizabeth's Catholic Primary School", "address": "Webster Street, Liverpool", "postcode": "L21 8JH", "lat": 53.463379, "lng": -2.992072, "districtCode": "E08000014"}, {"id": "school-104934", "type": "school", "name": "St William of York Catholic Primary School", "address": "St William Road, Liverpool", "postcode": "L23 9XH", "lat": 53.495631, "lng": -3.000061, "districtCode": "E08000014"}, {"id": "school-104937", "type": "school", "name": "Ursuline Catholic Primary School", "address": "Nicholas Road, Liverpool", "postcode": "L23 6TT", "lat": 53.485815, "lng": -3.044023, "districtCode": "E08000014"}, {"id": "school-104941", "type": "school", "name": "St John Bosco Catholic Primary School", "address": "Green Lane, Liverpool", "postcode": "L31 8BW", "lat": 53.518587, "lng": -2.953177, "districtCode": "E08000014"}, {"id": "school-104942", "type": "school", "name": "Bishop David Sheppard Church of England Primary School", "address": "Devonshire Road, Southport", "postcode": "PR9 7BZ", "lat": 53.6492, "lng": -2.960871, "districtCode": "E08000014"}, {"id": "school-104964", "type": "school", "name": "Christ The King Catholic High School and Sixth Form Centre", "address": "Stamford Road, Southport", "postcode": "PR8 4EX", "lat": 53.626281, "lng": -3.000849, "districtCode": "E08000014"}, {"id": "school-104972", "type": "school", "name": "St. Mary's College", "address": "St. Mary's College, Liverpool", "postcode": "L23 5TW", "lat": 53.488158, "lng": -3.024666, "districtCode": "E08000014"}, {"id": "school-104973", "type": "school", "name": "Merchant Taylors' Schools", "address": "186 Liverpool Road, Liverpool", "postcode": "L23 0QP", "lat": 53.483527, "lng": -3.023771, "districtCode": "E08000014"}, {"id": "school-104977", "type": "school", "name": "Presfield High School and Specialist College", "address": "Preston New Road, Southport", "postcode": "PR9 8PA", "lat": 53.666413, "lng": -2.961111, "districtCode": "E08000014"}, {"id": "school-104980", "type": "school", "name": "Crosby High School", "address": "De Villiers Avenue, Liverpool", "postcode": "L23 2TH", "lat": 53.496654, "lng": -3.018388, "districtCode": "E08000014"}, {"id": "school-104982", "type": "school", "name": "Newfield School", "address": "Edge Lane, Liverpool", "postcode": "L23 4TG", "lat": 53.495064, "lng": -2.996897, "districtCode": "E08000014"}, {"id": "school-104984", "type": "school", "name": "Somerville Nursery School", "address": "Brentwood Street, Wallasey", "postcode": "CH44 4BB", "lat": 53.410701, "lng": -3.032975, "districtCode": "E08000015"}, {"id": "school-104985", "type": "school", "name": "Castleway Nursery School", "address": "Castleway North, Wirral", "postcode": "CH46 1RN", "lat": 53.415507, "lng": -3.088106, "districtCode": "E08000015"}, {"id": "school-104986", "type": "school", "name": "Ganneys Meadow Nursery School and Family Centre", "address": "New Hey Road, Wirral", "postcode": "CH49 8HB", "lat": 53.376672, "lng": -3.080967, "districtCode": "E08000015"}, {"id": "school-104988", "type": "school", "name": "Bedford Drive Primary School", "address": "Bedford Drive, Birkenhead", "postcode": "CH42 6RT", "lat": 53.369257, "lng": -3.022607, "districtCode": "E08000015"}, {"id": "school-104990", "type": "school", "name": "Woodlands Primary School", "address": "Hollybank Road, Birkenhead", "postcode": "CH41 2SY", "lat": 53.386053, "lng": -3.025415, "districtCode": "E08000015"}, {"id": "school-104991", "type": "school", "name": "Devonshire Park Primary School", "address": "Temple Road, Birkenhead", "postcode": "CH42 9JX", "lat": 53.374439, "lng": -3.032533, "districtCode": "E08000015"}, {"id": "school-104992", "type": "school", "name": "New Brighton Primary School", "address": "Vaughan Road, Wallasey", "postcode": "CH45 1LH", "lat": 53.433907, "lng": -3.037828, "districtCode": "E08000015"}, {"id": "school-104993", "type": "school", "name": "Mount Primary School", "address": "Mount Pleasant Road, Wirral", "postcode": "CH45 5HU", "lat": 53.42895, "lng": -3.049583, "districtCode": "E08000015"}, {"id": "school-104994", "type": "school", "name": "Liscard Primary School", "address": "Withens Lane, Wallasey", "postcode": "CH45 7NQ", "lat": 53.423911, "lng": -3.035658, "districtCode": "E08000015"}, {"id": "school-104995", "type": "school", "name": "St George's Primary School", "address": "St George's Road, Wallasey", "postcode": "CH45 3NF", "lat": 53.422771, "lng": -3.06105, "districtCode": "E08000015"}, {"id": "school-104996", "type": "school", "name": "Riverside Primary School", "address": "Brighton Street, Wirral", "postcode": "CH44 6QW", "lat": 53.413616, "lng": -3.02024}, {"id": "school-104997", "type": "school", "name": "Kingsway Primary School", "address": "Ashville Road, Wallasey", "postcode": "CH44 9EF", "lat": 53.409955, "lng": -3.029887, "districtCode": "E08000015"}, {"id": "school-104999", "type": "school", "name": "Park Primary School", "address": "Love Lane, Wallasey", "postcode": "CH44 5RN", "lat": 53.414825, "lng": -3.045654, "districtCode": "E08000015"}, {"id": "school-105000", "type": "school", "name": "Somerville Primary School", "address": "Northbrook Road, Wallasey", "postcode": "CH44 9AR", "lat": 53.412534, "lng": -3.031048, "districtCode": "E08000015"}, {"id": "school-105001", "type": "school", "name": "Eastway Primary School", "address": "Rossall Road, Wirral", "postcode": "CH46 8TA", "lat": 53.405352, "lng": -3.105328, "districtCode": "E08000015"}, {"id": "school-105002", "type": "school", "name": "Castleway Primary School", "address": "Castleway North, Wirral", "postcode": "CH46 1RN", "lat": 53.415637, "lng": -3.096446, "districtCode": "E08000015"}, {"id": "school-105004", "type": "school", "name": "Greenleas Primary School", "address": "Green Lane, Wallasey", "postcode": "CH45 8LZ", "lat": 53.425118, "lng": -3.076085, "districtCode": "E08000015"}, {"id": "school-105005", "type": "school", "name": "Lingham Primary School", "address": "Townmeadow Lane, Wirral", "postcode": "CH46 7UQ", "lat": 53.403055, "lng": -3.117394, "districtCode": "E08000015"}, {"id": "school-105009", "type": "school", "name": "Higher Bebington Junior School", "address": "Mill Road, Wirral", "postcode": "CH63 8QE", "lat": 53.354385, "lng": -3.028036, "districtCode": "E08000015"}, {"id": "school-105011", "type": "school", "name": "Grove Street Primary School", "address": "Grove Street Primary School, Wirral", "postcode": "CH62 5BA", "lat": 53.360887, "lng": -2.999278, "districtCode": "E08000015"}, {"id": "school-105015", "type": "school", "name": "Thornton Hough Primary School", "address": "St George's Way, Wirral", "postcode": "CH63 1JJ", "lat": 53.321266, "lng": -3.043561, "districtCode": "E08000015"}, {"id": "school-105018", "type": "school", "name": "Brookhurst Primary School", "address": "Brookhurst Road, Wirral", "postcode": "CH63 0EH", "lat": 53.318193, "lng": -2.98735, "districtCode": "E08000015"}, {"id": "school-105020", "type": "school", "name": "Raeburn Primary School", "address": "Morland Avenue, Wirral", "postcode": "CH62 6BD", "lat": 53.320616, "lng": -2.980274, "districtCode": "E08000015"}, {"id": "school-105021", "type": "school", "name": "Brackenwood Infant School", "address": "Pulford Road, Wirral", "postcode": "CH63 2HN", "lat": 53.350865, "lng": -3.012821, "districtCode": "E08000015"}, {"id": "school-105022", "type": "school", "name": "Greasby Infant School", "address": "Barker Lane, Wirral", "postcode": "CH49 3NX", "lat": 53.373593, "lng": -3.120381, "districtCode": "E08000015"}, {"id": "school-105023", "type": "school", "name": "West Kirby Primary School", "address": "Anglesey Road, Wirral", "postcode": "CH48 5EQ", "lat": 53.377376, "lng": -3.182092, "districtCode": "E08000015"}, {"id": "school-105027", "type": "school", "name": "Black Horse Hill Infant School", "address": "Saughall Massie Road, Wirral", "postcode": "CH48 6DR", "lat": 53.377247, "lng": -3.161371, "districtCode": "E08000015"}, {"id": "school-105030", "type": "school", "name": "Barnston Primary School", "address": "Sandham Grove, Wirral", "postcode": "CH60 1XW", "lat": 53.323223, "lng": -3.075276, "districtCode": "E08000015"}, {"id": "school-105039", "type": "school", "name": "Fender Primary School", "address": "New Hey Road, Wirral", "postcode": "CH49 8HB", "lat": 53.376672, "lng": -3.080967, "districtCode": "E08000015"}, {"id": "school-105042", "type": "school", "name": "Mersey Park Primary School", "address": "Elm Road, Wirral", "postcode": "CH42 0PH", "lat": 53.378066, "lng": -3.022683, "districtCode": "E08000015"}, {"id": "school-105043", "type": "school", "name": "Overchurch Infant School", "address": "Moreton Road, Wirral", "postcode": "CH49 4NS", "lat": 53.389902, "lng": -3.099995, "districtCode": "E08000015"}, {"id": "school-105048", "type": "school", "name": "Cathcart Street Primary School", "address": "Dover Close, Wirral", "postcode": "CH41 3JY", "lat": 53.394919, "lng": -3.026275, "districtCode": "E08000015"}, {"id": "school-105055", "type": "school", "name": "Leasowe Primary School", "address": "Oxley Avenue, Wirral", "postcode": "CH46 1RU", "lat": 53.412391, "lng": -3.088628, "districtCode": "E08000015"}, {"id": "school-105064", "type": "school", "name": "Birkenhead Christ Church CofE Primary School", "address": "Mount Grove, Birkenhead", "postcode": "CH41 2UJ", "lat": 53.38433, "lng": -3.032381, "districtCode": "E08000015"}, {"id": "school-105068", "type": "school", "name": "St Joseph's Catholic Primary School Upton", "address": "Moreton Road, Wirral", "postcode": "CH49 6LL", "lat": 53.386397, "lng": -3.097905, "districtCode": "E08000015"}, {"id": "school-105069", "type": "school", "name": "St Peter's Catholic Primary School", "address": "St Peter's Way, Prenton", "postcode": "CH43 9QR", "lat": 53.382787, "lng": -3.077739, "districtCode": "E08000015"}, {"id": "school-105070", "type": "school", "name": "St Paul's Catholic Primary School", "address": "Farmfield Drive, Prenton", "postcode": "CH43 7TE", "lat": 53.396225, "lng": -3.082004, "districtCode": "E08000015"}, {"id": "school-105073", "type": "school", "name": "St Joseph's Catholic Primary School, Wallasey", "address": "Wheatland Lane, Wallasey", "postcode": "CH44 7ED", "lat": 53.411311, "lng": -3.024819, "districtCode": "E08000015"}, {"id": "school-105074", "type": "school", "name": "Sacred Heart Catholic Primary School", "address": "Danger Lane, Wirral", "postcode": "CH46 8UG", "lat": 53.403995, "lng": -3.101397, "districtCode": "E08000015"}, {"id": "school-105079", "type": "school", "name": "Heswall St Peter's CofE Primary School", "address": "Thurstaston Road, Wirral", "postcode": "CH60 4SA", "lat": 53.325045, "lng": -3.101149, "districtCode": "E08000015"}, {"id": "school-105080", "type": "school", "name": "St John's Catholic Junior School", "address": "Old Chester Road, Wirral", "postcode": "CH63 7LH", "lat": 53.360276, "lng": -3.007709, "districtCode": "E08000015"}, {"id": "school-105081", "type": "school", "name": "Christ The King Catholic Primary School", "address": "Allport Road, Wirral", "postcode": "CH62 6AE", "lat": 53.3251, "lng": -2.971713, "districtCode": "E08000015"}, {"id": "school-105082", "type": "school", "name": "St John's Catholic Infant School", "address": "Old Chester Road, Wirral", "postcode": "CH63 7LH", "lat": 53.359713, "lng": -3.00729, "districtCode": "E08000015"}, {"id": "school-105084", "type": "school", "name": "Ladymount Catholic Primary School", "address": "Portal Road, Wirral", "postcode": "CH61 5YD", "lat": 53.341318, "lng": -3.103026, "districtCode": "E08000015"}, {"id": "school-105085", "type": "school", "name": "The Priory Parish CofE Primary School", "address": "The Priory Parish C of E Primary School, 1 Aberdeen Street, Birkenhead", "postcode": "CH41 4HS", "lat": 53.395118, "lng": -3.031319, "districtCode": "E08000015"}, {"id": "school-105086", "type": "school", "name": "Our Lady and St Edward's Catholic Primary School", "address": "Price Street, Birkenhead", "postcode": "CH41 8DU", "lat": 53.399739, "lng": -3.041689, "districtCode": "E08000015"}, {"id": "school-105087", "type": "school", "name": "Holy Cross Catholic Primary School", "address": "Gautby Road, Birkenhead", "postcode": "CH41 7DU", "lat": 53.402764, "lng": -3.064644, "districtCode": "E08000015"}, {"id": "school-105088", "type": "school", "name": "St Anne's Catholic Primary School", "address": "Highfield South, Birkenhead", "postcode": "CH42 4NE", "lat": 53.366276, "lng": -3.009429, "districtCode": "E08000015"}, {"id": "school-105090", "type": "school", "name": "St Michael and All Angels Catholic Primary School", "address": "New Hey Road, Wirral", "postcode": "CH49 5LE", "lat": 53.370995, "lng": -3.072465, "districtCode": "E08000015"}, {"id": "school-105091", "type": "school", "name": "St Werburgh's Catholic Primary School", "address": "Park Grove, Birkenhead", "postcode": "CH41 2TD", "lat": 53.385941, "lng": -3.029022, "districtCode": "E08000015"}, {"id": "school-105097", "type": "school", "name": "Ridgeway High School", "address": "Noctorum Avenue, Prenton", "postcode": "CH43 9EB", "lat": 53.380044, "lng": -3.071851, "districtCode": "E08000015"}, {"id": "school-105101", "type": "school", "name": "Pensby High School", "address": "Irby Road, Wirral", "postcode": "CH61 6XN", "lat": 53.343048, "lng": -3.112369, "districtCode": "E08000015"}, {"id": "school-105103", "type": "school", "name": "The Mosslands School", "address": "Mosslands Drive, Wallasey", "postcode": "CH45 8PJ", "lat": 53.418445, "lng": -3.065352, "districtCode": "E08000015"}, {"id": "school-105118", "type": "school", "name": "Prenton Preparatory School", "address": "Mount Pleasant, Prenton", "postcode": "CH43 5SY", "lat": 53.378632, "lng": -3.042437, "districtCode": "E08000015"}, {"id": "school-105122", "type": "school", "name": "Avalon School", "address": "Caldy Road, Wirral", "postcode": "CH48 2HE", "lat": 53.364191, "lng": -3.171687, "districtCode": "E08000015"}, {"id": "school-105123", "type": "school", "name": "Birkenhead School", "address": "58 Beresford Road, Prenton", "postcode": "CH43 2JD", "lat": 53.384583, "lng": -3.053815, "districtCode": "E08000015"}, {"id": "school-105128", "type": "school", "name": "Hayfield School", "address": "Manor Drive, Wirral", "postcode": "CH49 4LN", "lat": 53.391509, "lng": -3.095344, "districtCode": "E08000015"}, {"id": "school-105129", "type": "school", "name": "Clare Mount Specialist Sports College", "address": "Birket Avenue, Leasowe", "postcode": "CH46 1RA", "lat": 53.40512, "lng": -3.096326, "districtCode": "E08000015"}, {"id": "school-105130", "type": "school", "name": "Kilgarth School", "address": "Cavendish Street, Birkenhead", "postcode": "CH41 8BA", "lat": 53.399739, "lng": -3.041689, "districtCode": "E08000015"}, {"id": "school-105131", "type": "school", "name": "Foxfield School", "address": "New Hey Road, Woodchurch", "postcode": "CH49 5LF", "lat": 53.372635, "lng": -3.07395, "districtCode": "E08000015"}, {"id": "school-105132", "type": "school", "name": "Elleray Park School", "address": "Elleray Park Road, Wallasey", "postcode": "CH45 0LH", "lat": 53.430803, "lng": -3.050457, "districtCode": "E08000015"}, {"id": "school-105133", "type": "school", "name": "Meadowside School", "address": "Pool Lane, Wirral", "postcode": "CH49 5LA", "lat": 53.373694, "lng": -3.088137, "districtCode": "E08000015"}, {"id": "school-105134", "type": "school", "name": "Gilbrook School", "address": "Glebe Hey Road", "postcode": "CH49 8HE", "lat": 53.377517, "lng": -3.090836, "districtCode": "E08000015"}, {"id": "school-105137", "type": "school", "name": "West Kirby School and College", "address": "Meols Drive, Wirral", "postcode": "CH48 5DH", "lat": 53.375342, "lng": -3.18411, "districtCode": "E08000015"}, {"id": "school-105138", "type": "school", "name": "Stanley School", "address": "Greenbank Drive, Wirral", "postcode": "CH61 5UE", "lat": 53.34114, "lng": -3.095015, "districtCode": "E08000015"}, {"id": "school-105144", "type": "school", "name": "Grosvenor Nursery School and Day Care Centre", "address": "Lord Street, Bolton", "postcode": "BL4 8AR", "lat": 53.54694, "lng": -2.386792, "districtCode": "E08000001"}, {"id": "school-105145", "type": "school", "name": "The Orchards Nursery School", "address": "Lower Orchards, Bolton", "postcode": "BL4 0RA", "lat": 53.546161, "lng": -2.430828, "districtCode": "E08000001"}, {"id": "school-105148", "type": "school", "name": "Brandwood Primary School", "address": "Brandwood Street, Bolton", "postcode": "BL3 4BG", "lat": 53.565605, "lng": -2.450384, "districtCode": "E08000001"}, {"id": "school-105149", "type": "school", "name": "Brownlow Fold Primary School", "address": "Darley Street, Bolton", "postcode": "BL1 3DX", "lat": 53.589019, "lng": -2.441613, "districtCode": "E08000001"}, {"id": "school-105150", "type": "school", "name": "Castle Hill Primary School", "address": "Castle Hill Street, Bolton", "postcode": "BL2 2JT", "lat": 53.594347, "lng": -2.412172, "districtCode": "E08000001"}, {"id": "school-105152", "type": "school", "name": "Church Road Primary School", "address": "Captains Clough Road, Bolton", "postcode": "BL1 5RU", "lat": 53.591553, "lng": -2.460799, "districtCode": "E08000001"}, {"id": "school-105153", "type": "school", "name": "Clarendon Primary School", "address": "Recreation Street, Bolton", "postcode": "BL3 6SN", "lat": 53.56661, "lng": -2.433829, "districtCode": "E08000001"}, {"id": "school-105154", "type": "school", "name": "Devonshire Road Primary School", "address": "Devonshire Road, Bolton", "postcode": "BL1 4ND", "lat": 53.581675, "lng": -2.458153, "districtCode": "E08000001"}, {"id": "school-105155", "type": "school", "name": "Gaskell Community Primary School", "address": "Thomas Holden Street, Bolton", "postcode": "BL1 2QG", "lat": 53.584035, "lng": -2.437709, "districtCode": "E08000001"}, {"id": "school-105156", "type": "school", "name": "High Lawn Primary School", "address": "Holden Avenue, Bolton", "postcode": "BL1 7EX", "lat": 53.608559, "lng": -2.432536, "districtCode": "E08000001"}, {"id": "school-105159", "type": "school", "name": "Markland Hill Primary School", "address": "Markland Hill, Bolton", "postcode": "BL1 5EJ", "lat": 53.585345, "lng": -2.475959, "districtCode": "E08000001"}, {"id": "school-105160", "type": "school", "name": "Oxford Grove Primary School", "address": "Shepherd Cross Street, Bolton", "postcode": "BL1 3EJ", "lat": 53.589178, "lng": -2.44728, "districtCode": "E08000001"}, {"id": "school-105161", "type": "school", "name": "Pikes Lane Primary School", "address": "Gibraltar Street, Bolton", "postcode": "BL3 5HU", "lat": 53.573928, "lng": -2.443404, "districtCode": "E08000001"}, {"id": "school-105162", "type": "school", "name": "Sharples Primary School", "address": "Hugh Lupus Street, Bolton", "postcode": "BL1 8RU", "lat": 53.606256, "lng": -2.420466, "districtCode": "E08000001"}, {"id": "school-105163", "type": "school", "name": "Sunning Hill Primary School", "address": "Goldsmith Street, Bolton", "postcode": "BL3 6TR", "lat": 53.566029, "lng": -2.442551, "districtCode": "E08000001"}, {"id": "school-105168", "type": "school", "name": "Haslam Park Primary School", "address": "Wigan Road, Bolton", "postcode": "BL3 5QL", "lat": 53.56982, "lng": -2.455367, "districtCode": "E08000001"}, {"id": "school-105169", "type": "school", "name": "Ladybridge Community Primary School", "address": "Broadford Road, Bolton", "postcode": "BL3 4NB", "lat": 53.570573, "lng": -2.474283, "districtCode": "E08000001"}, {"id": "school-105171", "type": "school", "name": "Moorgate Primary School", "address": "Entwistle Street, Bolton", "postcode": "BL2 2RH", "lat": 53.585272, "lng": -2.408247, "districtCode": "E08000001"}, {"id": "school-105172", "type": "school", "name": "Heathfield Primary School", "address": "Henniker Road, Bolton", "postcode": "BL3 3TP", "lat": 53.555908, "lng": -2.461347, "districtCode": "E08000001"}, {"id": "school-105173", "type": "school", "name": "Beaumont Primary School", "address": "Wendover Drive, BOLTON", "postcode": "BL3 4RX", "lat": 53.569421, "lng": -2.479345, "districtCode": "E08000001"}, {"id": "school-105175", "type": "school", "name": "Blackshaw Primary School", "address": "Bideford Drive, Bolton", "postcode": "BL2 6TE", "lat": 53.573825, "lng": -2.376329, "districtCode": "E08000001"}, {"id": "school-105176", "type": "school", "name": "The Oaks Primary School", "address": "Sharples Hall Drive, Bolton", "postcode": "BL1 7HS", "lat": 53.609557, "lng": -2.424852, "districtCode": "E08000001"}, {"id": "school-105182", "type": "school", "name": "Highfield Primary School", "address": "Marsh Lane, Bolton", "postcode": "BL4 0AP", "lat": 53.547343, "lng": -2.419398, "districtCode": "E08000001"}, {"id": "school-105186", "type": "school", "name": "Kearsley West Primary School", "address": "Primrose Street, Bolton", "postcode": "BL4 9BZ", "lat": 53.542421, "lng": -2.386041, "districtCode": "E08000001"}, {"id": "school-105187", "type": "school", "name": "Cherry Tree Primary School", "address": "Highfield Road, Bolton", "postcode": "BL4 0NS", "lat": 53.546487, "lng": -2.430106, "districtCode": "E08000001"}, {"id": "school-105189", "type": "school", "name": "Hardy Mill Primary School", "address": "Hardy Mill Road, Bolton", "postcode": "BL2 4EF", "lat": 53.600272, "lng": -2.382141, "districtCode": "E08000001"}, {"id": "school-105190", "type": "school", "name": "Mytham Primary School", "address": "Mytham Road, Bolton", "postcode": "BL3 1JG", "lat": 53.559117, "lng": -2.36806, "districtCode": "E08000001"}, {"id": "school-105191", "type": "school", "name": "Blackrod Primary School", "address": "Manchester Road, BOLTON", "postcode": "BL6 5SY", "lat": 53.584305, "lng": -2.570081, "districtCode": "E08000001"}, {"id": "school-105192", "type": "school", "name": "Egerton Primary School", "address": "Cox Green Road, Bolton", "postcode": "BL7 9RE", "lat": 53.633581, "lng": -2.441095, "districtCode": "E08000001"}, {"id": "school-105195", "type": "school", "name": "Claypool Primary School", "address": "Salisbury Road, Bolton", "postcode": "BL6 6LN", "lat": 53.586102, "lng": -2.520883, "districtCode": "E08000001"}, {"id": "school-105196", "type": "school", "name": "Spindle Point Primary School", "address": "Moss Lane, Bolton", "postcode": "BL4 8SE", "lat": 53.533281, "lng": -2.362223, "districtCode": "E08000001"}, {"id": "school-105198", "type": "school", "name": "Gilnow Primary School", "address": "Gilnow Gardens, Bolton", "postcode": "BL1 4LG", "lat": 53.575261, "lng": -2.447526, "districtCode": "E08000001"}, {"id": "school-105202", "type": "school", "name": "Eatock Primary School", "address": "St George's Avenue, Bolton", "postcode": "BL5 2ER", "lat": 53.539418, "lng": -2.525487, "districtCode": "E08000001"}, {"id": "school-105203", "type": "school", "name": "St Mary's CofE Primary School, Deane", "address": "Edale Road, Bolton", "postcode": "BL3 4QP", "lat": 53.565834, "lng": -2.467964, "districtCode": "E08000001"}, {"id": "school-105205", "type": "school", "name": "St Matthew's CofE Primary School, Bolton", "address": "Kentford Road, Bolton", "postcode": "BL1 2JL", "lat": 53.587425, "lng": -2.432637, "districtCode": "E08000001"}, {"id": "school-105209", "type": "school", "name": "St James CofE Primary School, Daisy Hill", "address": "Hindley Road, Bolton", "postcode": "BL5 2JU", "lat": 53.53417, "lng": -2.518782, "districtCode": "E08000001"}, {"id": "school-105211", "type": "school", "name": "Blackrod Anglican/Methodist Primary School", "address": "Vicarage Road West, Bolton", "postcode": "BL6 5DE", "lat": 53.592473, "lng": -2.587477, "districtCode": "E08000001"}, {"id": "school-105214", "type": "school", "name": "St Michael's CofE Primary School, Great Lever", "address": "Green Lane, Bolton", "postcode": "BL3 2PL", "lat": 53.560517, "lng": -2.407707, "districtCode": "E08000001"}, {"id": "school-105217", "type": "school", "name": "St Stephen and All Martyrs' CofE School, Lever Bridge", "address": "Radcliffe Road, Bolton", "postcode": "BL2 1NZ", "lat": 53.571755, "lng": -2.404824, "districtCode": "E08000001"}, {"id": "school-105218", "type": "school", "name": "St Thomas C of E Primary School, Halliwell", "address": "Eskrick Street, Bolton", "postcode": "BL1 3JB", "lat": 53.591905, "lng": -2.441583, "districtCode": "E08000001"}, {"id": "school-105219", "type": "school", "name": "Holy Infant and St Anthony RC Primary School", "address": "Mitre Street, Bolton", "postcode": "BL1 6QJ", "lat": 53.602104, "lng": -2.43519, "districtCode": "E08000001"}, {"id": "school-105220", "type": "school", "name": "St Columba's RC Primary School", "address": "Ripley Street, Bolton", "postcode": "BL2 3AR", "lat": 53.600443, "lng": -2.40927, "districtCode": "E08000001"}, {"id": "school-105221", "type": "school", "name": "St Thomas of Canterbury RC School", "address": "Eastbourne Grove, Bolton", "postcode": "BL1 5LH", "lat": 53.584474, "lng": -2.462006, "districtCode": "E08000001"}, {"id": "school-105223", "type": "school", "name": "St Joseph's RC Primary School, Halliwell, Bolton", "address": "Shepherd Cross Street, Bolton", "postcode": "BL1 3EJ", "lat": 53.590114, "lng": -2.446792, "districtCode": "E08000001"}, {"id": "school-105226", "type": "school", "name": "St William of York Catholic Primary School", "address": "Nugent Road, Bolton", "postcode": "BL3 3DE", "lat": 53.560362, "lng": -2.43144, "districtCode": "E08000001"}, {"id": "school-105230", "type": "school", "name": "St Bernard's RC Primary School, Bolton", "address": "Wendover Drive, Bolton", "postcode": "BL3 4RX", "lat": 53.569478, "lng": -2.478379, "districtCode": "E08000001"}, {"id": "school-105233", "type": "school", "name": "Horwich Parish CofE Primary School", "address": "Church Street, Bolton", "postcode": "BL6 6AA", "lat": 53.598799, "lng": -2.538298, "districtCode": "E08000001"}, {"id": "school-105234", "type": "school", "name": "St Thomas CofE Primary School", "address": "Molyneux Road, Bolton", "postcode": "BL5 3HP", "lat": 53.549914, "lng": -2.503321, "districtCode": "E08000001"}, {"id": "school-105236", "type": "school", "name": "St Andrew's CofE Primary School, Over Hulton", "address": "Crescent Avenue, Bolton", "postcode": "BL5 1EN", "lat": 53.545575, "lng": -2.467182, "districtCode": "E08000001"}, {"id": "school-105237", "type": "school", "name": "St Bartholomew's CofE Primary School", "address": "The Fairways, Bolton", "postcode": "BL5 3NZ", "lat": 53.548513, "lng": -2.525886, "districtCode": "E08000001"}, {"id": "school-105238", "type": "school", "name": "All Saints CofE Primary School", "address": "Devon Street, Bolton", "postcode": "BL4 7PY", "lat": 53.554357, "lng": -2.394906, "districtCode": "E08000001"}, {"id": "school-105239", "type": "school", "name": "St Peter's CofE Primary School", "address": "Alexandra Street, Bolton", "postcode": "BL4 9JT", "lat": 53.543143, "lng": -2.393488, "districtCode": "E08000001"}, {"id": "school-105240", "type": "school", "name": "St Stephen's CofE Primary School", "address": "Bent Spur Road, Bolton", "postcode": "BL4 8PB", "lat": 53.537811, "lng": -2.371301, "districtCode": "E08000001"}, {"id": "school-105242", "type": "school", "name": "St Matthew's CofE Primary School, Little Lever", "address": "Norris Street, Bolton", "postcode": "BL3 1BQ", "lat": 53.561418, "lng": -2.373969, "districtCode": "E08000001"}, {"id": "school-105243", "type": "school", "name": "Sacred Heart Roman Catholic Primary School", "address": "Central Drive, Bolton", "postcode": "BL5 3DU", "lat": 53.552389, "lng": -2.519398, "districtCode": "E08000001"}, {"id": "school-105245", "type": "school", "name": "Our Lady of Lourdes RC Primary School", "address": "Beech Avenue, Bolton", "postcode": "BL4 0BP", "lat": 53.547809, "lng": -2.417335, "districtCode": "E08000001"}, {"id": "school-105246", "type": "school", "name": "St Brendan's RC Primary School, Harwood, Bolton", "address": "Brookfold Lane, Bolton", "postcode": "BL2 4DZ", "lat": 53.603524, "lng": -2.385329, "districtCode": "E08000001"}, {"id": "school-105249", "type": "school", "name": "St John the Evangelist RC Primary School, Bromley Cross, Bolton", "address": "Darwen Road, Bolton", "postcode": "BL7 9HT", "lat": 53.617201, "lng": -2.423991, "districtCode": "E08000001"}, {"id": "school-105250", "type": "school", "name": "St Mary's RC Primary School", "address": "Victoria Road, Horwich, Bolton", "postcode": "BL6 6EP", "lat": 53.590604, "lng": -2.533601, "districtCode": "E08000001"}, {"id": "school-105252", "type": "school", "name": "Westhoughton High School", "address": "Bolton Road, Bolton", "postcode": "BL5 3BZ", "lat": 53.548387, "lng": -2.515681, "districtCode": "E08000001"}, {"id": "school-105253", "type": "school", "name": "Turton School", "address": "Bromley Cross Road, Bolton", "postcode": "BL7 9LT", "lat": 53.614183, "lng": -2.410476, "districtCode": "E08000001"}, {"id": "school-105262", "type": "school", "name": "St Joseph's RC High School", "address": "Sefton Lane, Bolton", "postcode": "BL6 6HW", "lat": 53.586255, "lng": -2.526989, "districtCode": "E08000001"}, {"id": "school-105264", "type": "school", "name": "Thornleigh Salesian College", "address": "Sharples Park, Bolton", "postcode": "BL1 6PQ", "lat": 53.601116, "lng": -2.442283, "districtCode": "E08000001"}, {"id": "school-105269", "type": "school", "name": "Lord's School", "address": "Brooklyn, Bolton", "postcode": "BL3 2EF", "lat": 53.559229, "lng": -2.421388, "districtCode": "E08000001"}, {"id": "school-105270", "type": "school", "name": "Clevelands Prep School", "address": "425 Chorley New Road, Bolton", "postcode": "BL1 5DH", "lat": 53.579223, "lng": -2.476178, "districtCode": "E08000001"}, {"id": "school-105271", "type": "school", "name": "Bolton School Boys' Division", "address": "Chorley New Road, Bolton", "postcode": "BL1 4PA", "lat": 53.580065, "lng": -2.449027, "districtCode": "E08000001"}, {"id": "school-105272", "type": "school", "name": "Bolton School Girls' Division", "address": "Chorley New Road, Bolton", "postcode": "BL1 4PB", "lat": 53.579635, "lng": -2.453449, "districtCode": "E08000001"}, {"id": "school-105276", "type": "school", "name": "Thomasson Memorial School", "address": "Lever Edge Lane, Bolton", "postcode": "BL3 3LA", "lat": 53.557073, "lng": -2.44584, "districtCode": "E08000001"}, {"id": "school-105277", "type": "school", "name": "Rumworth School", "address": "Armadale Road, Bolton", "postcode": "BL3 4TP", "lat": 53.567194, "lng": -2.474185, "districtCode": "E08000001"}, {"id": "school-105280", "type": "school", "name": "Birtenshaw School Bolton", "address": "Darwen Road, Bolton", "postcode": "BL7 9AB", "lat": 53.610381, "lng": -2.412888, "districtCode": "E08000001"}, {"id": "school-105281", "type": "school", "name": "Green Fold School", "address": "Highfield Road, Bolton", "postcode": "BL4 0NS", "lat": 53.546161, "lng": -2.430828, "districtCode": "E08000001"}, {"id": "school-105283", "type": "school", "name": "Hoyle Nursery School", "address": "Chesham Fold Road, Bury", "postcode": "BL9 6HR", "lat": 53.599761, "lng": -2.273144, "districtCode": "E08000002"}, {"id": "school-105287", "type": "school", "name": "Fairfield Community Primary School", "address": "Rochdale Old Road, Bury", "postcode": "BL9 7SD", "lat": 53.59976, "lng": -2.261311, "districtCode": "E08000002"}, {"id": "school-105291", "type": "school", "name": "Chantlers Primary School", "address": "Foulds Avenue, Bury", "postcode": "BL8 2SF", "lat": 53.592582, "lng": -2.325771, "districtCode": "E08000002"}, {"id": "school-105295", "type": "school", "name": "Lowercroft Primary School", "address": "Ashington Drive, Bury", "postcode": "BL8 2TS", "lat": 53.590764, "lng": -2.33928, "districtCode": "E08000002"}, {"id": "school-105311", "type": "school", "name": "Holcombe Brook Primary School", "address": "Longsight Road, Bury", "postcode": "BL0 9TA", "lat": 53.627148, "lng": -2.328275, "districtCode": "E08000002"}, {"id": "school-105314", "type": "school", "name": "Hollins Grundy Primary School", "address": "The Hags, Bury", "postcode": "BL9 8AY", "lat": 53.569639, "lng": -2.280304, "districtCode": "E08000002"}, {"id": "school-105321", "type": "school", "name": "St Peter's Church of England Primary School", "address": "Whitefield Road, Bury", "postcode": "BL9 9PW", "lat": 53.577068, "lng": -2.300835, "districtCode": "E08000002"}, {"id": "school-105323", "type": "school", "name": "St Margaret's Church of England Primary School", "address": "Heywood Road, Manchester", "postcode": "M25 2BW", "lat": 53.545468, "lng": -2.263965, "districtCode": "E08000002"}, {"id": "school-105325", "type": "school", "name": "All Saints Church of England Primary School, Stand", "address": "Rufford Drive, Manchester", "postcode": "M45 8PL", "lat": 53.556015, "lng": -2.286344, "districtCode": "E08000002"}, {"id": "school-105326", "type": "school", "name": "St Andrew's Church of England Primary School, Ramsbottom", "address": "Nuttall Lane, Bury", "postcode": "BL0 9JD", "lat": 53.643713, "lng": -2.31913, "districtCode": "E08000002"}, {"id": "school-105334", "type": "school", "name": "Guardian Angels Roman Catholic Primary School, Bury", "address": "Leigh Lane, Bury", "postcode": "BL8 2RH", "lat": 53.596657, "lng": -2.317703, "districtCode": "E08000002"}, {"id": "school-105335", "type": "school", "name": "St Marie's Roman Catholic Primary School, Bury", "address": "Edward Street, Bury", "postcode": "BL9 0RZ", "lat": 53.589542, "lng": -2.291194, "districtCode": "E08000002"}, {"id": "school-105337", "type": "school", "name": "Our Lady of Lourdes Roman Catholic Primary School, Bury", "address": "Rudgwick Drive, Bury", "postcode": "BL8 1YA", "lat": 53.611538, "lng": -2.313158, "districtCode": "E08000002"}, {"id": "school-105338", "type": "school", "name": "Emmanuel Holcombe Church of England Primary School", "address": "Helmshore Road, Bury", "postcode": "BL8 4PA", "lat": 53.646754, "lng": -2.32814, "districtCode": "E08000002"}, {"id": "school-105340", "type": "school", "name": "St Mary's Church of England Primary School, Hawkshaw", "address": "Bolton Road, Bolton Road, Hawkshaw, Bury", "postcode": "BL8 4JL", "lat": 53.63058, "lng": -2.363041, "districtCode": "E08000002"}, {"id": "school-105342", "type": "school", "name": "St Mary's Church of England Aided Primary School, Prestwich", "address": "Rectory Lane, Manchester", "postcode": "M25 1BP", "lat": 53.533042, "lng": -2.280832, "districtCode": "E08000002"}, {"id": "school-105344", "type": "school", "name": "Holly Mount Roman Catholic Primary School, Bury", "address": "Hollymount Lane, Bury", "postcode": "BL8 4HS", "lat": 53.623856, "lng": -2.347953, "districtCode": "E08000002"}, {"id": "school-105345", "type": "school", "name": "Our Lady of Grace RC Primary School", "address": "Highfield Road, Manchester", "postcode": "M25 3AS", "lat": 53.538031, "lng": -2.284472, "districtCode": "E08000002"}, {"id": "school-105350", "type": "school", "name": "St Andrew's Church of England Primary School, Radcliffe", "address": "Graves Street, Manchester", "postcode": "M26 4GE", "lat": 53.572915, "lng": -2.337823, "districtCode": "E08000002"}, {"id": "school-105351", "type": "school", "name": "St Hilda's Church of England Primary School", "address": "Whittaker Lane, Manchester", "postcode": "M25 1HA", "lat": 53.529272, "lng": -2.2667, "districtCode": "E08000002"}, {"id": "school-105352", "type": "school", "name": "Bury and Whitefield Jewish Primary School", "address": "Parr Lane, Bury", "postcode": "BL9 8JT", "lat": 53.559999, "lng": -2.273869, "districtCode": "E08000002"}, {"id": "school-105354", "type": "school", "name": "The Elton High School", "address": "Walshaw Road, Bury", "postcode": "BL8 1RN", "lat": 53.600039, "lng": -2.327098, "districtCode": "E08000002"}, {"id": "school-105355", "type": "school", "name": "The Derby High School", "address": "Radcliffe Road, Lancs", "postcode": "BL9 9NH", "lat": 53.582511, "lng": -2.306161, "districtCode": "E08000002"}, {"id": "school-105372", "type": "school", "name": "Darul Uloom Al Arabiya Al Islamiya", "address": "Holcombe Hall, Nr. Bury", "postcode": "BL8 4NG", "lat": 53.638787, "lng": -2.332314, "districtCode": "E08000002"}, {"id": "school-105373", "type": "school", "name": "Bury Grammar Schools", "address": "Tenterden Street, Bury", "postcode": "BL9 0HN", "lat": 53.590792, "lng": -2.302157, "districtCode": "E08000002"}, {"id": "school-105376", "type": "school", "name": "Cloughside College", "address": "Bury New Road, Manchester", "postcode": "M25 3BL", "lat": 53.536508, "lng": -2.29003, "districtCode": "E08000002"}, {"id": "school-105377", "type": "school", "name": "Millwood Primary Special School", "address": "School Street, Bury", "postcode": "M26 3BW", "lat": 53.560091, "lng": -2.333297, "districtCode": "E08000002"}, {"id": "school-105384", "type": "school", "name": "Martenscroft Nursery School & Children's Centre", "address": "33 Epping Street, Manchester", "postcode": "M15 6PA", "lat": 53.466022, "lng": -2.24107, "districtCode": "E08000003"}, {"id": "school-105385", "type": "school", "name": "Collyhurst Nursery School", "address": "Teignmouth Avenue, Manchester", "postcode": "M40 7QD", "lat": 53.495368, "lng": -2.220342, "districtCode": "E08000003"}, {"id": "school-105387", "type": "school", "name": "Abbott Community Primary School", "address": "Livesey Street, Manchester", "postcode": "M40 7PR", "lat": 53.490649, "lng": -2.224749, "districtCode": "E08000003"}, {"id": "school-105389", "type": "school", "name": "Alma Park Primary School", "address": "Errwood Road, Manchester", "postcode": "M19 2PF", "lat": 53.44123, "lng": -2.190868, "districtCode": "E08000003"}, {"id": "school-105397", "type": "school", "name": "Bowker Vale Primary School", "address": "Middleton Road, Manchester", "postcode": "M8 4NB", "lat": 53.530761, "lng": -2.242765, "districtCode": "E08000003"}, {"id": "school-105401", "type": "school", "name": "Acacias Community Primary School", "address": "Alexandra Drive, Manchester", "postcode": "M19 2WW", "lat": 53.437047, "lng": -2.198045, "districtCode": "E08000003"}, {"id": "school-105404", "type": "school", "name": "Chapel Street Community Primary School", "address": "Chapel Street, Manchester", "postcode": "M19 3GH", "lat": 53.443101, "lng": -2.18407, "districtCode": "E08000003"}, {"id": "school-105405", "type": "school", "name": "Charlestown Community Primary School", "address": "Pilkington Road, Manchester", "postcode": "M9 7BX", "lat": 53.524684, "lng": -2.188165, "districtCode": "E08000003"}, {"id": "school-105408", "type": "school", "name": "Claremont Primary School", "address": "Claremont Road, Manchester", "postcode": "M14 7NA", "lat": 53.452975, "lng": -2.233707, "districtCode": "E08000003"}, {"id": "school-105413", "type": "school", "name": "Crowcroft Park Primary School", "address": "Stovell Avenue, Manchester", "postcode": "M12 5SY", "lat": 53.451274, "lng": -2.18897, "districtCode": "E08000003"}, {"id": "school-105422", "type": "school", "name": "Heald Place Primary School", "address": "Heald Place, Manchester", "postcode": "M14 7PN", "lat": 53.451736, "lng": -2.227962, "districtCode": "E08000003"}, {"id": "school-105426", "type": "school", "name": "Mauldeth Road Primary School", "address": "Mauldeth Road, Manchester", "postcode": "M14 6SG", "lat": 53.434081, "lng": -2.208463, "districtCode": "E08000003"}, {"id": "school-105427", "type": "school", "name": "Moston Fields Primary School", "address": "Brookside Road, Manchester", "postcode": "M40 9GJ", "lat": 53.516754, "lng": -2.188959, "districtCode": "E08000003"}, {"id": "school-105428", "type": "school", "name": "Moston Lane Community Primary School", "address": "Moston Lane, Manchester", "postcode": "M9 4HH", "lat": 53.513264, "lng": -2.200783, "districtCode": "E08000003"}, {"id": "school-105432", "type": "school", "name": "New Moston Primary School", "address": "Moston Lane East, Manchester", "postcode": "M40 3QJ", "lat": 53.519111, "lng": -2.163312, "districtCode": "E08000003"}, {"id": "school-105443", "type": "school", "name": "Plymouth Grove Primary School", "address": "Plymouth Grove West, Ardwick", "postcode": "M13 0AQ", "lat": 53.46137, "lng": -2.210073, "districtCode": "E08000003"}, {"id": "school-105448", "type": "school", "name": "Rack House Primary School", "address": "Yarmouth Drive, Manchester", "postcode": "M23 0BT", "lat": 53.409712, "lng": -2.278139, "districtCode": "E08000003"}, {"id": "school-105452", "type": "school", "name": "Irk Valley Community School", "address": "Waterloo Street, Manchester", "postcode": "M8 5XH", "lat": 53.512544, "lng": -2.221803, "districtCode": "E08000003"}, {"id": "school-105465", "type": "school", "name": "Crab Lane Primary School", "address": "Crab Lane, Manchester", "postcode": "M9 8NB", "lat": 53.530192, "lng": -2.230601, "districtCode": "E08000003"}, {"id": "school-105467", "type": "school", "name": "Broad Oak Primary School", "address": "Broad Oak Lane, Manchester", "postcode": "M20 5QB", "lat": 53.403287, "lng": -2.225582, "districtCode": "E08000003"}, {"id": "school-105469", "type": "school", "name": "Sandilands Primary School", "address": "Wendover Road, Manchester", "postcode": "M23 9JX", "lat": 53.402936, "lng": -2.30657, "districtCode": "E08000003"}, {"id": "school-105470", "type": "school", "name": "Pike Fold Primary School", "address": "Old Market Street, Manchester", "postcode": "M9 8QP", "lat": 53.522486, "lng": -2.222247, "districtCode": "E08000003"}, {"id": "school-105471", "type": "school", "name": "Higher Openshaw Community School", "address": "Saunton Road, Manchester", "postcode": "M11 1AJ", "lat": 53.477059, "lng": -2.168922, "districtCode": "E08000003"}, {"id": "school-105472", "type": "school", "name": "Manley Park Primary School", "address": "College Road, Manchester", "postcode": "M16 0AA", "lat": 53.451252, "lng": -2.266498, "districtCode": "E08000003"}, {"id": "school-105480", "type": "school", "name": "All Saints Primary School", "address": "Belle Vue Street, Manchester", "postcode": "M12 5PW", "lat": 53.466483, "lng": -2.18958, "districtCode": "E08000003"}, {"id": "school-105486", "type": "school", "name": "Crumpsall Lane Primary School", "address": "Crumpsall Lane, Manchester", "postcode": "M8 5SR", "lat": 53.517453, "lng": -2.235781, "districtCode": "E08000003"}, {"id": "school-105487", "type": "school", "name": "Chorlton CofE Primary School", "address": "Vicars Road, Manchester", "postcode": "M21 9JA", "lat": 53.440061, "lng": -2.28186, "districtCode": "E08000003"}, {"id": "school-105488", "type": "school", "name": "Holy Trinity CofE Primary School", "address": "Capstan Street, Manchester", "postcode": "M9 4DU", "lat": 53.513737, "lng": -2.208176, "districtCode": "E08000003"}, {"id": "school-105490", "type": "school", "name": "St Augustine's CofE Primary School", "address": "St Augustine Street, Manchester", "postcode": "M40 8PL", "lat": 53.49918, "lng": -2.209838, "districtCode": "E08000003"}, {"id": "school-105491", "type": "school", "name": "St Chrysostom's CofE Primary School", "address": "Lincoln Grove, Manchester", "postcode": "M13 0DX", "lat": 53.461948, "lng": -2.218482, "districtCode": "E08000003"}, {"id": "school-105493", "type": "school", "name": "St Margaret's CofE Primary School", "address": "Withington Road, Manchester", "postcode": "M16 8FQ", "lat": 53.449232, "lng": -2.257254, "districtCode": "E08000003"}, {"id": "school-105495", "type": "school", "name": "St Mary's CofE Junior and Infant School", "address": "Adscombe Street, Manchester", "postcode": "M16 7AQ", "lat": 53.456414, "lng": -2.253065, "districtCode": "E08000003"}, {"id": "school-105496", "type": "school", "name": "St Wilfrid's CofE Junior and Infant School", "address": "Mabel Street, Manchester", "postcode": "M40 1GB", "lat": 53.496959, "lng": -2.171112, "districtCode": "E08000003"}, {"id": "school-105498", "type": "school", "name": "St Paul's CofE Primary School", "address": "St Paul's Road, Manchester", "postcode": "M20 4PG", "lat": 53.43189, "lng": -2.226652, "districtCode": "E08000003"}, {"id": "school-105500", "type": "school", "name": "St Agnes C of E Primary School", "address": "50 Hamilton Road, Manchester", "postcode": "M13 0PE", "lat": 53.454008, "lng": -2.19957, "districtCode": "E08000003"}, {"id": "school-105502", "type": "school", "name": "Armitage CofE Primary School", "address": "Rostron Avenue, Manchester", "postcode": "M12 5NP", "lat": 53.467655, "lng": -2.204455, "districtCode": "E08000003"}, {"id": "school-105503", "type": "school", "name": "St Luke's CofE Primary School", "address": "Langport Avenue, Manchester", "postcode": "M12 4NG", "lat": 53.463926, "lng": -2.20858, "districtCode": "E08000003"}, {"id": "school-105504", "type": "school", "name": "St John's CofE Primary School", "address": "Clarence Road, Manchester", "postcode": "M13 0YE", "lat": 53.458, "lng": -2.204469, "districtCode": "E08000003"}, {"id": "school-105507", "type": "school", "name": "St Andrew's CofE Primary School", "address": "Broom Avenue, Manchester", "postcode": "M19 2UH", "lat": 53.440615, "lng": -2.181304, "districtCode": "E08000003"}, {"id": "school-105508", "type": "school", "name": "St James' CofE Primary School, Birch-in-Rusholme", "address": "Cromwell Range, Manchester", "postcode": "M14 6HW", "lat": 53.447905, "lng": -2.214645, "districtCode": "E08000003"}, {"id": "school-105509", "type": "school", "name": "St Philip's Church of England Primary School", "address": "Loxford Street, Manchester", "postcode": "M15 6BT", "lat": 53.468606, "lng": -2.243706, "districtCode": "E08000003"}, {"id": "school-105516", "type": "school", "name": "Holy Name Roman Catholic Primary School Manchester", "address": "Denmark Road, Manchester", "postcode": "M15 6JS", "lat": 53.460638, "lng": -2.236279, "districtCode": "E08000003"}, {"id": "school-105520", "type": "school", "name": "St Ambrose RC Primary School", "address": "Princess Road, Manchester", "postcode": "M21 7QA", "lat": 53.422119, "lng": -2.257421, "districtCode": "E08000003"}, {"id": "school-105521", "type": "school", "name": "St Anne's RC Primary School Crumpsall Manchester", "address": "Moss Bank, Manchester", "postcode": "M8 5AB", "lat": 53.513432, "lng": -2.236814, "districtCode": "E08000003"}, {"id": "school-105523", "type": "school", "name": "St Brigid's RC Primary School", "address": "Grey Mare Lane, Manchester", "postcode": "M11 3DR", "lat": 53.478055, "lng": -2.194032, "districtCode": "E08000003"}, {"id": "school-105524", "type": "school", "name": "St Catherine's RC Primary School", "address": "School Lane, Manchester", "postcode": "M20 6HS", "lat": 53.416204, "lng": -2.221181, "districtCode": "E08000003"}, {"id": "school-105532", "type": "school", "name": "St Malachy's RC Primary School", "address": "Eggington Street, Manchester", "postcode": "M40 7RG", "lat": 53.497495, "lng": -2.222207, "districtCode": "E08000003"}, {"id": "school-105534", "type": "school", "name": "St Mary's RC Primary School Manchester", "address": "Clare Road, Manchester", "postcode": "M19 2QW", "lat": 53.439019, "lng": -2.190451, "districtCode": "E08000003"}, {"id": "school-105536", "type": "school", "name": "Sacred Heart Catholic Primary School", "address": "Floatshall Road, Manchester", "postcode": "M23 1HP", "lat": 53.396273, "lng": -2.289151, "districtCode": "E08000003"}, {"id": "school-105537", "type": "school", "name": "St Peter's Catholic Primary School", "address": "Firbank Road, Manchester", "postcode": "M23 2YS", "lat": 53.382892, "lng": -2.279467, "districtCode": "E08000003"}, {"id": "school-105539", "type": "school", "name": "St Wilfrid's RC Primary School", "address": "Birchvale Close, Hulme", "postcode": "M15 5BJ", "lat": 53.468589, "lng": -2.251872, "districtCode": "E08000003"}, {"id": "school-105540", "type": "school", "name": "St Willibrord's RC Primary School", "address": "Vale Street, Manchester", "postcode": "M11 4WR", "lat": 53.48906, "lng": -2.174924, "districtCode": "E08000003"}, {"id": "school-105541", "type": "school", "name": "St Bernard's RC Primary School Manchester", "address": "Burnage Lane, Manchester", "postcode": "M19 1DR", "lat": 53.429113, "lng": -2.200928, "districtCode": "E08000003"}, {"id": "school-105543", "type": "school", "name": "Our Lady's RC Primary School Manchester", "address": "Whalley Road, Manchester", "postcode": "M16 8AW", "lat": 53.453794, "lng": -2.263426, "districtCode": "E08000003"}, {"id": "school-105544", "type": "school", "name": "St Richard's RC Primary School", "address": "Wilpshire Avenue, Manchester", "postcode": "M12 5TL", "lat": 53.451942, "lng": -2.187256, "districtCode": "E08000003"}, {"id": "school-105545", "type": "school", "name": "St Mary's CofE Primary School Moston", "address": "St. Mary's Road, Manchester", "postcode": "M40 0DF", "lat": 53.516763, "lng": -2.17721, "districtCode": "E08000003"}, {"id": "school-105546", "type": "school", "name": "St John's RC Primary School", "address": "Chepstow Road, Manchester", "postcode": "M21 9SN", "lat": 53.446328, "lng": -2.281374, "districtCode": "E08000009"}, {"id": "school-105547", "type": "school", "name": "CofE School of the Resurrection", "address": "Pilgrim Drive, Manchester", "postcode": "M11 3TJ", "lat": 53.479479, "lng": -2.197173, "districtCode": "E08000003"}, {"id": "school-105548", "type": "school", "name": "Saviour CofE Primary School", "address": "Eggington Street, Manchester", "postcode": "M40 7RH", "lat": 53.498189, "lng": -2.22102, "districtCode": "E08000003"}, {"id": "school-105550", "type": "school", "name": "St Joseph's RC Primary School Manchester", "address": "Richmond Grove, Manchester", "postcode": "M13 0BT", "lat": 53.459433, "lng": -2.207518, "districtCode": "E08000003"}, {"id": "school-105553", "type": "school", "name": "St Cuthbert's RC Primary School", "address": "Heyscroft Road, Manchester", "postcode": "M20 4UZ", "lat": 53.429087, "lng": -2.221173, "districtCode": "E08000003"}, {"id": "school-105554", "type": "school", "name": "St Clare's RC Primary School", "address": "Victoria Avenue, Manchester", "postcode": "M9 0RR", "lat": 53.533623, "lng": -2.222487, "districtCode": "E08000003"}, {"id": "school-105574", "type": "school", "name": "Loreto High School Chorlton", "address": "Nell Lane, Manchester", "postcode": "M21 7SW", "lat": 53.433196, "lng": -2.260694, "districtCode": "E08000003"}, {"id": "school-105576", "type": "school", "name": "Our Lady's RC High School", "address": "Alworth Road, Manchester", "postcode": "M9 0RP", "lat": 53.536447, "lng": -2.21716, "districtCode": "E08000003"}, {"id": "school-105581", "type": "school", "name": "The Barlow RC High School and Specialist Science College", "address": "Parrs Wood Road, Manchester", "postcode": "M20 6BX", "lat": 53.415175, "lng": -2.218633, "districtCode": "E08000003"}, {"id": "school-105585", "type": "school", "name": "Moor Allerton Preparatory School", "address": "131 Barlow Moor Road, Manchester", "postcode": "M20 2PW", "lat": 53.420793, "lng": -2.242289, "districtCode": "E08000003"}, {"id": "school-105587", "type": "school", "name": "The Chadderton Preparatory School", "address": "Broadway, Oldham", "postcode": "OL9 0AD", "lat": 53.552301, "lng": -2.141189, "districtCode": "E08000004"}, {"id": "school-105588", "type": "school", "name": "Chetham's School of Music", "address": "Long Millgate", "postcode": "M3 1SB", "lat": 53.485788, "lng": -2.241951, "districtCode": "E08000003"}, {"id": "school-105591", "type": "school", "name": "The Manchester Grammar School", "address": "Old Hall Lane, Manchester", "postcode": "M13 0XT", "lat": 53.44885, "lng": -2.208807, "districtCode": "E08000003"}, {"id": "school-105592", "type": "school", "name": "Manchester High School for Girls", "address": "Grangethorpe Road, Manchester", "postcode": "M14 6HS", "lat": 53.446967, "lng": -2.22113, "districtCode": "E08000003"}, {"id": "school-105594", "type": "school", "name": "St Bede's College", "address": "Alexandra Road South", "postcode": "M16 8HX", "lat": 53.451124, "lng": -2.251136, "districtCode": "E08000003"}, {"id": "school-105595", "type": "school", "name": "Withington Girls' School", "address": "Wellington Road, Manchester", "postcode": "M14 6BL", "lat": 53.438744, "lng": -2.224445, "districtCode": "E08000003"}, {"id": "school-105596", "type": "school", "name": "King of Kings", "address": "Derby Road, Salford", "postcode": "M6 5YD", "lat": 53.483606, "lng": -2.30055, "districtCode": "E08000006"}, {"id": "school-105598", "type": "school", "name": "Manchester Muslim Preparatory School", "address": "141 Barlow Moor Road, Manchester", "postcode": "M20 2PQ", "lat": 53.421586, "lng": -2.245995, "districtCode": "E08000003"}, {"id": "school-105601", "type": "school", "name": "Abbey College Manchester", "address": "5-7 Cheapside", "postcode": "M2 4WG", "lat": 53.481121, "lng": -2.242663, "districtCode": "E08000003"}, {"id": "school-105602", "type": "school", "name": "Manchester Hospital School", "address": "3rd Floor School, Manchester", "postcode": "M13 9WL", "lat": 53.460196, "lng": -2.223112, "districtCode": "E08000003"}, {"id": "school-105608", "type": "school", "name": "Lancasterian School", "address": "Elizabeth Slinger Road, Manchester", "postcode": "M20 2XA", "lat": 53.424141, "lng": -2.249065, "districtCode": "E08000003"}, {"id": "school-105613", "type": "school", "name": "The Birches School", "address": "Newholme Road, Manchester", "postcode": "M20 2XZ", "lat": 53.425944, "lng": -2.246984, "districtCode": "E08000003"}, {"id": "school-105616", "type": "school", "name": "Rodney House School", "address": "2 Albert Grove, Manchester", "postcode": "M12 4WF", "lat": 53.459021, "lng": -2.195572, "districtCode": "E08000003"}, {"id": "school-105627", "type": "school", "name": "Beever Primary School", "address": "Moorby Street, Oldham", "postcode": "OL1 3QU", "lat": 53.547054, "lng": -2.102924, "districtCode": "E08000004"}, {"id": "school-105638", "type": "school", "name": "Limehurst Community Primary School", "address": "White Bank Road, Oldham", "postcode": "OL8 3JQ", "lat": 53.513657, "lng": -2.123385, "districtCode": "E08000004"}, {"id": "school-105645", "type": "school", "name": "Glodwick Infant and Nursery School", "address": "Glodwick Road, Greater Manchester", "postcode": "OL4 1AJ", "lat": 53.535231, "lng": -2.094204, "districtCode": "E08000004"}, {"id": "school-105648", "type": "school", "name": "Mills Hill Primary School", "address": "Baytree Avenue, Oldham", "postcode": "OL9 0NH", "lat": 53.548202, "lng": -2.162172, "districtCode": "E08000004"}, {"id": "school-105649", "type": "school", "name": "Mather Street Primary School", "address": "Mather Street, Manchester", "postcode": "M35 0DT", "lat": 53.509469, "lng": -2.166729, "districtCode": "E08000004"}, {"id": "school-105656", "type": "school", "name": "South Failsworth Community Primary School", "address": "Paddock Lane, Manchester", "postcode": "M35 0NY", "lat": 53.498955, "lng": -2.157822, "districtCode": "E08000004"}, {"id": "school-105658", "type": "school", "name": "Whitegate End Primary and Nursery School", "address": "Butterworth Lane, Oldham", "postcode": "OL9 8EB", "lat": 53.523907, "lng": -2.15965, "districtCode": "E08000004"}, {"id": "school-105659", "type": "school", "name": "Rushcroft Primary School", "address": "Trent Road, Oldham", "postcode": "OL2 7YL", "lat": 53.585571, "lng": -2.09492, "districtCode": "E08000004"}, {"id": "school-105663", "type": "school", "name": "Propps Hall Junior Infant and Nursery School", "address": "Propps Hall Drive, Manchester", "postcode": "M35 0ND", "lat": 53.505083, "lng": -2.159368, "districtCode": "E08000004"}, {"id": "school-105665", "type": "school", "name": "Diggle School", "address": "Sam Road, Oldham", "postcode": "OL3 5PU", "lat": 53.568637, "lng": -1.993189, "districtCode": "E08000004"}, {"id": "school-105666", "type": "school", "name": "Friezland Primary School", "address": "Church Road, Oldham", "postcode": "OL3 7LN", "lat": 53.533243, "lng": -2.026255, "districtCode": "E08000004"}, {"id": "school-105667", "type": "school", "name": "Greenfield Primary School", "address": "Shaw Street, Oldham", "postcode": "OL3 7AA", "lat": 53.53712, "lng": -2.007243, "districtCode": "E08000004"}, {"id": "school-105668", "type": "school", "name": "Springhead Infant and Nursery School", "address": "Cooper Street, Oldham", "postcode": "OL4 4QT", "lat": 53.540872, "lng": -2.058827, "districtCode": "E08000004"}, {"id": "school-105669", "type": "school", "name": "Delph Primary School", "address": "Denshaw Road, Oldham", "postcode": "OL3 5HN", "lat": 53.569147, "lng": -2.025295, "districtCode": "E08000004"}, {"id": "school-105670", "type": "school", "name": "Knowsley Junior School", "address": "Stoneleigh Road, Oldham", "postcode": "OL4 4BH", "lat": 53.543481, "lng": -2.055359, "districtCode": "E08000004"}, {"id": "school-105671", "type": "school", "name": "Buckstones Primary School", "address": "Delamere Avenue, Oldham", "postcode": "OL2 8HN", "lat": 53.583451, "lng": -2.080791, "districtCode": "E08000004"},