[
  {
    "id": "school-101361",
    "type": "school",
    "name": "St Michael's Catholic Grammar School",
    "address": "Nether Street, London",
    "postcode": "N12 7NJ",
    "lat": 51.613819,
    "lng": -0.179152
  },
  {
    "id": "school-102156",
    "type": "school",
    "name": "Fortismere School",
    "address": "Southwing, London",
    "postcode": "N10 1NE",
    "lat": 51.592353,
    "lng": -0.149372
  },
  {
    "id": "school-112949",
    "type": "school",
    "name": "Tibshelf Community School",
    "address": "Doe Hill Lane, Alfreton",
    "postcode": "DE55 5LZ",
    "lat": 53.139239,
    "lng": -1.351074
  },
  {
    "id": "school-112951",
    "type": "school",
    "name": "The Bemrose School",
    "address": "Uttoxeter New Road, Derby",
    "postcode": "DE22 3HU",
    "lat": 52.916404,
    "lng": -1.499831
  },
  {
    "id": "school-112956",
    "type": "school",
    "name": "Littleover Community School",
    "address": "Pastures Hill, Derby",
    "postcode": "DE23 4BZ",
    "lat": 52.899404,
    "lng": -1.524127
  },
  {
    "id": "school-112989",
    "type": "school",
    "name": "Belper School and Sixth Form Centre",
    "address": "John O'Gaunts Way, Belper",
    "postcode": "DE56 0DA",
    "lat": 53.026208,
    "lng": -1.455736
  },
  {
    "id": "school-112991",
    "type": "school",
    "name": "Murray Park Community School",
    "address": "Murray Road, Derby",
    "postcode": "DE3 9LL",
    "lat": 52.917784,
    "lng": -1.529355
  },
  {
    "id": "school-112996",
    "type": "school",
    "name": "Lady Manners School",
    "address": "Shutts Lane, Bakewell",
    "postcode": "DE45 1JA",
    "lat": 53.205742,
    "lng": -1.682126
  },
  {
    "id": "school-118097",
    "type": "school",
    "name": "Frederick Gough School",
    "address": "Grange Lane South, Scunthorpe",
    "postcode": "DN16 3NG",
    "lat": 53.559792,
    "lng": -0.639352
  },
  {
    "id": "school-118109",
    "type": "school",
    "name": "Baysgarth School",
    "address": "Barrow Road, Barton-upon-Humber",
    "postcode": "DN18 6AE",
    "lat": 53.680767,
    "lng": -0.429617
  },
  {
    "id": "school-118112",
    "type": "school",
    "name": "Sir John Nelthorpe School",
    "address": "Grammar School Road, Brigg",
    "postcode": "DN20 8AA",
    "lat": 53.553936,
    "lng": -0.487854
  },
  {
    "id": "school-120277",
    "type": "school",
    "name": "Crown Hills Community College",
    "address": "Gwendolen Road, Leicester",
    "postcode": "LE5 5FT",
    "lat": 52.628059,
    "lng": -1.08838
  },
  {
    "id": "school-120281",
    "type": "school",
    "name": "Beaumont Leys School",
    "address": "Anstey Lane, Leicester",
    "postcode": "LE4 0FL",
    "lat": 52.654874,
    "lng": -1.159338
  },
  {
    "id": "school-120292",
    "type": "school",
    "name": "Moat Community College",
    "address": "Maidstone Road, Leicester",
    "postcode": "LE2 0TU",
    "lat": 52.632799,
    "lng": -1.118324
  },
  {
    "id": "school-120298",
    "type": "school",
    "name": "Fullhurst Community College",
    "address": "Imperial Avenue, Leicester",
    "postcode": "LE3 1AH",
    "lat": 52.622773,
    "lng": -1.158978
  },
  {
    "id": "school-120655",
    "type": "school",
    "name": "The Queen Elizabeth's High School, Gainsborough",
    "address": "Morton Terrace, Gainsborough",
    "postcode": "DN21 2ST",
    "lat": 53.411505,
    "lng": -0.776201
  },
  {
    "id": "school-122066",
    "type": "school",
    "name": "The Latimer Arts College",
    "address": "Castle Way, Kettering",
    "postcode": "NN15 6SW",
    "lat": 52.380956,
    "lng": -0.691444
  },
  {
    "id": "school-122854",
    "type": "school",
    "name": "Chilwell School",
    "address": "Queens Road, Nottingham",
    "postcode": "NG9 5AL",
    "lat": 52.911681,
    "lng": -1.230089
  },
  {
    "id": "school-124392",
    "type": "school",
    "name": "Paget High School",
    "address": "Burton Road, Burton-on-Trent",
    "postcode": "DE14 3DR",
    "lat": 52.786274,
    "lng": -1.656141
  },
  {
    "id": "school-124449",
    "type": "school",
    "name": "Abbot Beyne School",
    "address": "Linnell Building, Burton-on-Trent",
    "postcode": "DE15 0JL",
    "lat": 52.806814,
    "lng": -1.614052
  },
  {
    "id": "school-129645",
    "type": "school",
    "name": "Madani Girls' School",
    "address": "77 Evington Valley Road, Leicester",
    "postcode": "LE5 5LL",
    "lat": 52.627749,
    "lng": -1.098345
  },
  {
    "id": "school-133386",
    "type": "school",
    "name": "Greig City Academy",
    "address": "High Street, London",
    "postcode": "N8 7NU",
    "lat": 51.586886,
    "lng": -0.116085
  },
  {
    "id": "school-134253",
    "type": "school",
    "name": "Djanogly City Academy",
    "address": "Gregory Boulevard, Nottingham",
    "postcode": "NG7 6ND",
    "lat": 52.966552,
    "lng": -1.162491
  },
  {
    "id": "school-134814",
    "type": "school",
    "name": "Northampton Academy",
    "address": "Wellingborough Road, Northampton",
    "postcode": "NN3 8NH",
    "lat": 52.257849,
    "lng": -0.832107
  },
  {
    "id": "school-135007",
    "type": "school",
    "name": "Trinity Academy",
    "address": "Church Balk, Doncaster",
    "postcode": "DN8 5BY",
    "lat": 53.613472,
    "lng": -0.951016
  },
  {
    "id": "school-135120",
    "type": "school",
    "name": "Landau Forte College",
    "address": "Fox Street, Derby",
    "postcode": "DE1 2LF",
    "lat": 52.926819,
    "lng": -1.471607
  },
  {
    "id": "school-135176",
    "type": "school",
    "name": "Oasis Academy Immingham",
    "address": "Pelham Road, Immingham",
    "postcode": "DN40 1JU",
    "lat": 53.614237,
    "lng": -0.212263
  },
  {
    "id": "school-135209",
    "type": "school",
    "name": "Oasis Academy Wintringham",
    "address": "Weelsby Avenue, Grimsby",
    "postcode": "DN32 0AZ",
    "lat": 53.548945,
    "lng": -0.077153
  },
  {
    "id": "school-135294",
    "type": "school",
    "name": "Havelock Academy",
    "address": "Holyoake Road, Grimsby",
    "postcode": "DN32 8JH",
    "lat": 53.55931,
    "lng": -0.049306
  },
  {
    "id": "school-135306",
    "type": "school",
    "name": "Corby Business Academy",
    "address": "Academy Way, Corby",
    "postcode": "NN17 5EB",
    "lat": 52.508182,
    "lng": -0.640703
  },
  {
    "id": "school-135317",
    "type": "school",
    "name": "Brooke Weston Academy",
    "address": "Coomb Road, Great Oakley",
    "postcode": "NN18 8LA",
    "lat": 52.467048,
    "lng": -0.710784
  },
  {
    "id": "school-135563",
    "type": "school",
    "name": "The Priory Witham Academy",
    "address": "De Wint Avenue, Lincoln",
    "postcode": "LN6 7DT",
    "lat": 53.20362,
    "lng": -0.569412
  },
  {
    "id": "school-135564",
    "type": "school",
    "name": "The Priory City of Lincoln Academy",
    "address": "Skellingthorpe Road, Lincoln",
    "postcode": "LN6 0EP",
    "lat": 53.21282,
    "lng": -0.571921
  },
  {
    "id": "school-135565",
    "type": "school",
    "name": "The Priory Academy LSST",
    "address": "Cross O'Cliff Hill, Lincoln",
    "postcode": "LN5 8PW",
    "lat": 53.207907,
    "lng": -0.544784
  },
  {
    "id": "school-135583",
    "type": "school",
    "name": "Samworth Church Academy",
    "address": "Sherwood Hall Road, Mansfield",
    "postcode": "NG18 2DY",
    "lat": 53.147197,
    "lng": -1.169134
  },
  {
    "id": "school-135674",
    "type": "school",
    "name": "The St Lawrence Academy",
    "address": "Doncaster Road, Scunthorpe",
    "postcode": "DN15 7DF",
    "lat": 53.590542,
    "lng": -0.664384
  },
  {
    "id": "school-135761",
    "type": "school",
    "name": "Nottingham University Samworth Academy",
    "address": "Bramhall Road, Nottingham",
    "postcode": "NG8 4HY",
    "lat": 52.963479,
    "lng": -1.233368
  },
  {
    "id": "school-135881",
    "type": "school",
    "name": "Nottingham Academy",
    "address": "Greenwood Road, Nottingham",
    "postcode": "NG3 7EB",
    "lat": 52.955879,
    "lng": -1.10803
  },
  {
    "id": "school-135942",
    "type": "school",
    "name": "De Warenne Academy",
    "address": "Gardens Lane, Doncaster",
    "postcode": "DN12 3JY",
    "lat": 53.483412,
    "lng": -1.237439
  },
  {
    "id": "school-135963",
    "type": "school",
    "name": "Outwood Academy Adwick",
    "address": "Windmill Balk Lane, Doncaster",
    "postcode": "DN6 7SF",
    "lat": 53.566405,
    "lng": -1.189632
  },
  {
    "id": "school-135966",
    "type": "school",
    "name": "Kettering Buccleuch Academy",
    "address": "Weekley Glebe Road, Kettering",
    "postcode": "NN16 9NS",
    "lat": 52.411421,
    "lng": -0.709555
  },
  {
    "id": "school-135967",
    "type": "school",
    "name": "Kettering Science Academy",
    "address": "Deeble Road, Kettering",
    "postcode": "NN15 7AA",
    "lat": 52.396935,
    "lng": -0.708713
  },
  {
    "id": "school-136044",
    "type": "school",
    "name": "St George's Academy",
    "address": "Westgate, Sleaford",
    "postcode": "NG34 7PP",
    "lat": 53.000565,
    "lng": -0.41243
  },
  {
    "id": "school-136119",
    "type": "school",
    "name": "The Academy of St Nicholas",
    "address": "51 Horrocks Avenue, Liverpool",
    "postcode": "L19 5NY",
    "lat": 53.354558,
    "lng": -2.88774
  },
  {
    "id": "school-136127",
    "type": "school",
    "name": "Shirebrook Academy",
    "address": "Common Lane, Mansfield",
    "postcode": "NG20 8QF",
    "lat": 53.20959,
    "lng": -1.226571
  },
  {
    "id": "school-136147",
    "type": "school",
    "name": "Lift Aylward",
    "address": "Windmill Road, London",
    "postcode": "N18 1NB",
    "lat": 51.61722,
    "lng": -0.079926
  },
  {
    "id": "school-136192",
    "type": "school",
    "name": "Cleethorpes Academy",
    "address": "Grainsby Avenue, Cleethorpes",
    "postcode": "DN35 9NX",
    "lat": 53.547451,
    "lng": -0.037744
  },
  {
    "id": "school-136194",
    "type": "school",
    "name": "The Priory Ruskin Academy",
    "address": "Rushcliffe Road, Grantham",
    "postcode": "NG31 8ED",
    "lat": 52.923329,
    "lng": -0.641422
  },
  {
    "id": "school-136201",
    "type": "school",
    "name": "Malcolm Arnold Academy",
    "address": "Trinity Avenue, Northampton",
    "postcode": "NN2 6JW",
    "lat": 52.254089,
    "lng": -0.889714
  },
  {
    "id": "school-136268",
    "type": "school",
    "name": "Waltham Toll Bar Academy",
    "address": "Station Road, Grimsby",
    "postcode": "DN36 4RZ",
    "lat": 53.520755,
    "lng": -0.078597
  },
  {
    "id": "school-136277",
    "type": "school",
    "name": "Healing Academy",
    "address": "Low Road, Grimsby",
    "postcode": "DN41 7QD",
    "lat": 53.57485,
    "lng": -0.163079
  },
  {
    "id": "school-136291",
    "type": "school",
    "name": "George Spencer Academy",
    "address": "Arthur Mee Road, Nottingham",
    "postcode": "NG9 7EW",
    "lat": 52.920517,
    "lng": -1.265276
  },
  {
    "id": "school-136299",
    "type": "school",
    "name": "Northampton School for Boys",
    "address": "Billing Road, Northampton",
    "postcode": "NN1 5RT",
    "lat": 52.238802,
    "lng": -0.866001
  },
  {
    "id": "school-136315",
    "type": "school",
    "name": "Queen Elizabeth's Grammar Alford - A Selective Academy",
    "address": "Station Road, Alford",
    "postcode": "LN13 9HY",
    "lat": 53.258158,
    "lng": 0.17239
  },
  {
    "id": "school-136323",
    "type": "school",
    "name": "John Taylor High School",
    "address": "Dunstall Road, Burton-on-Trent",
    "postcode": "DE13 8AZ",
    "lat": 52.764494,
    "lng": -1.719291
  },
  {
    "id": "school-136350",
    "type": "school",
    "name": "Caistor Grammar School",
    "address": "Church Street, Market Rasen",
    "postcode": "LN7 6QJ",
    "lat": 53.496294,
    "lng": -0.318582
  },
  {
    "id": "school-136358",
    "type": "school",
    "name": "Branston Community Academy",
    "address": "Station Road, Lincoln",
    "postcode": "LN4 1LH",
    "lat": 53.198833,
    "lng": -0.464419
  },
  {
    "id": "school-136361",
    "type": "school",
    "name": "Redhill Academy",
    "address": "Redhill Road, Nottingham",
    "postcode": "NG5 8GX",
    "lat": 53.008297,
    "lng": -1.12907
  },
  {
    "id": "school-136414",
    "type": "school",
    "name": "The de Ferrers Academy",
    "address": "St Mary's Drive, Burton-on-Trent",
    "postcode": "DE13 0LL",
    "lat": 52.829298,
    "lng": -1.63934
  },
  {
    "id": "school-136415",
    "type": "school",
    "name": "William Farr CofE Comprehensive School",
    "address": "Lincoln Road, Lincoln",
    "postcode": "LN2 3JB",
    "lat": 53.30102,
    "lng": -0.479681
  },
  {
    "id": "school-136479",
    "type": "school",
    "name": "Charles Read Academy",
    "address": "Bourne Road, Grantham",
    "postcode": "NG33 4NT",
    "lat": 52.809788,
    "lng": -0.513808
  },
  {
    "id": "school-136488",
    "type": "school",
    "name": "Sponne School",
    "address": "Brackley Road, Towcester",
    "postcode": "NN12 6DJ",
    "lat": 52.132033,
    "lng": -0.991759
  },
  {
    "id": "school-136489",
    "type": "school",
    "name": "Guilsborough Academy",
    "address": "West Haddon Road, Northampton",
    "postcode": "NN6 8QE",
    "lat": 52.355504,
    "lng": -1.017416
  },
  {
    "id": "school-136491",
    "type": "school",
    "name": "De Aston School",
    "address": "Willingham Road, Market Rasen",
    "postcode": "LN8 3RF",
    "lat": 53.383176,
    "lng": -0.323885
  },
  {
    "id": "school-136505",
    "type": "school",
    "name": "The Ecclesbourne School",
    "address": "Wirksworth Road, Belper",
    "postcode": "DE56 4GS",
    "lat": 52.985479,
    "lng": -1.489514
  },
  {
    "id": "school-136530",
    "type": "school",
    "name": "Catmose College",
    "address": "Huntsmans Drive, Oakham",
    "postcode": "LE15 6RP",
    "lat": 52.672192,
    "lng": -0.737043
  },
  {
    "id": "school-136624",
    "type": "school",
    "name": "Walton Academy",
    "address": "Harlaxton Road, Grantham",
    "postcode": "NG31 7JR",
    "lat": 52.897372,
    "lng": -0.654931
  },
  {
    "id": "school-136628",
    "type": "school",
    "name": "The West Bridgford School",
    "address": "Loughborough Road, Nottingham",
    "postcode": "NG2 7FA",
    "lat": 52.918908,
    "lng": -1.138257
  },
  {
    "id": "school-136629",
    "type": "school",
    "name": "Uppingham Community College",
    "address": "London Road, Uppingham",
    "postcode": "LE15 9TJ",
    "lat": 52.579536,
    "lng": -0.720328
  },
  {
    "id": "school-136634",
    "type": "school",
    "name": "West Park School",
    "address": "West Road, Derby",
    "postcode": "DE21 7BT",
    "lat": 52.921447,
    "lng": -1.411353
  },
  {
    "id": "school-136672",
    "type": "school",
    "name": "The Hayfield School",
    "address": "Hurst Lane, Doncaster",
    "postcode": "DN9 3HG",
    "lat": 53.492168,
    "lng": -1.022588
  },
  {
    "id": "school-136675",
    "type": "school",
    "name": "Rossington All Saints Academy",
    "address": "Bond Street, Not Yet Obtained",
    "postcode": "DN11 0BZ",
    "lat": 53.468122,
    "lng": -1.065552
  },
  {
    "id": "school-136716",
    "type": "school",
    "name": "The Long Eaton School",
    "address": "Thoresby Road, Nottingham",
    "postcode": "NG10 3NP",
    "lat": 52.891877,
    "lng": -1.285041
  },
  {
    "id": "school-136724",
    "type": "school",
    "name": "Fernwood School",
    "address": "Goodwood Road, Nottingham",
    "postcode": "NG8 2FT",
    "lat": 52.953136,
    "lng": -1.228623
  },
  {
    "id": "school-136871",
    "type": "school",
    "name": "North Kesteven Academy",
    "address": "Moor Lane, Lincoln",
    "postcode": "LN6 9AG",
    "lat": 53.186163,
    "lng": -0.595334
  },
  {
    "id": "school-136878",
    "type": "school",
    "name": "Toot Hill School",
    "address": "The Banks, Nottingham",
    "postcode": "NG13 8BL",
    "lat": 52.948615,
    "lng": -0.9526
  },
  {
    "id": "school-136948",
    "type": "school",
    "name": "Weston Favell Academy",
    "address": "Booth Lane South, Northampton",
    "postcode": "NN3 3EZ",
    "lat": 52.258642,
    "lng": -0.845083
  },
  {
    "id": "school-136958",
    "type": "school",
    "name": "Caistor Yarborough Academy",
    "address": "Grimsby Road, Market Rasen",
    "postcode": "LN7 6QZ",
    "lat": 53.497278,
    "lng": -0.308697
  },
  {
    "id": "school-136968",
    "type": "school",
    "name": "John Spendluffe Foundation Technology College",
    "address": "Hanby Lane, Alford",
    "postcode": "LN13 9BL",
    "lat": 53.258102,
    "lng": 0.184773
  },
  {
    "id": "school-136972",
    "type": "school",
    "name": "Queen Elizabeth's Grammar School",
    "address": "The Green Road, Ashbourne",
    "postcode": "DE6 1EP",
    "lat": 53.021694,
    "lng": -1.727882
  },
  {
    "id": "school-136976",
    "type": "school",
    "name": "Southfield School for Girls",
    "address": "Lewis Road, Kettering",
    "postcode": "NN15 6HE",
    "lat": 52.386037,
    "lng": -0.7161
  },
  {
    "id": "school-137004",
    "type": "school",
    "name": "Outwood Academy Foxhills",
    "address": "2 Foxhills Road, Scunthorpe",
    "postcode": "DN15 8LJ",
    "lat": 53.600228,
    "lng": -0.664698
  },
  {
    "id": "school-137066",
    "type": "school",
    "name": "Ash Hill Academy",
    "address": "Ash Hill, DONCASTER",
    "postcode": "DN7 6JH",
    "lat": 53.57461,
    "lng": -1.008
  },
  {
    "id": "school-137085",
    "type": "school",
    "name": "Carlton Academy",
    "address": "Coningswath Road, Nottingham",
    "postcode": "NG4 3SH",
    "lat": 52.974656,
    "lng": -1.101433
  },
  {
    "id": "school-137086",
    "type": "school",
    "name": "Bishop Stopford School",
    "address": "Headlands, Kettering",
    "postcode": "NN15 6BJ",
    "lat": 52.385243,
    "lng": -0.725807
  },
  {
    "id": "school-137087",
    "type": "school",
    "name": "Campion School",
    "address": "Bugbrooke, Northampton",
    "postcode": "NN7 3QG",
    "lat": 52.213095,
    "lng": -0.998151
  },
  {
    "id": "school-137089",
    "type": "school",
    "name": "Caroline Chisholm School",
    "address": "Wooldale Centre for Learning, Northampton",
    "postcode": "NN4 6TP",
    "lat": 52.198334,
    "lng": -0.872987
  },
  {
    "id": "school-137109",
    "type": "school",
    "name": "Ormiston Ilkeston Enterprise Academy",
    "address": "King George Avenue, Ilkeston",
    "postcode": "DE7 5HS",
    "lat": 52.971507,
    "lng": -1.314287
  },
  {
    "id": "school-137112",
    "type": "school",
    "name": "South Nottinghamshire Academy",
    "address": "Glebe Lane, Off Cropwell Road, Nottingham",
    "postcode": "NG12 2FQ",
    "lat": 52.945288,
    "lng": -1.032087
  },
  {
    "id": "school-137115",
    "type": "school",
    "name": "Lutterworth High School",
    "address": "Woodway Road, Lutterworth",
    "postcode": "LE17 4QH",
    "lat": 52.452125,
    "lng": -1.207796
  },
  {
    "id": "school-137117",
    "type": "school",
    "name": "Retford Oaks Academy",
    "address": "Babworth Road, Retford",
    "postcode": "DN22 7NJ",
    "lat": 53.320638,
    "lng": -0.955629
  },
  {
    "id": "school-137120",
    "type": "school",
    "name": "Manor High School",
    "address": "Copse Close, Leicester",
    "postcode": "LE2 4FU",
    "lat": 52.602849,
    "lng": -1.0586
  },
  {
    "id": "school-137135",
    "type": "school",
    "name": "Sir Robert Pattinson Academy",
    "address": "Moor Lane, Lincoln",
    "postcode": "LN6 9AF",
    "lat": 53.1859,
    "lng": -0.589804
  },
  {
    "id": "school-137141",
    "type": "school",
    "name": "Serlby Park Academy",
    "address": "Whitehouse Road, Doncaster",
    "postcode": "DN11 8EF",
    "lat": 53.422125,
    "lng": -1.05127
  },
  {
    "id": "school-137158",
    "type": "school",
    "name": "The Manor Academy",
    "address": "Park Hall Road, Mansfield",
    "postcode": "NG19 8QA",
    "lat": 53.170972,
    "lng": -1.186704
  },
  {
    "id": "school-137159",
    "type": "school",
    "name": "The National CofE Academy",
    "address": "Annesley Road, Nottingham",
    "postcode": "NG15 7DB",
    "lat": 53.044544,
    "lng": -1.212507
  },
  {
    "id": "school-137161",
    "type": "school",
    "name": "The Robert Smyth Academy",
    "address": "Burnmill Road, Market Harborough",
    "postcode": "LE16 7JG",
    "lat": 52.486011,
    "lng": -0.922
  },
  {
    "id": "school-137166",
    "type": "school",
    "name": "The King's School, Grantham",
    "address": "Brook Street, Grantham",
    "postcode": "NG31 6RP",
    "lat": 52.915599,
    "lng": -0.640087
  },
  {
    "id": "school-137170",
    "type": "school",
    "name": "Welland Park Academy",
    "address": "Welland Park Road, Market Harborough",
    "postcode": "LE16 9DR",
    "lat": 52.473882,
    "lng": -0.922017
  },
  {
    "id": "school-137184",
    "type": "school",
    "name": "Nottingham Girls' Academy",
    "address": "Robin's Wood Road, Nottingham",
    "postcode": "NG8 3LD",
    "lat": 52.967554,
    "lng": -1.199581
  },
  {
    "id": "school-137196",
    "type": "school",
    "name": "Ormiston Maritime Academy",
    "address": "Westward Ho, Grimsby",
    "postcode": "DN34 5AH",
    "lat": 53.555467,
    "lng": -0.098736
  },
  {
    "id": "school-137200",
    "type": "school",
    "name": "Humberston Academy",
    "address": "Humberston Avenue, Grimsby",
    "postcode": "DN36 4TF",
    "lat": 53.528794,
    "lng": -0.028949
  },
  {
    "id": "school-137213",
    "type": "school",
    "name": "Carre's Grammar School",
    "address": "Northgate, Sleaford",
    "postcode": "NG34 7DD",
    "lat": 53.002312,
    "lng": -0.409266
  },
  {
    "id": "school-137319",
    "type": "school",
    "name": "Tuxford Academy",
    "address": "Marnham Road, Newark",
    "postcode": "NG22 0JH",
    "lat": 53.232502,
    "lng": -0.881733
  },
  {
    "id": "school-137367",
    "type": "school",
    "name": "Limehurst Academy",
    "address": "Bridge Street, Loughborough",
    "postcode": "LE11 1NH",
    "lat": 52.775233,
    "lng": -1.206079
  },
  {
    "id": "school-137401",
    "type": "school",
    "name": "Woodbrook Vale School",
    "address": "Grasmere Road, Loughborough",
    "postcode": "LE11 2ST",
    "lat": 52.748562,
    "lng": -1.216284
  },
  {
    "id": "school-137409",
    "type": "school",
    "name": "The Becket School",
    "address": "The Becket Way, West Bridgford",
    "postcode": "NG2 7QY",
    "lat": 52.927455,
    "lng": -1.152772
  },
  {
    "id": "school-137447",
    "type": "school",
    "name": "Lincoln Christ's Hospital School",
    "address": "Wragby Road, Lincoln",
    "postcode": "LN2 4PN",
    "lat": 53.239213,
    "lng": -0.519983
  },
  {
    "id": "school-137453",
    "type": "school",
    "name": "The Vale Academy",
    "address": "Atherton Way, Brigg",
    "postcode": "DN20 8AR",
    "lat": 53.558919,
    "lng": -0.490863
  },
  {
    "id": "school-137464",
    "type": "school",
    "name": "John Whitgift Academy",
    "address": "Crosland Road, Grimsby",
    "postcode": "DN37 9EH",
    "lat": 53.571111,
    "lng": -0.131854
  },
  {
    "id": "school-137472",
    "type": "school",
    "name": "Don Valley Academy",
    "address": "Jossey Lane, Doncaster",
    "postcode": "DN5 9DD",
    "lat": 53.54592,
    "lng": -1.170432
  },
  {
    "id": "school-137540",
    "type": "school",
    "name": "Kibworth Mead Academy",
    "address": "Smeeton Road, Leicester",
    "postcode": "LE8 0LG",
    "lat": 52.533557,
    "lng": -0.995532
  },
  {
    "id": "school-137603",
    "type": "school",
    "name": "Ridgewood School",
    "address": "Barnsley Road, Doncaster",
    "postcode": "DN5 7UB",
    "lat": 53.538279,
    "lng": -1.180783
  },
  {
    "id": "school-137606",
    "type": "school",
    "name": "Heanor Gate Spencer Academy",
    "address": "Kirkley Drive, Heanor",
    "postcode": "DE75 7RA",
    "lat": 53.010723,
    "lng": -1.369415
  },
  {
    "id": "school-137613",
    "type": "school",
    "name": "Manor School",
    "address": "Mountbatten Way, Wellingborough",
    "postcode": "NN9 6PA",
    "lat": 52.342425,
    "lng": -0.529326
  },
  {
    "id": "school-137614",
    "type": "school",
    "name": "Moulton School and Science College",
    "address": "Pound Lane, Northampton",
    "postcode": "NN3 7SD",
    "lat": 52.28769,
    "lng": -0.855648
  },
  {
    "id": "school-137617",
    "type": "school",
    "name": "John Ferneley College",
    "address": "Scalford Road, Melton Mowbray",
    "postcode": "LE13 1LH",
    "lat": 52.780848,
    "lng": -0.88574
  },
  {
    "id": "school-137628",
    "type": "school",
    "name": "The Joseph Whitaker School",
    "address": "Warsop Lane, Mansfield",
    "postcode": "NG21 0AG",
    "lat": 53.114225,
    "lng": -1.119684
  },
  {
    "id": "school-137640",
    "type": "school",
    "name": "Rawlins",
    "address": "Loughborough Road, Loughborough",
    "postcode": "LE12 8DY",
    "lat": 52.744748,
    "lng": -1.169669
  },
  {
    "id": "school-137667",
    "type": "school",
    "name": "Kesteven and Sleaford High School Selective Academy",
    "address": "Jermyn Street, Sleaford",
    "postcode": "NG34 7RS",
    "lat": 52.99641,
    "lng": -0.409617
  },
  {
    "id": "school-137742",
    "type": "school",
    "name": "South Axholme Academy",
    "address": "Burnham Road, Doncaster",
    "postcode": "DN9 1BY",
    "lat": 53.524433,
    "lng": -0.824846
  },
  {
    "id": "school-137759",
    "type": "school",
    "name": "The Axholme Academy",
    "address": "Wharf Road, Crowle",
    "postcode": "DN17 4HU",
    "lat": 53.599134,
    "lng": -0.827141
  },
  {
    "id": "school-137763",
    "type": "school",
    "name": "The Brunts Academy",
    "address": "The Park, Mansfield",
    "postcode": "NG18 2AT",
    "lat": 53.1522,
    "lng": -1.185249
  },
  {
    "id": "school-137798",
    "type": "school",
    "name": "Bluecoat Aspley Academy",
    "address": "Aspley Lane, Nottingham",
    "postcode": "NG8 5GY",
    "lat": 52.968604,
    "lng": -1.191371
  },
  {
    "id": "school-137799",
    "type": "school",
    "name": "Humphrey Perkins School",
    "address": "Cotes Road, Loughborough",
    "postcode": "LE12 8JU",
    "lat": 52.755041,
    "lng": -1.150431
  },
  {
    "id": "school-137828",
    "type": "school",
    "name": "The Martin High School Anstey",
    "address": "Link Road, Leicester",
    "postcode": "LE7 7EB",
    "lat": 52.679053,
    "lng": -1.188149
  },
  {
    "id": "school-137842",
    "type": "school",
    "name": "Hall Cross Academy",
    "address": "Thorne Road, Doncaster",
    "postcode": "DN1 2HY",
    "lat": 53.522487,
    "lng": -1.122918
  },
  {
    "id": "school-137857",
    "type": "school",
    "name": "Quarrydale Academy",
    "address": "Stoneyford Road, Sutton-in-Ashfield",
    "postcode": "NG17 2DU",
    "lat": 53.135321,
    "lng": -1.2648
  },
  {
    "id": "school-137899",
    "type": "school",
    "name": "Hungerhill School",
    "address": "Hungerhill Lane, Doncaster",
    "postcode": "DN3 2JY",
    "lat": 53.551044,
    "lng": -1.072481
  },
  {
    "id": "school-137908",
    "type": "school",
    "name": "Saint John Houghton Catholic Voluntary Academy",
    "address": "Abbot Road, Ilkeston",
    "postcode": "DE7 4HX",
    "lat": 52.963419,
    "lng": -1.327399
  },
  {
    "id": "school-137911",
    "type": "school",
    "name": "Allestree Woodlands School",
    "address": "Blenheim Drive, Derby",
    "postcode": "DE22 2LW",
    "lat": 52.953935,
    "lng": -1.498698
  },
  {
    "id": "school-137912",
    "type": "school",
    "name": "Sir Christopher Hatton Academy",
    "address": "The Pyghtle, Wellingborough",
    "postcode": "NN8 4RP",
    "lat": 52.308587,
    "lng": -0.692802
  },
  {
    "id": "school-137916",
    "type": "school",
    "name": "The Blue Coat School",
    "address": "Church Road, Liverpool",
    "postcode": "L15 9EE",
    "lat": 53.392742,
    "lng": -2.914734
  },
  {
    "id": "school-137931",
    "type": "school",
    "name": "South Wigston High School",
    "address": "St Thomas Road, Wigston",
    "postcode": "LE18 4TA",
    "lat": 52.578851,
    "lng": -1.13641
  },
  {
    "id": "school-137968",
    "type": "school",
    "name": "Redmoor Academy",
    "address": "Wykin Road, Hinckley",
    "postcode": "LE10 0EP",
    "lat": 52.551377,
    "lng": -1.384354
  },
  {
    "id": "school-137969",
    "type": "school",
    "name": "Bosworth Academy",
    "address": "Leicester Lane, Leicester",
    "postcode": "LE9 9JL",
    "lat": 52.625588,
    "lng": -1.285088
  },
  {
    "id": "school-137981",
    "type": "school",
    "name": "Ashfield Comprehensive School",
    "address": "Sutton Road, Nottingham",
    "postcode": "NG17 8HP",
    "lat": 53.109822,
    "lng": -1.268776
  },
  {
    "id": "school-137983",
    "type": "school",
    "name": "Wreake Valley Academy",
    "address": "Parkstone Road, Leicester",
    "postcode": "LE7 1LY",
    "lat": 52.704129,
    "lng": -1.067124
  },
  {
    "id": "school-137984",
    "type": "school",
    "name": "Wigston Academy",
    "address": "Station Road, Wigston",
    "postcode": "LE18 2DT",
    "lat": 52.58157,
    "lng": -1.114954
  },
  {
    "id": "school-138018",
    "type": "school",
    "name": "St Bede's Catholic Voluntary Academy",
    "address": "Collum Avenue, Scunthorpe",
    "postcode": "DN16 2TF",
    "lat": 53.568615,
    "lng": -0.643614
  },
  {
    "id": "school-138073",
    "type": "school",
    "name": "DSLV E-ACT Academy",
    "address": "Hawke Road, Daventry",
    "postcode": "NN11 4LJ",
    "lat": 52.25661,
    "lng": -1.148851
  },
  {
    "id": "school-138076",
    "type": "school",
    "name": "The Elizabethan Academy",
    "address": "Hallcroft Road, Retford",
    "postcode": "DN22 7PY",
    "lat": 53.330909,
    "lng": -0.949956
  },
  {
    "id": "school-138079",
    "type": "school",
    "name": "The Roundhill Academy",
    "address": "997 Melton Road, Leicester",
    "postcode": "LE4 8GQ",
    "lat": 52.687307,
    "lng": -1.090313
  },
  {
    "id": "school-138116",
    "type": "school",
    "name": "Campsmount Academy",
    "address": "Ryecroft Road, Doncaster",
    "postcode": "DN6 9AS",
    "lat": 53.624844,
    "lng": -1.185383
  },
  {
    "id": "school-138150",
    "type": "school",
    "name": "Lutterworth College",
    "address": "Bitteswell Road, Lutterworth",
    "postcode": "LE17 4EW",
    "lat": 52.460017,
    "lng": -1.207375
  },
  {
    "id": "school-138155",
    "type": "school",
    "name": "Gartree High School",
    "address": "Ridge Way, Leicester",
    "postcode": "LE2 5TQ",
    "lat": 52.587997,
    "lng": -1.072397
  },
  {
    "id": "school-138191",
    "type": "school",
    "name": "The South Wolds Academy & Sixth Form",
    "address": "Church Drive, Nottingham",
    "postcode": "NG12 5FF",
    "lat": 52.873103,
    "lng": -1.08331
  },
  {
    "id": "school-138214",
    "type": "school",
    "name": "The Duston School",
    "address": "Berrywood Road, Northampton",
    "postcode": "NN5 6XA",
    "lat": 52.24786,
    "lng": -0.954005
  },
  {
    "id": "school-138235",
    "type": "school",
    "name": "The Parker E-ACT Academy",
    "address": "Ashby Road, Daventry",
    "postcode": "NN11 0QE",
    "lat": 52.264145,
    "lng": -1.162688
  },
  {
    "id": "school-138254",
    "type": "school",
    "name": "Corby Technical School",
    "address": "Cottingham Road, Corby",
    "postcode": "NN17 1TD",
    "lat": 52.487099,
    "lng": -0.690299
  },
  {
    "id": "school-138298",
    "type": "school",
    "name": "De Lisle College Loughborough Leicestershire",
    "address": "Thorpe Hill, Loughborough",
    "postcode": "LE11 4SQ",
    "lat": 52.770399,
    "lng": -1.235207
  },
  {
    "id": "school-138301",
    "type": "school",
    "name": "The Newbridge School",
    "address": "Forest Road, Coalville",
    "postcode": "LE67 3SJ",
    "lat": 52.71684,
    "lng": -1.3646
  },
  {
    "id": "school-138314",
    "type": "school",
    "name": "Armthorpe Academy",
    "address": "Mere Lane, Doncaster",
    "postcode": "DN3 2DA",
    "lat": 53.539821,
    "lng": -1.058148
  },
  {
    "id": "school-138323",
    "type": "school",
    "name": "Brookvale Groby Learning Campus",
    "address": "Ratby Road, Leicester",
    "postcode": "LE6 0FP",
    "lat": 52.657025,
    "lng": -1.23253
  },
  {
    "id": "school-138327",
    "type": "school",
    "name": "Heath Lane Academy",
    "address": "Heath Lane, Leicester",
    "postcode": "LE9 7PD",
    "lat": 52.575245,
    "lng": -1.33244
  },
  {
    "id": "school-138341",
    "type": "school",
    "name": "The Trinity Catholic School A Voluntary Academy",
    "address": "Beechdale Road, Nottingham",
    "postcode": "NG8 3EZ",
    "lat": 52.968848,
    "lng": -1.207674
  },
  {
    "id": "school-138350",
    "type": "school",
    "name": "Ivanhoe School",
    "address": "North Street, Ashby-de-la-Zouch",
    "postcode": "LE65 1HX",
    "lat": 52.749621,
    "lng": -1.466982
  },
  {
    "id": "school-138411",
    "type": "school",
    "name": "Meden School",
    "address": "Burns Lane, Mansfield",
    "postcode": "NG20 0QN",
    "lat": 53.208717,
    "lng": -1.147414
  },
  {
    "id": "school-138478",
    "type": "school",
    "name": "The Castle Rock School",
    "address": "Meadow Lane, Coalville",
    "postcode": "LE67 4BR",
    "lat": 52.728508,
    "lng": -1.323645
  },
  {
    "id": "school-138482",
    "type": "school",
    "name": "Rushcliffe Spencer Academy",
    "address": "Boundary Road, Nottingham",
    "postcode": "NG2 7BW",
    "lat": 52.915038,
    "lng": -1.122925
  },
  {
    "id": "school-138521",
    "type": "school",
    "name": "Brockington College",
    "address": "Blaby Road, Leicester",
    "postcode": "LE19 4AQ",
    "lat": 52.586199,
    "lng": -1.202104
  },
  {
    "id": "school-138527",
    "type": "school",
    "name": "Thomas Estley Community College",
    "address": "Station Road, Leicester",
    "postcode": "LE9 6PT",
    "lat": 52.529401,
    "lng": -1.22081
  },
  {
    "id": "school-138622",
    "type": "school",
    "name": "Saint Benedict, A Catholic Voluntary Academy",
    "address": "Duffield Road, Derby",
    "postcode": "DE22 1JD",
    "lat": 52.942977,
    "lng": -1.484418
  },
  {
    "id": "school-138628",
    "type": "school",
    "name": "Long Field Spencer Academy",
    "address": "Ambleside Way, Melton Mowbray",
    "postcode": "LE13 0BN",
    "lat": 52.760409,
    "lng": -0.898919
  },
  {
    "id": "school-138638",
    "type": "school",
    "name": "Kesteven and Grantham Girls' School",
    "address": "Sandon Road, Grantham",
    "postcode": "NG31 9AU",
    "lat": 52.912844,
    "lng": -0.632707
  },
  {
    "id": "school-138641",
    "type": "school",
    "name": "The Kimberley School",
    "address": "Newdigate Street, Nottingham",
    "postcode": "NG16 2NJ",
    "lat": 52.998644,
    "lng": -1.250762
  },
  {
    "id": "school-138665",
    "type": "school",
    "name": "Queen Elizabeth's Grammar School, Horncastle",
    "address": "West Street, Horncastle",
    "postcode": "LN9 5AD",
    "lat": 53.209422,
    "lng": -0.120445
  },
  {
    "id": "school-138721",
    "type": "school",
    "name": "Ibstock School",
    "address": "Central Avenue, Ibstock",
    "postcode": "LE67 6NE",
    "lat": 52.689129,
    "lng": -1.398857
  },
  {
    "id": "school-138810",
    "type": "school",
    "name": "Christ The King Voluntary Academy",
    "address": "Darlton Drive, Nottingham",
    "postcode": "NG5 7JZ",
    "lat": 52.999796,
    "lng": -1.110061
  },
  {
    "id": "school-138819",
    "type": "school",
    "name": "The Priory Belvoir Academy",
    "address": "Barkestone Lane, Nottingham",
    "postcode": "NG13 0AX",
    "lat": 52.936856,
    "lng": -0.805886
  },
  {
    "id": "school-138820",
    "type": "school",
    "name": "Castle Donington College",
    "address": "Mount Pleasant, Derby",
    "postcode": "DE74 2LN",
    "lat": 52.839497,
    "lng": -1.334438
  },
  {
    "id": "school-138831",
    "type": "school",
    "name": "Winterton Community Academy",
    "address": "Newport Drive, Scunthorpe",
    "postcode": "DN15 9QD",
    "lat": 53.658877,
    "lng": -0.596191
  },
  {
    "id": "school-138832",
    "type": "school",
    "name": "Alderman White School",
    "address": "Chilwell Lane, Nottingham",
    "postcode": "NG9 3DU",
    "lat": 52.927537,
    "lng": -1.239314
  },
  {
    "id": "school-138837",
    "type": "school",
    "name": "Bramcote College",
    "address": "Moor Lane, Nottingham",
    "postcode": "NG9 3GA",
    "lat": 52.939046,
    "lng": -1.249336
  },
  {
    "id": "school-138839",
    "type": "school",
    "name": "Sir William Robertson Academy, Welbourn",
    "address": "Main Road, Lincoln",
    "postcode": "LN5 0PA",
    "lat": 53.06662,
    "lng": -0.565135
  },
  {
    "id": "school-138858",
    "type": "school",
    "name": "Abbeyfield School",
    "address": "Mereway, Northampton",
    "postcode": "NN4 8BU",
    "lat": 52.215674,
    "lng": -0.902969
  },
  {
    "id": "school-138869",
    "type": "school",
    "name": "Madani Boys School",
    "address": "77 Evington Valley, Leicester",
    "postcode": "LE5 5LL",
    "lat": 52.627749,
    "lng": -1.098345
  },
  {
    "id": "school-138894",
    "type": "school",
    "name": "Wigston College",
    "address": "Station Road, Wigston",
    "postcode": "LE18 2DS",
    "lat": 52.581096,
    "lng": -1.117709
  },
  {
    "id": "school-138932",
    "type": "school",
    "name": "Kingsthorpe College",
    "address": "Boughton Green Road, Northampton",
    "postcode": "NN2 7HR",
    "lat": 52.270618,
    "lng": -0.884229
  },
  {
    "id": "school-138964",
    "type": "school",
    "name": "East Leake Academy",
    "address": "Lantern Lane, Loughborough",
    "postcode": "LE12 6QN",
    "lat": 52.836103,
    "lng": -1.170897
  },
  {
    "id": "school-139059",
    "type": "school",
    "name": "Melior Community Academy",
    "address": "Chandos Road, Scunthorpe",
    "postcode": "DN17 1HA",
    "lat": 53.570985,
    "lng": -0.662493
  },
  {
    "id": "school-139060",
    "type": "school",
    "name": "Lodge Park Academy",
    "address": "Shetland Way, Corby",
    "postcode": "NN17 2JH",
    "lat": 52.501511,
    "lng": -0.719707
  },
  {
    "id": "school-139062",
    "type": "school",
    "name": "The Dukeries Academy",
    "address": "Whinney Lane, Newark",
    "postcode": "NG22 9TD",
    "lat": 53.208661,
    "lng": -0.999146
  },
  {
    "id": "school-139063",
    "type": "school",
    "name": "Sutton Community Academy",
    "address": "High Pavement, Sutton-in-Ashfield",
    "postcode": "NG17 1EE",
    "lat": 53.123481,
    "lng": -1.259069
  },
  {
    "id": "school-139277",
    "type": "school",
    "name": "Outwood Academy Brumby",
    "address": "Cemetery Road, Scunthorpe",
    "postcode": "DN16 1NT",
    "lat": 53.577971,
    "lng": -0.643345
  },
  {
    "id": "school-139410",
    "type": "school",
    "name": "St Andrew the Apostle Greek Orthodox School",
    "address": "North London Business Park, London",
    "postcode": "N11 1NP",
    "lat": 51.624671,
    "lng": -0.151337
  },
  {
    "id": "school-139442",
    "type": "school",
    "name": "South Charnwood High School",
    "address": "Broad Lane, Markfield",
    "postcode": "LE67 9TB",
    "lat": 52.679131,
    "lng": -1.301981
  },
  {
    "id": "school-139594",
    "type": "school",
    "name": "The Archer Academy",
    "address": "Eagans Close, London",
    "postcode": "N2 8GA",
    "lat": 51.591021,
    "lng": -0.168196
  },
  {
    "id": "school-139623",
    "type": "school",
    "name": "St Peter and St Paul, Catholic Voluntary Academy",
    "address": "Western Avenue, Lincoln",
    "postcode": "LN6 7SX",
    "lat": 53.211003,
    "lng": -0.562097
  },
  {
    "id": "school-139624",
    "type": "school",
    "name": "Beauchamp College",
    "address": "Ridge Way, Leicester",
    "postcode": "LE2 5TP",
    "lat": 52.587823,
    "lng": -1.07085
  },
  {
    "id": "school-139649",
    "type": "school",
    "name": "Beacon Academy",
    "address": "Chatsworth Place, Cleethorpes",
    "postcode": "DN35 9NF",
    "lat": 53.549817,
    "lng": -0.047206
  },
  {
    "id": "school-139690",
    "type": "school",
    "name": "Silverstone UTC",
    "address": "Silverstone Circuit, Towcester",
    "postcode": "NN12 8TL",
    "lat": 52.074531,
    "lng": -1.020766
  },
  {
    "id": "school-139765",
    "type": "school",
    "name": "The Nottingham Emmanuel School",
    "address": "Gresham Park Road, West Bridgford",
    "postcode": "NG2 7YF",
    "lat": 52.932586,
    "lng": -1.149949
  },
  {
    "id": "school-139819",
    "type": "school",
    "name": "Weavers Academy",
    "address": "Brickhill Road, Wellingborough",
    "postcode": "NN8 3JH",
    "lat": 52.301662,
    "lng": -0.711531
  },
  {
    "id": "school-139956",
    "type": "school",
    "name": "The Holgate Academy",
    "address": "Nabbs Lane, Nottingham",
    "postcode": "NG15 6HB",
    "lat": 53.03196,
    "lng": -1.225129
  },
  {
    "id": "school-139957",
    "type": "school",
    "name": "Kingswood Secondary Academy",
    "address": "Gainsborough Road, Corby",
    "postcode": "NN18 9NS",
    "lat": 52.477696,
    "lng": -0.731811
  },
  {
    "id": "school-139961",
    "type": "school",
    "name": "Wrenn School",
    "address": "London Road, Wellingborough",
    "postcode": "NN8 2DQ",
    "lat": 52.296199,
    "lng": -0.687359
  },
  {
    "id": "school-139988",
    "type": "school",
    "name": "The Ferrers School",
    "address": "Queensway, Rushden",
    "postcode": "NN10 8LF",
    "lat": 52.303193,
    "lng": -0.58597
  },
  {
    "id": "school-140103",
    "type": "school",
    "name": "Hastings High School",
    "address": "St Catherine's Close, Hinckley",
    "postcode": "LE10 2QE",
    "lat": 52.535198,
    "lng": -1.354958
  },
  {
    "id": "school-140369",
    "type": "school",
    "name": "Bluecoat Beechdale Academy",
    "address": "Harvey Road, Nottingham",
    "postcode": "NG8 3GP",
    "lat": 52.96618,
    "lng": -1.210581
  },
  {
    "id": "school-140510",
    "type": "school",
    "name": "Northampton School for Girls",
    "address": "Spinney Hill Road, Northampton",
    "postcode": "NN3 6DG",
    "lat": 52.265202,
    "lng": -0.872597
  },
  {
    "id": "school-140549",
    "type": "school",
    "name": "Magnus Church of England Academy",
    "address": "Earp Avenue, Newark",
    "postcode": "NG24 4AB",
    "lat": 53.068075,
    "lng": -0.800513
  },
  {
    "id": "school-140698",
    "type": "school",
    "name": "All Saints' Catholic Voluntary Academy",
    "address": "Broomhill Lane, Mansfield",
    "postcode": "NG19 6BW",
    "lat": 53.151469,
    "lng": -1.21293
  },
  {
    "id": "school-140787",
    "type": "school",
    "name": "The Cedars Academy",
    "address": "Wanlip Lane, Leicester",
    "postcode": "LE4 4GH",
    "lat": 52.685592,
    "lng": -1.119126
  },
  {
    "id": "school-140865",
    "type": "school",
    "name": "The McAuley Catholic High School",
    "address": "Cantley Lane, Doncaster",
    "postcode": "DN3 3QF",
    "lat": 53.507945,
    "lng": -1.058342
  },
  {
    "id": "school-140866",
    "type": "school",
    "name": "The Snaith School",
    "address": "Pontefract Road, Goole",
    "postcode": "DN14 9LB",
    "lat": 53.689735,
    "lng": -1.034844
  },
  {
    "id": "school-140950",
    "type": "school",
    "name": "Lincoln UTC",
    "address": "Lindum Road, Lincoln",
    "postcode": "LN2 1PF",
    "lat": 53.232208,
    "lng": -0.532977
  },
  {
    "id": "school-140964",
    "type": "school",
    "name": "XP School",
    "address": "Middle Bank, Doncaster",
    "postcode": "DN4 5NG",
    "lat": 53.511815,
    "lng": -1.117965
  },
  {
    "id": "school-140984",
    "type": "school",
    "name": "Nottingham University Academy of Science and Technology",
    "address": "93 Abbey Street, Nottingham",
    "postcode": "NG7 2PL",
    "lat": 52.940381,
    "lng": -1.179307
  },
  {
    "id": "school-140992",
    "type": "school",
    "name": "Hall Park Academy",
    "address": "Mansfield Road, Nottingham",
    "postcode": "NG16 3EA",
    "lat": 53.019595,
    "lng": -1.310797
  },
  {
    "id": "school-141010",
    "type": "school",
    "name": "Nottingham Free School",
    "address": "The Courtaulds Building, Nottingham",
    "postcode": "NG5 1EB",
    "lat": 52.979395,
    "lng": -1.158042
  },
  {
    "id": "school-141166",
    "type": "school",
    "name": "The Barnes Wallis Academy",
    "address": "Butts Lane, Lincoln",
    "postcode": "LN4 4PN",
    "lat": 53.105866,
    "lng": -0.179275
  },
  {
    "id": "school-141259",
    "type": "school",
    "name": "The Ripley Academy",
    "address": "Peasehill, Ripley",
    "postcode": "DE5 3JQ",
    "lat": 53.044639,
    "lng": -1.391103
  },
  {
    "id": "school-141363",
    "type": "school",
    "name": "The Oakwood Academy",
    "address": "Bewcastle Road, Nottingham",
    "postcode": "NG5 9PJ",
    "lat": 53.014853,
    "lng": -1.158053
  },
  {
    "id": "school-141581",
    "type": "school",
    "name": "The Banovallum School",
    "address": "Boston Road, Horncastle",
    "postcode": "LN9 6DA",
    "lat": 53.202371,
    "lng": -0.107875
  },
  {
    "id": "school-141693",
    "type": "school",
    "name": "Hillside High School",
    "address": "Breeze Hill, Bootle",
    "postcode": "L20 9NU",
    "lat": 53.448238,
    "lng": -2.973708
  },
  {
    "id": "school-141874",
    "type": "school",
    "name": "Charnwood College",
    "address": "Thorpe Hill, Loughborough",
    "postcode": "LE11 4SQ",
    "lat": 52.771147,
    "lng": -1.238352
  },
  {
    "id": "school-141916",
    "type": "school",
    "name": "Rushey Mead Academy",
    "address": "Melton Road, Leicester",
    "postcode": "LE4 7AN",
    "lat": 52.662151,
    "lng": -1.109379
  },
  {
    "id": "school-141965",
    "type": "school",
    "name": "Harington School",
    "address": "Huntsmans Drive, Oakham",
    "postcode": "LE15 6RP",
    "lat": 52.673628,
    "lng": -0.740138
  },
  {
    "id": "school-142130",
    "type": "school",
    "name": "Engineering UTC Northern Lincolnshire",
    "address": "Carlton Street, Scunthorpe",
    "postcode": "DN15 6TA",
    "lat": 53.591372,
    "lng": -0.64068
  },
  {
    "id": "school-142262",
    "type": "school",
    "name": "King Edward VI Grammar School",
    "address": "Edward Street, Louth",
    "postcode": "LN11 9LL",
    "lat": 53.363807,
    "lng": -0.00785
  },
  {
    "id": "school-142392",
    "type": "school",
    "name": "Somercotes Academy",
    "address": "Keeling Street, Louth",
    "postcode": "LN11 7PN",
    "lat": 53.446483,
    "lng": 0.137636
  },
  {
    "id": "school-142405",
    "type": "school",
    "name": "David Nieper Academy",
    "address": "Grange Street, Alfreton",
    "postcode": "DE55 7JA",
    "lat": 53.093952,
    "lng": -1.382566
  },
  {
    "id": "school-142485",
    "type": "school",
    "name": "Northampton International Academy",
    "address": "Barrack Road, Northampton",
    "postcode": "NN1 1AA",
    "lat": 52.244857,
    "lng": -0.896697
  },
  {
    "id": "school-142710",
    "type": "school",
    "name": "John Flamsteed Community School",
    "address": "Derby Road, Ripley",
    "postcode": "DE5 8NP",
    "lat": 53.016845,
    "lng": -1.426156
  },
  {
    "id": "school-142725",
    "type": "school",
    "name": "Selston High School",
    "address": "Chapel Road, Nottingham",
    "postcode": "NG16 6BW",
    "lat": 53.072213,
    "lng": -1.305747
  },
  {
    "id": "school-142741",
    "type": "school",
    "name": "Swanwick Hall School",
    "address": "Derby Road, Alfreton",
    "postcode": "DE55 1AE",
    "lat": 53.072917,
    "lng": -1.395272
  },
  {
    "id": "school-142747",
    "type": "school",
    "name": "St Thomas Becket Catholic School",
    "address": "Becket Way, Northampton",
    "postcode": "NN3 6HT",
    "lat": 52.269697,
    "lng": -0.860274
  },
  {
    "id": "school-142798",
    "type": "school",
    "name": "The Prescot School",
    "address": "Knowsley Park Lane, Liverpool",
    "postcode": "L34 3NB",
    "lat": 53.431111,
    "lng": -2.810125
  },
  {
    "id": "school-142869",
    "type": "school",
    "name": "Wootton Park School",
    "address": "Wootton Hall Park, Northampton",
    "postcode": "NN4 0HZ",
    "lat": 52.213572,
    "lng": -0.896492
  },
  {
    "id": "school-143247",
    "type": "school",
    "name": "Babington Academy",
    "address": "Strasbourg Drive, Leicester",
    "postcode": "LE4 0SZ",
    "lat": 52.66106,
    "lng": -1.15811
  },
  {
    "id": "school-143421",
    "type": "school",
    "name": "Elizabeth Woodville School",
    "address": "Stratford Road, Roade",
    "postcode": "NN7 2LP",
    "lat": 52.154255,
    "lng": -0.898617
  },
  {
    "id": "school-143679",
    "type": "school",
    "name": "Avanti Fields School",
    "address": "21 Bhaktivedanta Marg, Leicester",
    "postcode": "LE5 0BX",
    "lat": 52.651987,
    "lng": -1.073645
  },
  {
    "id": "school-143734",
    "type": "school",
    "name": "Derby Cathedral School",
    "address": "Great Northern Road, Derby",
    "postcode": "DE1 1LR",
    "lat": 52.921446,
    "lng": -1.490892
  },
  {
    "id": "school-143844",
    "type": "school",
    "name": "The Winstanley School",
    "address": "Kingsway North, Leicester",
    "postcode": "LE3 3BD",
    "lat": 52.61728,
    "lng": -1.184728
  },
  {
    "id": "school-143853",
    "type": "school",
    "name": "Noel-Baker Academy",
    "address": "Bracknell Drive, Derby",
    "postcode": "DE24 0BR",
    "lat": 52.882573,
    "lng": -1.437502
  },
  {
    "id": "school-143857",
    "type": "school",
    "name": "Lancaster Academy",
    "address": "Knighton Lane East, Leicester",
    "postcode": "LE2 6FU",
    "lat": 52.60477,
    "lng": -1.123864
  },
  {
    "id": "school-143916",
    "type": "school",
    "name": "XP East",
    "address": "Middle Bank, Doncaster",
    "postcode": "DN4 5NG",
    "lat": 53.512123,
    "lng": -1.115757
  },
  {
    "id": "school-143934",
    "type": "school",
    "name": "Lees Brook Academy",
    "address": "Morley Road, Derby",
    "postcode": "DE21 4QX",
    "lat": 52.933671,
    "lng": -1.421662
  },
  {
    "id": "school-143938",
    "type": "school",
    "name": "Outwood Academy Danum",
    "address": "Armthorpe Road, Doncaster",
    "postcode": "DN2 5QD",
    "lat": 53.533774,
    "lng": -1.081626
  },
  {
    "id": "school-144066",
    "type": "school",
    "name": "Da Vinci Academy",
    "address": "St Andrew's View, Derby",
    "postcode": "DE21 4ET",
    "lat": 52.941132,
    "lng": -1.446089
  },
  {
    "id": "school-144069",
    "type": "school",
    "name": "The Pingle Academy",
    "address": "Coronation Street, Swadlincote",
    "postcode": "DE11 0QA",
    "lat": 52.777736,
    "lng": -1.564211
  },
  {
    "id": "school-144182",
    "type": "school",
    "name": "Colonel Frank Seely Academy",
    "address": "Flatts Lane, Nottingham",
    "postcode": "NG14 6JZ",
    "lat": 53.040388,
    "lng": -1.084001
  },
  {
    "id": "school-144326",
    "type": "school",
    "name": "Rainhill High School",
    "address": "Warrington Road, Prescot",
    "postcode": "L35 6NY",
    "lat": 53.411045,
    "lng": -2.752434
  },
  {
    "id": "school-144364",
    "type": "school",
    "name": "Sir Thomas Wharton Academy",
    "address": "Tait Avenue, Doncaster",
    "postcode": "DN12 1HH",
    "lat": 53.473334,
    "lng": -1.184294
  },
  {
    "id": "school-144479",
    "type": "school",
    "name": "Tudor Grange Samworth Academy, A church of England School",
    "address": "Tudor Grange Samworth Academy, 50 Trenant Road, Leicester",
    "postcode": "LE2 6UA",
    "lat": 52.593796,
    "lng": -1.135378
  },
  {
    "id": "school-144486",
    "type": "school",
    "name": "Queen Elizabeth's Academy",
    "address": "Chesterfield Road South, Mansfield",
    "postcode": "NG19 7AP",
    "lat": 53.154891,
    "lng": -1.204327
  },
  {
    "id": "school-144487",
    "type": "school",
    "name": "Park Vale Academy",
    "address": "Top Valley Drive, Nottingham",
    "postcode": "NG5 9AZ",
    "lat": 53.008122,
    "lng": -1.17373
  },
  {
    "id": "school-144489",
    "type": "school",
    "name": "The Newark Academy",
    "address": "London Road, Newark",
    "postcode": "NG24 3AL",
    "lat": 53.062356,
    "lng": -0.784404
  },
  {
    "id": "school-144533",
    "type": "school",
    "name": "Granville Academy",
    "address": "Burton Road, Swadlincote",
    "postcode": "DE11 7JR",
    "lat": 52.775902,
    "lng": -1.535586
  },
  {
    "id": "school-144629",
    "type": "school",
    "name": "Orchard Mead Academy",
    "address": "Keyham Lane West, Leicester",
    "postcode": "LE5 1RT",
    "lat": 52.651909,
    "lng": -1.050214
  },
  {
    "id": "school-144687",
    "type": "school",
    "name": "The Garibaldi School",
    "address": "Forest Town, Mansfield",
    "postcode": "NG19 0JX",
    "lat": 53.160399,
    "lng": -1.131917
  },
  {
    "id": "school-144714",
    "type": "school",
    "name": "New College Doncaster",
    "address": "Hurst Lane, Doncaster",
    "postcode": "DN9 3HG",
    "lat": 53.492177,
    "lng": -1.022602
  },
  {
    "id": "school-144768",
    "type": "school",
    "name": "The Suthers School",
    "address": "Cross Lane, Newark",
    "postcode": "NG24 3NH",
    "lat": 53.04127,
    "lng": -0.77451
  },
  {
    "id": "school-144968",
    "type": "school",
    "name": "Louth Academy",
    "address": "Monks' Dyke Road, Louth",
    "postcode": "LN11 9AW",
    "lat": 53.365886,
    "lng": 0.006002
  },
  {
    "id": "school-145052",
    "type": "school",
    "name": "The Priory Pembroke Academy",
    "address": "Croft Lane, Lincoln",
    "postcode": "LN3 4JP",
    "lat": 53.246058,
    "lng": -0.457138
  },
  {
    "id": "school-145109",
    "type": "school",
    "name": "Frederick Gent School",
    "address": "Mansfield Road, Alfreton",
    "postcode": "DE55 2ER",
    "lat": 53.099698,
    "lng": -1.329592
  },
  {
    "id": "school-145132",
    "type": "school",
    "name": "City of Derby Academy",
    "address": "Farmhouse Road, Derby",
    "postcode": "DE24 3AR",
    "lat": 52.874714,
    "lng": -1.491068
  },
  {
    "id": "school-145146",
    "type": "school",
    "name": "Bluecoat Wollaton Academy",
    "address": "Sutton Passeys Crescent, Nottingham",
    "postcode": "NG8 1EA",
    "lat": 52.951023,
    "lng": -1.197416
  },
  {
    "id": "school-145158",
    "type": "school",
    "name": "Melton Vale Sixth Form College",
    "address": "Burton Road, Melton Mowbray",
    "postcode": "LE13 1DN",
    "lat": 52.753336,
    "lng": -0.871549
  },
  {
    "id": "school-145327",
    "type": "school",
    "name": "Derby Moor Spencer Academy",
    "address": "Moorway Lane, Derby",
    "postcode": "DE23 2FS",
    "lat": 52.895278,
    "lng": -1.513082
  },
  {
    "id": "school-145500",
    "type": "school",
    "name": "John Port Spencer Academy",
    "address": "Main Street, Derby",
    "postcode": "DE65 6LU",
    "lat": 52.88389,
    "lng": -1.60344
  },
  {
    "id": "school-145558",
    "type": "school",
    "name": "Judgemeadow Community College",
    "address": "Marydene Drive, Leicester",
    "postcode": "LE5 6HP",
    "lat": 52.621689,
    "lng": -1.065923
  },
  {
    "id": "school-145643",
    "type": "school",
    "name": "The Minster School",
    "address": "Nottingham Road, Southwell",
    "postcode": "NG25 0LG",
    "lat": 53.071807,
    "lng": -0.956062
  },
  {
    "id": "school-145889",
    "type": "school",
    "name": "John Taylor Free School",
    "address": "Branston Road, Burton-on-Trent",
    "postcode": "DE13 9SA",
    "lat": 52.791868,
    "lng": -1.685863
  },
  {
    "id": "school-145929",
    "type": "school",
    "name": "Goole Academy",
    "address": "Centenary Road, Goole",
    "postcode": "DN14 6AN",
    "lat": 53.707879,
    "lng": -0.882166
  },
  {
    "id": "school-145952",
    "type": "school",
    "name": "The Bulwell Academy",
    "address": "Hucknall Lane, Nottingham",
    "postcode": "NG6 8AQ",
    "lat": 53.00694,
    "lng": -1.194188
  },
  {
    "id": "school-145954",
    "type": "school",
    "name": "The Gainsborough Academy",
    "address": "Sweyn Lane, Gainsborough",
    "postcode": "DN21 1PB",
    "lat": 53.408678,
    "lng": -0.754089
  },
  {
    "id": "school-145966",
    "type": "school",
    "name": "Friesland School",
    "address": "Nursery Avenue, Sandiacre",
    "postcode": "NG10 5AF",
    "lat": 52.921561,
    "lng": -1.302819
  },
  {
    "id": "school-146108",
    "type": "school",
    "name": "Sir Jonathan North Girls' College",
    "address": "Knighton Lane East, Leicester",
    "postcode": "LE2 6FU",
    "lat": 52.606527,
    "lng": -1.123061
  },
  {
    "id": "school-146129",
    "type": "school",
    "name": "Howden School",
    "address": "Derwent Road, Goole",
    "postcode": "DN14 7AL",
    "lat": 53.748366,
    "lng": -0.858933
  },
  {
    "id": "school-146196",
    "type": "school",
    "name": "English Martyrs' Catholic School, A Voluntary Academy",
    "address": "Anstey Lane, Leicester",
    "postcode": "LE4 0FJ",
    "lat": 52.650513,
    "lng": -1.158017
  },
  {
    "id": "school-146209",
    "type": "school",
    "name": "Rushden Academy",
    "address": "Hayway, Rushden",
    "postcode": "NN10 6AG",
    "lat": 52.297663,
    "lng": -0.603409
  },
  {
    "id": "school-146232",
    "type": "school",
    "name": "St Paul's Catholic School, a Voluntary Academy",
    "address": "Spencefield Lane, Leicester",
    "postcode": "LE5 6HN",
    "lat": 52.628667,
    "lng": -1.067163
  },
  {
    "id": "school-146235",
    "type": "school",
    "name": "Blessed Robert Sutton Catholic Voluntary Academy",
    "address": "Bluestone Lane, Burton-on-Trent",
    "postcode": "DE15 9SD",
    "lat": 52.786098,
    "lng": -1.613628
  },
  {
    "id": "school-146370",
    "type": "school",
    "name": "Astrea Academy Woodfields",
    "address": "Weston Road, Doncaster",
    "postcode": "DN4 8ND",
    "lat": 53.498408,
    "lng": -1.138462
  },
  {
    "id": "school-146374",
    "type": "school",
    "name": "Kirk Hallam Community Academy",
    "address": "Godfrey Drive, Ilkeston",
    "postcode": "DE7 4HH",
    "lat": 52.96356,
    "lng": -1.320637
  },
  {
    "id": "school-146451",
    "type": "school",
    "name": "Wilsthorpe School",
    "address": "Derby Road, Nottingham",
    "postcode": "NG10 4WT",
    "lat": 52.903249,
    "lng": -1.289374
  },
  {
    "id": "school-146489",
    "type": "school",
    "name": "Wollaston School",
    "address": "Irchester Road, Wellingborough",
    "postcode": "NN29 7PH",
    "lat": 52.256411,
    "lng": -0.66106
  },
  {
    "id": "school-146539",
    "type": "school",
    "name": "Ellis Guilford School",
    "address": "Bar Lane, Nottingham",
    "postcode": "NG6 0HT",
    "lat": 52.979649,
    "lng": -1.188141
  },
  {
    "id": "school-146562",
    "type": "school",
    "name": "Arnold Hill Spencer Academy",
    "address": "Gedling Road, Nottingham",
    "postcode": "NG5 6NZ",
    "lat": 52.997099,
    "lng": -1.116137
  },
  {
    "id": "school-146564",
    "type": "school",
    "name": "Farnborough Spencer Academy",
    "address": "Farnborough Road, Nottingham",
    "postcode": "NG11 8JW",
    "lat": 52.908977,
    "lng": -1.165163
  },
  {
    "id": "school-147068",
    "type": "school",
    "name": "Castle Mead Academy",
    "address": "Richard III Road, Leicester",
    "postcode": "LE3 5QT",
    "lat": 52.636235,
    "lng": -1.144162
  },
  {
    "id": "school-147285",
    "type": "school",
    "name": "Bilborough College",
    "address": "Bilborough Road, Nottingham",
    "postcode": "NG8 4DQ",
    "lat": 52.966433,
    "lng": -1.23272
  },
  {
    "id": "school-147456",
    "type": "school",
    "name": "The Wells Academy",
    "address": "Ransom Drive, Nottingham",
    "postcode": "NG3 5LR",
    "lat": 52.976881,
    "lng": -1.128644
  },
  {
    "id": "school-147574",
    "type": "school",
    "name": "Paulet High School",
    "address": "Violet Way, Burton-on-Trent",
    "postcode": "DE15 9RT",
    "lat": 52.789723,
    "lng": -1.614144
  },
  {
    "id": "school-147685",
    "type": "school",
    "name": "UTC Derby Pride Park",
    "address": "Locomotive Way, Derby",
    "postcode": "DE24 8PU",
    "lat": 52.91345,
    "lng": -1.457567
  },
  {
    "id": "school-147756",
    "type": "school",
    "name": "Gateway Sixth Form College",
    "address": "Colin Grundy Drive, Leicester",
    "postcode": "LE5 1GA",
    "lat": 52.651288,
    "lng": -1.07162
  },
  {
    "id": "school-147837",
    "type": "school",
    "name": "Beauchamp City Sixth Form",
    "address": "1 South Albion Street, Leicester",
    "postcode": "LE1 6JL",
    "lat": 52.630367,
    "lng": -1.12619
  },
  {
    "id": "school-147838",
    "type": "school",
    "name": "Doncaster UTC",
    "address": "College Road, Doncaster",
    "postcode": "DN1 3BF",
    "lat": 53.518766,
    "lng": -1.130476
  },
  {
    "id": "school-147902",
    "type": "school",
    "name": "Countesthorpe Academy",
    "address": "Winchester Road, Countesthorpe",
    "postcode": "LE8 5PR",
    "lat": 52.556127,
    "lng": -1.158423
  },
  {
    "id": "school-148299",
    "type": "school",
    "name": "Highfields School",
    "address": "Upper Lumsdale, Matlock",
    "postcode": "DE4 5NA",
    "lat": 53.146497,
    "lng": -1.5342
  },
  {
    "id": "school-148417",
    "type": "school",
    "name": "The Hinckley School",
    "address": "Butt Lane, Hinckley",
    "postcode": "LE10 1LE",
    "lat": 52.546845,
    "lng": -1.350658
  },
  {
    "id": "school-148433",
    "type": "school",
    "name": "West Grantham Church of England Secondary Academy",
    "address": "The Avenue, Grantham",
    "postcode": "NG31 7PX",
    "lat": 52.907218,
    "lng": -0.660545
  },
  {
    "id": "school-148538",
    "type": "school",
    "name": "Alvaston Moor Academy",
    "address": "Brackens Lane, Derby",
    "postcode": "DE24 0AN",
    "lat": 52.88837,
    "lng": -1.442882
  },
  {
    "id": "school-148546",
    "type": "school",
    "name": "Brook Mead Academy",
    "address": "2 Garland Crescent, Leicester",
    "postcode": "LE3 9BN",
    "lat": 52.644039,
    "lng": -1.154268
  },
  {
    "id": "school-148548",
    "type": "school",
    "name": "Bluecoat Trent Academy",
    "address": "Pelham Avenue, Nottingham",
    "postcode": "NG5 1AJ",
    "lat": 52.969111,
    "lng": -1.153104
  },
  {
    "id": "school-148549",
    "type": "school",
    "name": "Ashby School",
    "address": "Nottingham Road, Ashby-De-La-Zouch",
    "postcode": "LE65 1DT",
    "lat": 52.748115,
    "lng": -1.461845
  },
  {
    "id": "school-148639",
    "type": "school",
    "name": "Chellaston Academy",
    "address": "Swarkestone Road, Derby",
    "postcode": "DE73 5UB",
    "lat": 52.865843,
    "lng": -1.437718
  },
  {
    "id": "school-148877",
    "type": "school",
    "name": "Soar Valley College",
    "address": "Gleneagles Avenue, Leicester",
    "postcode": "LE4 7GY",
    "lat": 52.659651,
    "lng": -1.104535
  },
  {
    "id": "school-148878",
    "type": "school",
    "name": "The City of Leicester College",
    "address": "Downing Drive, Leicester",
    "postcode": "LE5 6LN",
    "lat": 52.625104,
    "lng": -1.05994
  },
  {
    "id": "school-149271",
    "type": "school",
    "name": "Iveshead School",
    "address": "Forest Street, Loughborough",
    "postcode": "LE12 9DB",
    "lat": 52.773483,
    "lng": -1.281363
  },
  {
    "id": "school-149364",
    "type": "school",
    "name": "Aldercar High School",
    "address": "Daltons Close, Nottingham",
    "postcode": "NG16 4HL",
    "lat": 53.025139,
    "lng": -1.340411
  },
  {
    "id": "school-149380",
    "type": "school",
    "name": "Mercia Academy",
    "address": "Sunnyside, Swadlincote",
    "postcode": "DE11 0TL",
    "lat": 52.785894,
    "lng": -1.577372
  },
  {
    "id": "school-149429",
    "type": "school",
    "name": "Outwood Academy Kirkby",
    "address": "Tennyson Street, Nottingham",
    "postcode": "NG17 7DH",
    "lat": 53.097687,
    "lng": -1.244546
  },
  {
    "id": "school-149433",
    "type": "school",
    "name": "Huxlow Academy",
    "address": "Finedon Road, Irthlingborough",
    "postcode": "NN9 5TY",
    "lat": 52.328813,
    "lng": -0.619644
  },
  {
    "id": "school-149486",
    "type": "school",
    "name": "The Salesian Academy of St John Bosco",
    "address": "Netherton Way, Bootle",
    "postcode": "L30 2NA",
    "lat": 53.474695,
    "lng": -2.974841
  },
  {
    "id": "school-149644",
    "type": "school",
    "name": "Anthony Gell School",
    "address": "Wirksworth, Matlock",
    "postcode": "DE4 4DX",
    "lat": 53.078513,
    "lng": -1.569974
  },
  {
    "id": "school-149775",
    "type": "school",
    "name": "Weldon Village Academy",
    "address": "Oundle Road, Corby",
    "postcode": "NN17 3GE",
    "lat": 52.491741,
    "lng": -0.617773
  },
  {
    "id": "school-149782",
    "type": "school",
    "name": "Northampton School",
    "address": "Thorpeville, Northampton",
    "postcode": "NN3 7TR",
    "lat": 52.283923,
    "lng": -0.841875
  },
  {
    "id": "school-150482",
    "type": "school",
    "name": "Lincoln Castle Academy",
    "address": "Riseholme Road, Lincoln",
    "postcode": "LN1 3SP",
    "lat": 53.246333,
    "lng": -0.53741
  },
  {
    "id": "school-150524",
    "type": "school",
    "name": "Carlton le Willows Academy",
    "address": "Burton Road, Gedling",
    "postcode": "NG4 4AA",
    "lat": 52.975907,
    "lng": -1.066569
  },
  {
    "id": "school-150713",
    "type": "school",
    "name": "St Francis Xavier's Catholic Academy",
    "address": "Woolton Hill Road, Liverpool",
    "postcode": "L25 6EG",
    "lat": 53.382412,
    "lng": -2.878922
  },
  {
    "id": "school-150867",
    "type": "school",
    "name": "Kirton Academy",
    "address": "Redbourne Mere, Gainsborough",
    "postcode": "DN21 4NN",
    "lat": 53.477501,
    "lng": -0.581027
  },
  {
    "id": "school-151196",
    "type": "school",
    "name": "Montsaye Academy",
    "address": "Greening Road, Kettering",
    "postcode": "NN14 6BB",
    "lat": 52.423394,
    "lng": -0.808602
  },
  {
    "id": "school-151607",
    "type": "school",
    "name": "The Herewoode Academy",
    "address": "Glenfield Road, Leicester",
    "postcode": "LE3 6DN",
    "lat": 52.642381,
    "lng": -1.177891
  },
  {
    "id": "school-152060",
    "type": "school",
    "name": "Franklin Sixth Form College",
    "address": "Chelmsford Avenue, Grimsby",
    "postcode": "DN34 5BY",
    "lat": 53.554049,
    "lng": -0.103994
  }
]