[{"id": "school-100253", "type": "school", "name": "Jubilee Primary School", "address": "Filey Avenue, London", "postcode": "N16 6NR", "lat": 51.565565, "lng": -0.064325, "districtCode": "E09000012"}, {"id": "school-100299", "type": "school", "name": "T T T Y Y School", "address": "14 Heathland Road, London", "postcode": "N16 5NH", "lat": 51.567539, "lng": -0.079899, "districtCode": "E09000012"}, {"id": "school-100441", "type": "school", "name": "St Joseph's Catholic Primary School", "address": "Highgate Hill, London", "postcode": "N19 5NE", "lat": 51.568104, "lng": -0.140082, "districtCode": "E09000019"}, {"id": "school-101253", "type": "school", "name": "Moss Hall Nursery School", "address": "189 Nether Street, London", "postcode": "N3 1NR", "lat": 51.610167, "lng": -0.184932, "districtCode": "E09000003"}, {"id": "school-101285", "type": "school", "name": "Hollickwood Primary School", "address": "Sydney Road, London", "postcode": "N10 2NL", "lat": 51.604502, "lng": -0.142436, "districtCode": "E09000014"}, {"id": "school-101293", "type": "school", "name": "Monkfrith Primary School", "address": "Knoll Drive, London", "postcode": "N14 5NG", "lat": 51.636258, "lng": -0.144738, "districtCode": "E09000003"}, {"id": "school-101294", "type": "school", "name": "Moss Hall Junior School", "address": "187 Nether Street, London", "postcode": "N3 1NR", "lat": 51.609419, "lng": -0.184225, "districtCode": "E09000003"}, {"id": "school-101312", "type": "school", "name": "Queenswell Infant & Nursery School", "address": "Sweets Way, London", "postcode": "N20 0NQ", "lat": 51.626594, "lng": -0.168483, "districtCode": "E09000003"}, {"id": "school-101313", "type": "school", "name": "Queenswell Junior School", "address": "Sweets Way, London", "postcode": "N20 0NQ", "lat": 51.626594, "lng": -0.168483, "districtCode": "E09000003"}, {"id": "school-101317", "type": "school", "name": "Holy Trinity CofE Primary School", "address": "Eagans Close, London", "postcode": "N2 8GA", "lat": 51.590639, "lng": -0.166782, "districtCode": "E09000003"}, {"id": "school-101325", "type": "school", "name": "St Paul's CofE Primary School N11", "address": "The Avenue, London", "postcode": "N11 1NQ", "lat": 51.615737, "lng": -0.142628, "districtCode": "E09000010"}, {"id": "school-101327", "type": "school", "name": "St Andrew's CofE Voluntary Aided Primary School, Totteridge", "address": "The Green, London", "postcode": "N20 8NX", "lat": 51.629502, "lng": -0.19481, "districtCode": "E09000003"}, {"id": "school-101361", "type": "school", "name": "St Michael's Catholic Grammar School", "address": "Nether Street, London", "postcode": "N12 7NJ", "lat": 51.613819, "lng": -0.179152, "districtCode": "E09000003"}, {"id": "school-102094", "type": "school", "name": "Lancasterian Primary School", "address": "King's Road, London", "postcode": "N17 8NN", "lat": 51.60107, "lng": -0.070195, "districtCode": "E09000014"}, {"id": "school-102106", "type": "school", "name": "Rokesly Junior School", "address": "Rokesly Avenue, London", "postcode": "N8 8NH", "lat": 51.58262, "lng": -0.118124, "districtCode": "E09000014"}, {"id": "school-102107", "type": "school", "name": "Rokesly Infant & Nursery School", "address": "Hermiston Avenue, London", "postcode": "N8 8NH", "lat": 51.58262, "lng": -0.118124, "districtCode": "E09000014"}, {"id": "school-102144", "type": "school", "name": "St Ignatius RC Primary School", "address": "St Ann's Road, London", "postcode": "N15 6ND", "lat": 51.576567, "lng": -0.072099, "districtCode": "E09000014"}, {"id": "school-102156", "type": "school", "name": "Fortismere School", "address": "Southwing, London", "postcode": "N10 1NE", "lat": 51.592353, "lng": -0.149372, "districtCode": "E09000014"}, {"id": "school-102175", "type": "school", "name": "Blanche Nevile School", "address": "Burlington Road, London", "postcode": "N10 1NJ", "lat": 51.594087, "lng": -0.150933, "districtCode": "E09000014"}, {"id": "school-104420", "type": "school", "name": "Roby Park Primary School", "address": "Easton Road, Knowsley", "postcode": "L36 4NY", "lat": 53.415286, "lng": -2.86559, "districtCode": "E08000011"}, {"id": "school-104423", "type": "school", "name": "Knowsley Village School", "address": "Sugar Lane, Prescot", "postcode": "L34 0ER", "lat": 53.448775, "lng": -2.852823, "districtCode": "E08000011"}, {"id": "school-104447", "type": "school", "name": "Eastcroft Park School", "address": "Hollinghurst Road, Liverpool", "postcode": "L33 1EB", "lat": 53.49389, "lng": -2.87714, "districtCode": "E08000011"}, {"id": "school-104517", "type": "school", "name": "Barlows Primary School", "address": "Barlows Lane, Liverpool", "postcode": "L9 9EH", "lat": 53.468999, "lng": -2.939515, "districtCode": "E08000012"}, {"id": "school-104624", "type": "school", "name": "St Mary's Church of England Primary School, West Derby", "address": "Meadow Lane, Liverpool", "postcode": "L12 5EA", "lat": 53.433468, "lng": -2.908593, "districtCode": "E08000012"}, {"id": "school-104642", "type": "school", "name": "Our Lady's Bishop Eton Catholic Primary School", "address": "Green Lane, Liverpool", "postcode": "L18 2EP", "lat": 53.388357, "lng": -2.897872, "districtCode": "E08000012"}, {"id": "school-104723", "type": "school", "name": "Carleton House Preparatory School", "address": "145 Menlove Avenue", "postcode": "L18 3EE", "lat": 53.385154, "lng": -2.893429, "districtCode": "E08000012"}, {"id": "school-104736", "type": "school", "name": "Abbot's Lea School", "address": "Beaconsfield Road, Liverpool", "postcode": "L25 6EE", "lat": 53.381121, "lng": -2.88079, "districtCode": "E08000012"}, {"id": "school-104742", "type": "school", "name": "Clifford Holroyde Specialist Sen College", "address": "Thingwall Lane, Liverpool", "postcode": "L14 7NX", "lat": 53.413808, "lng": -2.888161, "districtCode": "E08000012"}, {"id": "school-104815", "type": "school", "name": "St Bartholomew's Catholic Primary School", "address": "School Lane, Prescot", "postcode": "L35 6NN", "lat": 53.406624, "lng": -2.749272, "districtCode": "E08000013"}, {"id": "school-104837", "type": "school", "name": "Tower College", "address": "Mill Lane, Prescot", "postcode": "L35 6NE", "lat": 53.406506, "lng": -2.758056, "districtCode": "E08000013"}, {"id": "school-104853", "type": "school", "name": "Linacre Primary School", "address": "Thornton Road, Bootle", "postcode": "L20 5ED", "lat": 53.459165, "lng": -2.989594, "districtCode": "E08000014"}, {"id": "school-104878", "type": "school", "name": "Hatton Hill Primary School", "address": "Alwyn Avenue, Liverpool", "postcode": "L21 9NZ", "lat": 53.479166, "lng": -2.999523, "districtCode": "E08000014"}, {"id": "school-104885", "type": "school", "name": "Redgate Community Primary School", "address": "Redgate, Liverpool", "postcode": "L37 4EW", "lat": 53.551677, "lng": -3.050973, "districtCode": "E08000014"}, {"id": "school-104898", "type": "school", "name": "St Philip's Church of England Controlled Primary School", "address": "Church Road, Liverpool", "postcode": "L21 8NZ", "lat": 53.47095, "lng": -2.991781, "districtCode": "E08000014"}, {"id": "school-104905", "type": "school", "name": "St Monica's Catholic Primary School", "address": "Kelly Drive, Bootle", "postcode": "L20 9EB", "lat": 53.456418, "lng": -2.974904, "districtCode": "E08000014"}, {"id": "school-104906", "type": "school", "name": "St Robert Bellarmine Catholic Primary School", "address": "Harris Drive, Bootle", "postcode": "L20 6ED", "lat": 53.467657, "lng": -2.984608, "districtCode": "E08000014"}, {"id": "school-104935", "type": "school", "name": "Our Lady Queen of Peace Catholic Primary School", "address": "Ford Close, Liverpool", "postcode": "L21 0EP", "lat": 53.481119, "lng": -3.000292, "districtCode": "E08000014"}, {"id": "school-104940", "type": "school", "name": "Holy Rosary Catholic Primary School", "address": "Oriel Drive, Liverpool", "postcode": "L10 6NJ", "lat": 53.485225, "lng": -2.93505, "districtCode": "E08000014"}, {"id": "school-106666", "type": "school", "name": "The Levett School", "address": "Melton Road, Doncaster", "postcode": "DN5 7SB", "lat": 53.520464, "lng": -1.165634, "districtCode": "E08000017"}, {"id": "school-106676", "type": "school", "name": "Arksey Primary School", "address": "Ings Way, Doncaster", "postcode": "DN5 0TE", "lat": 53.552405, "lng": -1.125424, "districtCode": "E08000017"}, {"id": "school-106677", "type": "school", "name": "Toll Bar Primary School", "address": "Askern Road, Doncaster", "postcode": "DN5 0QR", "lat": 53.565511, "lng": -1.152819, "districtCode": "E08000017"}, {"id": "school-106703", "type": "school", "name": "Scawsby Saltersgate Infant School", "address": "Windsor Walk, Doncaster", "postcode": "DN5 8NQ", "lat": 53.535736, "lng": -1.165364, "districtCode": "E08000017"}, {"id": "school-106707", "type": "school", "name": "Sprotbrough Orchard Infant School", "address": "Field House Road, Doncaster", "postcode": "DN5 7RN", "lat": 53.510672, "lng": -1.190198, "districtCode": "E08000017"}, {"id": "school-106715", "type": "school", "name": "Wadworth Primary School", "address": "Meadow Rise, Doncaster", "postcode": "DN11 9AP", "lat": 53.464729, "lng": -1.139144, "districtCode": "E08000017"}, {"id": "school-106718", "type": "school", "name": "Stainforth Kirton Lane Primary School", "address": "Thorne Road, Doncaster", "postcode": "DN7 5BG", "lat": 53.600676, "lng": -1.012951, "districtCode": "E08000017"}, {"id": "school-106722", "type": "school", "name": "Copley Junior School", "address": "Cadeby Road, Doncaster", "postcode": "DN5 7SD", "lat": 53.510596, "lng": -1.193548, "districtCode": "E08000017"}, {"id": "school-106725", "type": "school", "name": "Tickhill Estfeld Primary School", "address": "Common Lane, Doncaster", "postcode": "DN11 9JA", "lat": 53.437768, "lng": -1.107289, "districtCode": "E08000017"}, {"id": "school-106728", "type": "school", "name": "Park Primary School", "address": "Monmouth Road, Doncaster", "postcode": "DN2 4JP", "lat": 53.535015, "lng": -1.109018, "districtCode": "E08000017"}, {"id": "school-106737", "type": "school", "name": "Bawtry Mayflower Primary School", "address": "Station Road, Doncaster", "postcode": "DN10 6PU", "lat": 53.43421, "lng": -1.015954, "districtCode": "E08000017"}, {"id": "school-106746", "type": "school", "name": "Hayfield Lane Primary School", "address": "Hayfield Lane, Doncaster", "postcode": "DN9 3NB", "lat": 53.489533, "lng": -1.020251, "districtCode": "E08000017"}, {"id": "school-106747", "type": "school", "name": "Scawthorpe Sunnyfields Primary School", "address": "Rose Crescent, Doncaster", "postcode": "DN5 9EW", "lat": 53.539386, "lng": -1.162863, "districtCode": "E08000017"}, {"id": "school-106750", "type": "school", "name": "Thorne King Edward Primary School", "address": "King Edward Road, Doncaster", "postcode": "DN8 4BY", "lat": 53.617305, "lng": -0.955426, "districtCode": "E08000017"}, {"id": "school-106751", "type": "school", "name": "Bentley New Village Primary School", "address": "Asquith Road, Doncaster", "postcode": "DN5 0NU", "lat": 53.552286, "lng": -1.139964, "districtCode": "E08000017"}, {"id": "school-106756", "type": "school", "name": "Warmsworth Primary School", "address": "Mill Lane, Doncaster", "postcode": "DN4 9RG", "lat": 53.498602, "lng": -1.182739, "districtCode": "E08000017"}, {"id": "school-106762", "type": "school", "name": "St Francis Xavier Catholic Primary School", "address": "Roberts Road, Doncaster", "postcode": "DN4 0JN", "lat": 53.514113, "lng": -1.139606, "districtCode": "E08000017"}, {"id": "school-106767", "type": "school", "name": "Branton St Wilfrid's Church of England Primary School", "address": "Valley Drive, Doncaster", "postcode": "DN3 3NB", "lat": 53.509243, "lng": -1.037366, "districtCode": "E08000017"}, {"id": "school-106769", "type": "school", "name": "St Joseph and St Teresa's Catholic Primary School", "address": "Doncaster Lane, Doncaster", "postcode": "DN6 7QN", "lat": 53.562974, "lng": -1.180955, "districtCode": "E08000017"}, {"id": "school-106770", "type": "school", "name": "Our Lady of Perpetual Help Catholic Primary School", "address": "Finkle Street, Doncaster", "postcode": "DN5 0RP", "lat": 53.547526, "lng": -1.140649, "districtCode": "E08000017"}, {"id": "school-106773", "type": "school", "name": "St Mary's Catholic Primary School, Edlington", "address": "Bungalow Road, Doncaster", "postcode": "DN12 1DL", "lat": 53.482037, "lng": -1.191045, "districtCode": "E08000017"}, {"id": "school-106777", "type": "school", "name": "Tickhill St Mary's Church of England Primary and Nursery School", "address": "St Mary's Road, Doncaster", "postcode": "DN11 9LZ", "lat": 53.432182, "lng": -1.110523, "districtCode": "E08000017"}, {"id": "school-106812", "type": "school", "name": "Hill House School", "address": "SIXTH AVENUE, SOUTH YORKSHIRE", "postcode": "DN9 3GG", "lat": 53.486272, "lng": -1.014026, "districtCode": "E08000017"}, {"id": "school-106816", "type": "school", "name": "Sycamore Hall Preparatory School", "address": "1 Hall Flat Lane, Doncaster", "postcode": "DN4 8PT", "lat": 53.503883, "lng": -1.153611, "districtCode": "E08000017"}, {"id": "school-106818", "type": "school", "name": "Doncaster School for Deaf Children", "address": "Leger Way, Doncaster", "postcode": "DN2 6AY", "lat": 53.519941, "lng": -1.108127, "districtCode": "E08000017"}, {"id": "school-109622", "type": "school", "name": "Christopher Reeves CofE VA Primary School", "address": "Hinwick Road, Podington", "postcode": "NN29 7HU", "lat": 52.25127, "lng": -0.621452, "districtCode": "E06000055"}, {"id": "school-109628", "type": "school", "name": "St Lawrence Church of England Primary School", "address": "Manor Lane, Rushden", "postcode": "NN10 9LL", "lat": 52.269169, "lng": -0.600464, "districtCode": "E06000055"}, {"id": "school-110550", "type": "school", "name": "Beachborough School", "address": "Westbury, Brackley", "postcode": "NN13 5LB", "lat": 52.01564, "lng": -1.094672, "districtCode": "E06000060"}, {"id": "school-112471", "type": "school", "name": "Lord Street Nursery School", "address": "Lord Street, Derby", "postcode": "DE24 9AX", "lat": 52.888778, "lng": -1.453237, "districtCode": "E06000015"}, {"id": "school-112472", "type": "school", "name": "Central Community Nursery School", "address": "43 Nuns Street, Derby", "postcode": "DE1 3LR", "lat": 52.92699, "lng": -1.483849, "districtCode": "E06000015"}, {"id": "school-112474", "type": "school", "name": "Harrington Nursery School", "address": "Harrington Street, Derby", "postcode": "DE23 8PE", "lat": 52.900912, "lng": -1.474346, "districtCode": "E06000015"}, {"id": "school-112476", "type": "school", "name": "Stonehill Nursery School", "address": "Stonehill Road, Derby", "postcode": "DE23 6TJ", "lat": 52.910126, "lng": -1.484481, "districtCode": "E06000015"}, {"id": "school-112478", "type": "school", "name": "Ripley Nursery School", "address": "Sandham Lane, Ripley", "postcode": "DE5 3HE", "lat": 53.047283, "lng": -1.410773, "districtCode": "E07000032"}, {"id": "school-112479", "type": "school", "name": "Ashgate Nursery School", "address": "18 Stepping Lane, Derby", "postcode": "DE1 1GJ", "lat": 52.923846, "lng": -1.492798, "districtCode": "E06000015"}, {"id": "school-112480", "type": "school", "name": "Whitecross Nursery School", "address": "Watson Street, Derby", "postcode": "DE1 3PJ", "lat": 52.929231, "lng": -1.488539, "districtCode": "E06000015"}, {"id": "school-112483", "type": "school", "name": "Pinxton Nursery School", "address": "Kirkstead Road, Nottingham", "postcode": "NG16 6NA", "lat": 53.090965, "lng": -1.316422, "districtCode": "E07000033"}, {"id": "school-112484", "type": "school", "name": "South Normanton Nursery School", "address": "Hamlet Lane, Alfreton", "postcode": "DE55 2JB", "lat": 53.10254, "lng": -1.339527, "districtCode": "E07000033"}, {"id": "school-112485", "type": "school", "name": "Alfreton Nursery School", "address": "Stanton Close, Alfreton", "postcode": "DE55 7SH", "lat": 53.093273, "lng": -1.386877, "districtCode": "E07000032"}, {"id": "school-112492", "type": "school", "name": "Leys Junior School", "address": "Flowery Leys Lane, Alfreton", "postcode": "DE55 7HA", "lat": 53.095215, "lng": -1.371391, "districtCode": "E07000032"}, {"id": "school-112493", "type": "school", "name": "Croft Infant School", "address": "Marshall Street, Alfreton", "postcode": "DE55 7BW", "lat": 53.094608, "lng": -1.386007, "districtCode": "E07000032"}, {"id": "school-112494", "type": "school", "name": "Woodbridge Junior School", "address": "Grange Street, Alfreton", "postcode": "DE55 7JA", "lat": 53.09353, "lng": -1.384364, "districtCode": "E07000032"}, {"id": "school-112496", "type": "school", "name": "Riddings Infant and Nursery School", "address": "West Street, Alfreton", "postcode": "DE55 4EW", "lat": 53.070362, "lng": -1.365529, "districtCode": "E07000032"}, {"id": "school-112500", "type": "school", "name": "Swanwick Primary School", "address": "South Street, Alfreton", "postcode": "DE55 1BZ", "lat": 53.072029, "lng": -1.404674, "districtCode": "E07000032"}, {"id": "school-112502", "type": "school", "name": "Aston-on-Trent Primary School", "address": "Long Croft, Derby", "postcode": "DE72 2UH", "lat": 52.863685, "lng": -1.385038, "districtCode": "E07000039"}, {"id": "school-112506", "type": "school", "name": "Blackwell Community Primary and Nursery School", "address": "Primrose Hill, Alfreton", "postcode": "DE55 5JG", "lat": 53.120498, "lng": -1.350146, "districtCode": "E07000033"}, {"id": "school-112507", "type": "school", "name": "Newton Primary School", "address": "Hall Lane, Alfreton", "postcode": "DE55 5TL", "lat": 53.129131, "lng": -1.33589, "districtCode": "E07000033"}, {"id": "school-112508", "type": "school", "name": "Westhouses Primary School", "address": "Bolden Terrace, Alfreton", "postcode": "DE55 5AF", "lat": 53.120021, "lng": -1.370148, "districtCode": "E07000033"}, {"id": "school-112515", "type": "school", "name": "Brassington Primary School", "address": "School Hill, Matlock", "postcode": "DE4 4HB", "lat": 53.084505, "lng": -1.654008, "districtCode": "E07000035"}, {"id": "school-112516", "type": "school", "name": "Firfield Primary School", "address": "Firfield Avenue, Derby", "postcode": "DE72 3EG", "lat": 52.896239, "lng": -1.312725, "districtCode": "E07000036"}, {"id": "school-112534", "type": "school", "name": "Crich Junior School", "address": "School Lane, Matlock", "postcode": "DE4 5DF", "lat": 53.083666, "lng": -1.476109, "districtCode": "E07000032"}, {"id": "school-112536", "type": "school", "name": "Lea Primary School", "address": "Church Street, Matlock", "postcode": "DE4 5JP", "lat": 53.109573, "lng": -1.518105, "districtCode": "E07000032"}, {"id": "school-112537", "type": "school", "name": "Doveridge Primary School", "address": "14 Chapel Green, Ashbourne", "postcode": "DE6 5JY", "lat": 52.902369, "lng": -1.819137, "districtCode": "E07000035"}, {"id": "school-112547", "type": "school", "name": "Egginton Primary School", "address": "Church Road, Derby", "postcode": "DE65 6HP", "lat": 52.849552, "lng": -1.602342, "districtCode": "E07000039"}, {"id": "school-112549", "type": "school", "name": "Etwall Primary School", "address": "Egginton Road, Derby", "postcode": "DE65 6NB", "lat": 52.8815, "lng": -1.600935, "districtCode": "E07000039"}, {"id": "school-112551", "type": "school", "name": "Findern Primary School", "address": "Buckford Lane, Derby", "postcode": "DE65 6AR", "lat": 52.861942, "lng": -1.535812, "districtCode": "E07000039"}, {"id": "school-112561", "type": "school", "name": "Marlpool Junior School", "address": "Claramount Road, Heanor", "postcode": "DE75 7HS", "lat": 53.009681, "lng": -1.338232, "districtCode": "E07000032"}, {"id": "school-112562", "type": "school", "name": "Marlpool Infant School", "address": "Prospect Road, Heanor", "postcode": "DE75 7NF", "lat": 53.008233, "lng": -1.341325, "districtCode": "E07000032"}, {"id": "school-112563", "type": "school", "name": "Coppice Primary School", "address": "Roper Avenue, Heanor", "postcode": "DE75 7BZ", "lat": 53.006697, "lng": -1.353004, "districtCode": "E07000032"}, {"id": "school-112569", "type": "school", "name": "Cotmanhay Junior School", "address": "Beauvale Drive, Ilkeston", "postcode": "DE7 8RR", "lat": 52.991997, "lng": -1.308256, "districtCode": "E07000036"}, {"id": "school-112570", "type": "school", "name": "Cotmanhay Infant and Nursery School", "address": "Beauvale Drive, Ilkeston", "postcode": "DE7 8RR", "lat": 52.991997, "lng": -1.308256, "districtCode": "E07000036"}, {"id": "school-112571", "type": "school", "name": "Granby Junior School", "address": "Heanor Road, Ilkeston", "postcode": "DE7 8DX", "lat": 52.982437, "lng": -1.312222, "districtCode": "E07000036"}, {"id": "school-112572", "type": "school", "name": "Hallam Fields Junior School", "address": "Longfield Lane, Ilkeston", "postcode": "DE7 4DB", "lat": 52.957308, "lng": -1.304448, "districtCode": "E07000036"}, {"id": "school-112575", "type": "school", "name": "Charlotte Nursery and Infant School", "address": "Trinity Close, Ilkeston", "postcode": "DE7 8LQ", "lat": 52.981872, "lng": -1.309431, "districtCode": "E07000036"}, {"id": "school-112577", "type": "school", "name": "Kilburn Infant and Nursery School", "address": "The Flat, Derby", "postcode": "DE56 0LA", "lat": 53.008406, "lng": -1.432469, "districtCode": "E07000032"}, {"id": "school-112580", "type": "school", "name": "Little Eaton Primary School", "address": "Alfreton Road, Derby", "postcode": "DE21 5AB", "lat": 52.969355, "lng": -1.458163, "districtCode": "E07000036"}, {"id": "school-112582", "type": "school", "name": "Harrington Junior School", "address": "Derby Road, Nottingham", "postcode": "NG10 4BJ", "lat": 52.902201, "lng": -1.288514, "districtCode": "E07000036"}, {"id": "school-112583", "type": "school", "name": "Parklands Infant and Nursery School", "address": "Derby Road, Nottingham", "postcode": "NG10 4BJ", "lat": 52.901488, "lng": -1.28802, "districtCode": "E07000036"}, {"id": "school-112584", "type": "school", "name": "Grange Primary School", "address": "Station Road, Nottingham", "postcode": "NG10 2DU", "lat": 52.898388, "lng": -1.257577, "districtCode": "E07000036"}, {"id": "school-112585", "type": "school", "name": "Longmoor Primary School", "address": "Newstead Road, Nottingham", "postcode": "NG10 4JG", "lat": 52.912515, "lng": -1.284314, "districtCode": "E07000036"}, {"id": "school-112591", "type": "school", "name": "Darley Dale Primary School", "address": "Greenaway Lane, Matlock", "postcode": "DE4 2QB", "lat": 53.15881, "lng": -1.579283, "districtCode": "E07000035"}, {"id": "school-112592", "type": "school", "name": "Tansley Primary School", "address": "Gold Hill, Matlock", "postcode": "DE4 5FG", "lat": 53.134784, "lng": -1.516358, "districtCode": "E07000035"}, {"id": "school-112593", "type": "school", "name": "Melbourne Junior School", "address": "Packhorse Road, Derby", "postcode": "DE73 8JE", "lat": 52.826834, "lng": -1.424848, "districtCode": "E07000039"}, {"id": "school-112594", "type": "school", "name": "Melbourne Infant School", "address": "Packhorse Road, Derby", "postcode": "DE73 8JE", "lat": 52.827459, "lng": -1.423994, "districtCode": "E07000039"}, {"id": "school-112603", "type": "school", "name": "Overseal Primary School", "address": "Woodville Road, Swadlincote", "postcode": "DE12 6LU", "lat": 52.737645, "lng": -1.556479, "districtCode": "E07000039"}, {"id": "school-112604", "type": "school", "name": "Parwich Primary School", "address": "Parwich, Parwich, Ashbourne", "postcode": "DE6 1QJ", "lat": 53.087309, "lng": -1.722421, "districtCode": "E07000035"}, {"id": "school-112610", "type": "school", "name": "Anthony Bek Community Primary School", "address": "Rotherham Road, Mansfield", "postcode": "NG19 7PG", "lat": 53.177308, "lng": -1.252171, "districtCode": "E07000033"}, {"id": "school-112612", "type": "school", "name": "Ripley Infant School", "address": "Kirk Close, Ripley", "postcode": "DE5 3RY", "lat": 53.043799, "lng": -1.409896, "districtCode": "E07000032"}, {"id": "school-112614", "type": "school", "name": "Ladycross Infant School", "address": "Victoria Road, Nottingham", "postcode": "NG10 5JD", "lat": 52.923847, "lng": -1.291015, "districtCode": "E07000036"}, {"id": "school-112619", "type": "school", "name": "Brookfield Primary School", "address": "Burlington Avenue, Mansfield", "postcode": "NG20 9AD", "lat": 53.210628, "lng": -1.212131, "districtCode": "E07000033"}, {"id": "school-112625", "type": "school", "name": "South Wingfield Primary School", "address": "Church Lane, Alfreton", "postcode": "DE55 7NJ", "lat": 53.095235, "lng": -1.434642, "districtCode": "E07000032"}, {"id": "school-112636", "type": "school", "name": "Newhall Infant School", "address": "Sunnyside, Swadlincote", "postcode": "DE11 0TJ", "lat": 52.785602, "lng": -1.576382, "districtCode": "E07000039"}, {"id": "school-112637", "type": "school", "name": "Stanton Primary School", "address": "Woodland Road, Burton-on-Trent", "postcode": "DE15 9TJ", "lat": 52.776985, "lng": -1.603656, "districtCode": "E07000039"}, {"id": "school-112639", "type": "school", "name": "Town End Junior School", "address": "Alfreton Road, Alfreton", "postcode": "DE55 5PB", "lat": 53.135783, "lng": -1.351993, "districtCode": "E07000033"}, {"id": "school-112640", "type": "school", "name": "Tibshelf Infant School", "address": "144 High Street, Alfreton", "postcode": "DE55 5PP", "lat": 53.144609, "lng": -1.338627, "districtCode": "E07000033"}, {"id": "school-112646", "type": "school", "name": "Wessington Primary School", "address": "The Green, Alfreton", "postcode": "DE55 6DQ", "lat": 53.115211, "lng": -1.445946, "districtCode": "E07000038"}, {"id": "school-112652", "type": "school", "name": "Wirksworth Junior School", "address": "Wash Green, Matlock", "postcode": "DE4 4FD", "lat": 53.082347, "lng": -1.566218, "districtCode": "E07000035"}, {"id": "school-112654", "type": "school", "name": "Middleton Community Primary School", "address": "Main Street, Matlock", "postcode": "DE4 4LQ", "lat": 53.097497, "lng": -1.584138, "districtCode": "E07000035"}, {"id": "school-112672", "type": "school", "name": "The Park Infant & Nursery School", "address": "Orchard Close, Mansfield", "postcode": "NG20 8JX", "lat": 53.207867, "lng": -1.220208, "districtCode": "E07000033"}, {"id": "school-112675", "type": "school", "name": "Dallimore Primary & Nursery School", "address": "Dallimore Road, Ilkeston", "postcode": "DE7 4GZ", "lat": 52.953885, "lng": -1.318868, "districtCode": "E07000036"}, {"id": "school-112677", "type": "school", "name": "Eureka Primary School", "address": "Dunsmore Way, Swadlincote", "postcode": "DE11 7LA", "lat": 52.780525, "lng": -1.540682, "districtCode": "E07000039"}, {"id": "school-112679", "type": "school", "name": "Heath Fields Primary School", "address": "Field Avenue, Derby", "postcode": "DE65 5EQ", "lat": 52.867536, "lng": -1.684232, "districtCode": "E07000039"}, {"id": "school-112682", "type": "school", "name": "The Park Junior School", "address": "Orchard Close, Mansfield", "postcode": "NG20 8JX", "lat": 53.207867, "lng": -1.220208, "districtCode": "E07000033"}, {"id": "school-112687", "type": "school", "name": "Copthorne Community Infant School", "address": "Rodgers Lane, Alfreton", "postcode": "DE55 7FF", "lat": 53.100808, "lng": -1.383708, "districtCode": "E07000032"}, {"id": "school-112688", "type": "school", "name": "Ashbrook Infant School", "address": "Victoria Avenue, Derby", "postcode": "DE72 3HF", "lat": 52.909404, "lng": -1.376881, "districtCode": "E07000036"}, {"id": "school-112690", "type": "school", "name": "Duffield the Meadows Primary School", "address": "Park Road, Belper", "postcode": "DE56 4GT", "lat": 52.985986, "lng": -1.496718, "districtCode": "E07000032"}, {"id": "school-112701", "type": "school", "name": "Willington Primary School", "address": "Trent Avenue, Derby", "postcode": "DE65 6DN", "lat": 52.852326, "lng": -1.555504, "districtCode": "E07000039"}, {"id": "school-112708", "type": "school", "name": "Larklands Infant School", "address": "Park Road, Ilkeston", "postcode": "DE7 5DR", "lat": 52.968708, "lng": -1.29524, "districtCode": "E07000036"}, {"id": "school-112710", "type": "school", "name": "Lons Infant School", "address": "Tavistock Avenue, Ripley", "postcode": "DE5 3SE", "lat": 53.053218, "lng": -1.40923, "districtCode": "E07000032"}, {"id": "school-112717", "type": "school", "name": "Becket Primary School", "address": "Monk Street, Derby", "postcode": "DE22 3QB", "lat": 52.917702, "lng": -1.483796, "districtCode": "E06000015"}, {"id": "school-112720", "type": "school", "name": "Dale Community Primary School", "address": "Porter Road, Derby", "postcode": "DE23 6NL", "lat": 52.906691, "lng": -1.486217, "districtCode": "E06000015"}, {"id": "school-112728", "type": "school", "name": "Pear Tree Infant School", "address": "Pear Tree Street, Derby", "postcode": "DE23 8PN", "lat": 52.901991, "lng": -1.472519, "districtCode": "E06000015"}, {"id": "school-112733", "type": "school", "name": "Rosehill Infant and Nursery School", "address": "Reginald Street, Derby", "postcode": "DE23 8FQ", "lat": 52.911412, "lng": -1.468062, "districtCode": "E06000015"}, {"id": "school-112739", "type": "school", "name": "Markeaton Primary School", "address": "Bromley Street, Derby", "postcode": "DE22 1HL", "lat": 52.933096, "lng": -1.490532, "districtCode": "E06000015"}, {"id": "school-112740", "type": "school", "name": "Portway Infant School", "address": "Woodlands Road, Derby", "postcode": "DE22 2HE", "lat": 52.954127, "lng": -1.491118, "districtCode": "E06000015"}, {"id": "school-112744", "type": "school", "name": "Alvaston Infant and Nursery School", "address": "Elvaston Lane, Derby", "postcode": "DE24 0PU", "lat": 52.893257, "lng": -1.419465, "districtCode": "E06000015"}, {"id": "school-112745", "type": "school", "name": "Shelton Infant School", "address": "Carlton Avenue, Derby", "postcode": "DE24 9EJ", "lat": 52.879989, "lng": -1.450123, "districtCode": "E06000015"}, {"id": "school-112749", "type": "school", "name": "Cavendish Close Infant School", "address": "Wood Road, Derby", "postcode": "DE21 4LY", "lat": 52.934629, "lng": -1.428345, "districtCode": "E06000015"}, {"id": "school-112752", "type": "school", "name": "Meadow Farm Community Primary School", "address": "Foyle Avenue, Derby", "postcode": "DE21 6TZ", "lat": 52.918939, "lng": -1.431661, "districtCode": "E06000015"}, {"id": "school-112756", "type": "school", "name": "Gayton Junior School", "address": "Gayton Junior School, Derby", "postcode": "DE23 1GA", "lat": 52.892333, "lng": -1.501059, "districtCode": "E06000015"}, {"id": "school-112757", "type": "school", "name": "Ridgeway Infant School", "address": "Uplands Avenue, Derby", "postcode": "DE23 1GG", "lat": 52.892883, "lng": -1.50132, "districtCode": "E06000015"}, {"id": "school-112758", "type": "school", "name": "Wren Park Primary School", "address": "Jackson Avenue, Derby", "postcode": "DE3 9AY", "lat": 52.908488, "lng": -1.518273, "districtCode": "E06000015"}, {"id": "school-112759", "type": "school", "name": "Ravensdale Infant and Nursery School", "address": "Devonshire Drive, Derby", "postcode": "DE3 9HE", "lat": 52.914571, "lng": -1.535517, "districtCode": "E06000015"}, {"id": "school-112765", "type": "school", "name": "Silverhill Primary School", "address": "Draycott Drive, Derby", "postcode": "DE3 0QE", "lat": 52.912351, "lng": -1.54967, "districtCode": "E06000015"}, {"id": "school-112767", "type": "school", "name": "Oakwood Infant and Nursery School", "address": "Waldene Drive, Derby", "postcode": "DE24 0GZ", "lat": 52.889578, "lng": -1.428284, "districtCode": "E06000015"}, {"id": "school-112770", "type": "school", "name": "Redwood Primary School", "address": "Redwood Road, Derby", "postcode": "DE24 9PG", "lat": 52.879504, "lng": -1.486449, "districtCode": "E06000015"}, {"id": "school-112781", "type": "school", "name": "Stenson Fields Primary Community School", "address": "Heather Close, Derby", "postcode": "DE24 3BW", "lat": 52.874951, "lng": -1.498079, "districtCode": "E07000039"}, {"id": "school-112785", "type": "school", "name": "Long Row Primary School", "address": "Long Row, Belper", "postcode": "DE56 1DR", "lat": 53.027249, "lng": -1.483652, "districtCode": "E07000032"}, {"id": "school-112786", "type": "school", "name": "Ambergate Primary School", "address": "Toadmoor Lane, Belper", "postcode": "DE56 2GN", "lat": 53.05706, "lng": -1.479267, "districtCode": "E07000032"}, {"id": "school-112787", "type": "school", "name": "Pottery Primary School", "address": "Kilbourne Road, Belper", "postcode": "DE56 1HA", "lat": 53.02671, "lng": -1.459353, "districtCode": "E07000032"}, {"id": "school-112788", "type": "school", "name": "Milford Primary School", "address": "Chevin Road, Belper", "postcode": "DE56 0QH", "lat": 53.002539, "lng": -1.478478, "districtCode": "E07000032"}, {"id": "school-112789", "type": "school", "name": "Herbert Strutt Primary School", "address": "Thornhill Avenue, Belper", "postcode": "DE56 1SH", "lat": 53.015787, "lng": -1.467331, "districtCode": "E07000032"}, {"id": "school-112790", "type": "school", "name": "Mickleover Primary School", "address": "Vicarage Road, Derby", "postcode": "DE3 0EY", "lat": 52.908731, "lng": -1.545633, "districtCode": "E06000015"}, {"id": "school-112796", "type": "school", "name": "St Oswald's CofE Primary School", "address": "Mayfield Road, Ashbourne", "postcode": "DE6 1AS", "lat": 53.015224, "lng": -1.737166, "districtCode": "E07000035"}, {"id": "school-112800", "type": "school", "name": "St Anne's CofE Primary School", "address": "School Lane, Bakewell", "postcode": "DE45 1RZ", "lat": 53.247755, "lng": -1.618714, "districtCode": "E07000035"}, {"id": "school-112805", "type": "school", "name": "Breadsall CofE VC Primary School", "address": "51 Brookside Road, Breadsall", "postcode": "DE21 5LF", "lat": 52.954469, "lng": -1.44693, "districtCode": "E07000036"}, {"id": "school-112811", "type": "school", "name": "Clifton CofE Primary School", "address": "Cross Side, Ashbourne", "postcode": "DE6 2GJ", "lat": 53.001165, "lng": -1.750559, "districtCode": "E07000035"}, {"id": "school-112812", "type": "school", "name": "Coton-in-the-Elms Cof E Primary School", "address": "Elmslea Avenue, Swadlincote", "postcode": "DE12 8HE", "lat": 52.734933, "lng": -1.636505, "districtCode": "E07000039"}, {"id": "school-112815", "type": "school", "name": "Elton CofE Primary School", "address": "Main Street, Matlock", "postcode": "DE4 2BW", "lat": 53.145155, "lng": -1.667741, "districtCode": "E07000035"}, {"id": "school-112820", "type": "school", "name": "Rowsley CofE (Controlled) Primary School", "address": "Woodhouse Road, Matlock", "postcode": "DE4 2ED", "lat": 53.188078, "lng": -1.615322, "districtCode": "E07000035"}, {"id": "school-112824", "type": "school", "name": "Hartshorne CofE Primary School", "address": "Main Street, Swadlincote", "postcode": "DE11 7ES", "lat": 52.785207, "lng": -1.517559, "districtCode": "E07000039"}, {"id": "school-112826", "type": "school", "name": "Corfield CofE Infant School", "address": "Thorpes Road, Heanor", "postcode": "DE75 7GQ", "lat": 53.011205, "lng": -1.36033, "districtCode": "E07000032"}, {"id": "school-112827", "type": "school", "name": "Langley Mill Church of England Infant School and Nursery", "address": "Sedgwick Street, Nottingham", "postcode": "NG16 4DT", "lat": 53.019297, "lng": -1.334313, "districtCode": "E07000032"}, {"id": "school-112829", "type": "school", "name": "Mundy CofE Junior School", "address": "Lockton Avenue, Heanor", "postcode": "DE75 7EQ", "lat": 53.008333, "lng": -1.351429, "districtCode": "E07000032"}, {"id": "school-112830", "type": "school", "name": "Horsley CofE (Controlled) Primary School", "address": "Church Street, DERBY", "postcode": "DE21 5BR", "lat": 52.996085, "lng": -1.43722, "districtCode": "E07000032"}, {"id": "school-112832", "type": "school", "name": "Kirk Ireton C of E Primary School", "address": "Main Street, Ashbourne", "postcode": "DE6 3LD", "lat": 53.048105, "lng": -1.600025, "districtCode": "E07000035"}, {"id": "school-112833", "type": "school", "name": "Kirk Langley CofE Primary School", "address": "Moor Lane, Ashbourne", "postcode": "DE6 4LQ", "lat": 52.944926, "lng": -1.569752, "districtCode": "E07000032"}, {"id": "school-112834", "type": "school", "name": "Kniveton CofE Primary School", "address": "Ostrich Lane, Ashbourne", "postcode": "DE6 1JJ", "lat": 53.050637, "lng": -1.685835, "districtCode": "E07000035"}, {"id": "school-112836", "type": "school", "name": "Mapperley CofE Controlled Primary School", "address": "Mapperley Village, Ilkeston", "postcode": "DE7 6BT", "lat": 52.982715, "lng": -1.35223, "districtCode": "E07000032"}, {"id": "school-112840", "type": "school", "name": "Cromford Church of England Primary School", "address": "North Street, Matlock", "postcode": "DE4 3RG", "lat": 53.106631, "lng": -1.559191, "districtCode": "E07000035"}, {"id": "school-112841", "type": "school", "name": "Matlock Bath Holy Trinity CofE Controlled Primary School", "address": "14 Clifton Road, Matlock", "postcode": "DE4 3PW", "lat": 53.116418, "lng": -1.56072, "districtCode": "E07000035"}, {"id": "school-112842", "type": "school", "name": "South Darley CofE Primary School", "address": "Cross Green, Matlock", "postcode": "DE4 2JT", "lat": 53.149465, "lng": -1.598844, "districtCode": "E07000035"}, {"id": "school-112843", "type": "school", "name": "Monyash CofE Primary School", "address": "Church Street, Bakewell", "postcode": "DE45 1JH", "lat": 53.195265, "lng": -1.775347, "districtCode": "E07000035"}, {"id": "school-112844", "type": "school", "name": "Netherseal St Peter's CofE (C) Primary School", "address": "Main Street, Swadlincote", "postcode": "DE12 8BZ", "lat": 52.712115, "lng": -1.574503, "districtCode": "E07000039"}, {"id": "school-112847", "type": "school", "name": "Osmaston CofE (VC) Primary School", "address": "Moor Lane, Ashbourne", "postcode": "DE6 1LW", "lat": 52.992247, "lng": -1.703632, "districtCode": "E07000035"}, {"id": "school-112849", "type": "school", "name": "Ripley St John's Church of England Primary School and Nursery", "address": "Dannah Street, Ripley", "postcode": "DE5 3BD", "lat": 53.050084, "lng": -1.393921, "districtCode": "E07000032"}, {"id": "school-112850", "type": "school", "name": "Risley Lower Grammar CE (VC) Primary School", "address": "Derby Road, Derby", "postcode": "DE72 3SU", "lat": 52.916478, "lng": -1.313, "districtCode": "E07000036"}, {"id": "school-112851", "type": "school", "name": "Rosliston CofE Primary School", "address": "Main Street, Swadlincote", "postcode": "DE12 8JW", "lat": 52.74744, "lng": -1.639705, "districtCode": "E07000039"}, {"id": "school-112854", "type": "school", "name": "St Andrew's CofE Primary School", "address": "Station Road, Ilkeston", "postcode": "DE7 6FB", "lat": 52.958299, "lng": -1.376163, "districtCode": "E07000036"}, {"id": "school-112856", "type": "school", "name": "Stanton-in-Peak CofE Primary School", "address": "School Lane, Matlock", "postcode": "DE4 2LX", "lat": 53.175663, "lng": -1.638477, "districtCode": "E07000035"}, {"id": "school-112859", "type": "school", "name": "Stretton Handley Church of England Primary School", "address": "Beresford Lane, Alfreton", "postcode": "DE55 6FH", "lat": 53.148197, "lng": -1.448273, "districtCode": "E07000038"}, {"id": "school-112862", "type": "school", "name": "Mugginton CofE Primary School", "address": "Church Lane, Ashbourne", "postcode": "DE6 4PL", "lat": 52.98264, "lng": -1.577242, "districtCode": "E07000032"}, {"id": "school-112863", "type": "school", "name": "Winster CofE Primary School", "address": "Wensley Road, Matlock", "postcode": "DE4 2DH", "lat": 53.141996, "lng": -1.632794, "districtCode": "E07000035"}, {"id": "school-112864", "type": "school", "name": "Wirksworth CofE Infant School", "address": "Greenway Croft, Matlock", "postcode": "DE4 4FG", "lat": 53.083255, "lng": -1.568702, "districtCode": "E07000035"}, {"id": "school-112866", "type": "school", "name": "Crich Carr CofE Primary School", "address": "Main Road, Matlock", "postcode": "DE4 5EF", "lat": 53.084214, "lng": -1.501113, "districtCode": "E07000032"}, {"id": "school-112867", "type": "school", "name": "Crich Church of England Infant School", "address": "Bowns Hill, Matlock", "postcode": "DE4 5DG", "lat": 53.085461, "lng": -1.477416, "districtCode": "E07000032"}, {"id": "school-112871", "type": "school", "name": "Church Broughton CofE Primary School", "address": "Main Street, Derby", "postcode": "DE65 5AS", "lat": 52.899552, "lng": -1.691523, "districtCode": "E07000039"}, {"id": "school-112875", "type": "school", "name": "St John's CofE Primary School and Nursery", "address": "Laund Nook, Belper", "postcode": "DE56 1GY", "lat": 53.029342, "lng": -1.468909, "districtCode": "E07000032"}, {"id": "school-112878", "type": "school", "name": "Carsington and Hopton Primary School", "address": "Carsington, Matlock", "postcode": "DE4 4DE", "lat": 53.076048, "lng": -1.622263, "districtCode": "E07000035"}, {"id": "school-112880", "type": "school", "name": "Fritchley CofE (Aided) Primary & Nursery School", "address": "Church Street, Belper", "postcode": "DE56 2FQ", "lat": 53.071745, "lng": -1.468059, "districtCode": "E07000032"}, {"id": "school-112881", "type": "school", "name": "Denby Free CofE VA Primary School", "address": "Church Street, Ripley", "postcode": "DE5 8PH", "lat": 53.013773, "lng": -1.404745, "districtCode": "E07000032"}, {"id": "school-112883", "type": "school", "name": "Fitzherbert CofE (Aided) Primary School", "address": "Ashes Lane, Ashbourne", "postcode": "DE6 1LD", "lat": 53.047414, "lng": -1.739476, "districtCode": "E07000035"}, {"id": "school-112887", "type": "school", "name": "Longstone CofE Primary School", "address": "The Cross, Great Longstone", "postcode": "DE45 1TZ", "lat": 53.242103, "lng": -1.701699, "districtCode": "E07000035"}, {"id": "school-112888", "type": "school", "name": "Bonsall CofE (A) Primary School", "address": "Church Street, Matlock", "postcode": "DE4 2AE", "lat": 53.119323, "lng": -1.581118, "districtCode": "E07000035"}, {"id": "school-112890", "type": "school", "name": "Newton Solney CofE (Aided) Infant School", "address": "Trent Lane, Burton-on-Trent", "postcode": "DE15 0SF", "lat": 52.827155, "lng": -1.583369, "districtCode": "E07000039"}, {"id": "school-112891", "type": "school", "name": "Pilsley CofE Primary School", "address": "Pilsley Village, Bakewell", "postcode": "DE45 1UF", "lat": 53.234567, "lng": -1.63903, "districtCode": "E07000035"}, {"id": "school-112896", "type": "school", "name": "Weston-on-Trent CofE (VA) Primary School", "address": "Forrester Avenue, Derby", "postcode": "DE72 2HX", "lat": 52.84791, "lng": -1.398106, "districtCode": "E07000039"}, {"id": "school-112915", "type": "school", "name": "St James' Church of England Aided Infant School", "address": "Leonard Street, Derby", "postcode": "DE23 8EG", "lat": 52.913837, "lng": -1.471676, "districtCode": "E06000015"}, {"id": "school-112924", "type": "school", "name": "Youlgrave, All Saints' CofE (VA) Primary School", "address": "Alport Lane, Bakewell", "postcode": "DE45 1WN", "lat": 53.176101, "lng": -1.681792, "districtCode": "E07000035"}, {"id": "school-112949", "type": "school", "name": "Tibshelf Community School", "address": "Doe Hill Lane, Alfreton", "postcode": "DE55 5LZ", "lat": 53.139239, "lng": -1.351074, "districtCode": "E07000033"}, {"id": "school-112951", "type": "school", "name": "The Bemrose School", "address": "Uttoxeter New Road, Derby", "postcode": "DE22 3HU", "lat": 52.916404, "lng": -1.499831, "districtCode": "E06000015"}, {"id": "school-112956", "type": "school", "name": "Littleover Community School", "address": "Pastures Hill, Derby", "postcode": "DE23 4BZ", "lat": 52.899404, "lng": -1.524127, "districtCode": "E06000015"}, {"id": "school-112974", "type": "school", "name": "Belmont Primary School", "address": "Belmont Street", "postcode": "DE11 8JZ", "lat": 52.7757, "lng": -1.551037, "districtCode": "E07000039"}, {"id": "school-112976", "type": "school", "name": "Repton Primary School", "address": "Springfield Road, Derby", "postcode": "DE65 6GN", "lat": 52.837691, "lng": -1.539441, "districtCode": "E07000039"}, {"id": "school-112978", "type": "school", "name": "Linton Primary School", "address": "Main Street, Swadlincote", "postcode": "DE12 6QA", "lat": 52.744191, "lng": -1.586368, "districtCode": "E07000039"}, {"id": "school-112981", "type": "school", "name": "The Curzon CofE Primary School", "address": "Church Road, Derby", "postcode": "DE22 5JA", "lat": 52.964762, "lng": -1.501476, "districtCode": "E07000032"}, {"id": "school-112982", "type": "school", "name": "Fairmeadows Foundation Primary School", "address": "Fairfield Crescent, Swadlincote", "postcode": "DE11 0SW", "lat": 52.778451, "lng": -1.57783, "districtCode": "E07000039"}, {"id": "school-112983", "type": "school", "name": "Shelton Junior School", "address": "Shelton Junior School, Carlton Avenue, Derby", "postcode": "DE24 9EJ", "lat": 52.879989, "lng": -1.450123, "districtCode": "E06000015"}, {"id": "school-112989", "type": "school", "name": "Belper School and Sixth Form Centre", "address": "John O'Gaunts Way, Belper", "postcode": "DE56 0DA", "lat": 53.026208, "lng": -1.455736, "districtCode": "E07000032"}, {"id": "school-112991", "type": "school", "name": "Murray Park Community School", "address": "Murray Road, Derby", "postcode": "DE3 9LL", "lat": 52.917784, "lng": -1.529355, "districtCode": "E06000015"}, {"id": "school-112996", "type": "school", "name": "Lady Manners School", "address": "Shutts Lane, Bakewell", "postcode": "DE45 1JA", "lat": 53.205742, "lng": -1.682126, "districtCode": "E07000035"}, {"id": "school-113002", "type": "school", "name": "St Anselm's School", "address": "Stanedge Road, Bakewell", "postcode": "DE45 1DP", "lat": 53.21478, "lng": -1.679798, "districtCode": "E07000035"}, {"id": "school-113004", "type": "school", "name": "Trent College", "address": "Derby Road, Nottingham", "postcode": "NG10 4AD", "lat": 52.900865, "lng": -1.28467, "districtCode": "E07000036"}, {"id": "school-113008", "type": "school", "name": "St Wystan's School", "address": "High Street, Derby", "postcode": "DE65 6GE", "lat": 52.838919, "lng": -1.547772, "districtCode": "E07000039"}, {"id": "school-113009", "type": "school", "name": "Repton School", "address": "Repton, Derby", "postcode": "DE65 6FH", "lat": 52.840124, "lng": -1.55015, "districtCode": "E07000039"}, {"id": "school-113013", "type": "school", "name": "Old Vicarage School", "address": "11 Church Lane, Derby", "postcode": "DE22 1EW", "lat": 52.947093, "lng": -1.477805, "districtCode": "E06000015"}, {"id": "school-113017", "type": "school", "name": "Derby High School", "address": "Hillsway, Derby", "postcode": "DE23 3DT", "lat": 52.903707, "lng": -1.514385, "districtCode": "E06000015"}, {"id": "school-113019", "type": "school", "name": "Bladon House School", "address": "Newton Solney, Burton-on-Trent", "postcode": "DE15 0TA", "lat": 52.819235, "lng": -1.60207, "districtCode": "E07000039"}, {"id": "school-113021", "type": "school", "name": "Alderwasley Hall School", "address": "Higg Lane, Derbyshire", "postcode": "DE56 2SR", "lat": 53.075684, "lng": -1.512393, "districtCode": "E07000032"}, {"id": "school-113022", "type": "school", "name": "Repton Preparatory School", "address": "Foremarke Hall, Derby", "postcode": "DE65 6EJ", "lat": 52.834769, "lng": -1.505861, "districtCode": "E07000039"}, {"id": "school-113023", "type": "school", "name": "Dame Catherine Harpur's School", "address": "Rose Lane, Derby", "postcode": "DE73 7JW", "lat": 52.812201, "lng": -1.476174, "districtCode": "E07000039"}, {"id": "school-113024", "type": "school", "name": "Emmanuel School (Derby) Limited", "address": "Juniper Lodge, Derby", "postcode": "DE22 1FP", "lat": 52.929841, "lng": -1.484247, "districtCode": "E06000015"}, {"id": "school-113028", "type": "school", "name": "Derby Grammar School", "address": "Rykneld Road", "postcode": "DE23 4BX", "lat": 52.894539, "lng": -1.526009, "districtCode": "E06000015"}, {"id": "school-113031", "type": "school", "name": "Brackenfield Special School", "address": "Bracken Road, Nottingham", "postcode": "NG10 4DA", "lat": 52.902825, "lng": -1.292131, "districtCode": "E07000036"}, {"id": "school-113033", "type": "school", "name": "Swanwick School and Sports College", "address": "Hayes Lane, Alfreton", "postcode": "DE55 1AR", "lat": 53.073434, "lng": -1.387368, "districtCode": "E07000032"}, {"id": "school-113040", "type": "school", "name": "Alfreton Park Community Special School", "address": "Alfreton Park, Alfreton", "postcode": "DE55 7AL", "lat": 53.094545, "lng": -1.394805, "districtCode": "E07000032"}, {"id": "school-113044", "type": "school", "name": "Royal School for the Deaf Derby", "address": "Ashbourne Road, Derby", "postcode": "DE22 3BH", "lat": 52.928611, "lng": -1.499273, "districtCode": "E06000015"}, {"id": "school-117697", "type": "school", "name": "Great Coates Village Nursery School", "address": "Station Road, Grimsby", "postcode": "DN37 9NN", "lat": 53.571918, "lng": -0.134567, "districtCode": "E06000012"}, {"id": "school-117700", "type": "school", "name": "Scartho Nursery School", "address": "Pinfold Lane, Grimsby", "postcode": "DN33 2EW", "lat": 53.536379, "lng": -0.089691, "districtCode": "E06000012"}, {"id": "school-117726", "type": "school", "name": "Althorpe and Keadby Primary School", "address": "Station Road, Scunthorpe", "postcode": "DN17 3BN", "lat": 53.587071, "lng": -0.734585, "districtCode": "E06000013"}, {"id": "school-117727", "type": "school", "name": "Bottesford Junior School", "address": "Manor Road, Scunthorpe", "postcode": "DN16 3PB", "lat": 53.552242, "lng": -0.654555, "districtCode": "E06000013"}, {"id": "school-117728", "type": "school", "name": "Brigg Primary School", "address": "Atherton Way, Brigg", "postcode": "DN20 8AR", "lat": 53.558771, "lng": -0.494129, "districtCode": "E06000013"}, {"id": "school-117733", "type": "school", "name": "Queen Mary Avenue Infant School", "address": "Queen Mary Avenue, Cleethorpes", "postcode": "DN35 7SY", "lat": 53.56399, "lng": -0.049604, "districtCode": "E06000012"}, {"id": "school-117736", "type": "school", "name": "East Halton Primary School", "address": "College Road, Immingham", "postcode": "DN40 3PJ", "lat": 53.660378, "lng": -0.279862, "districtCode": "E06000013"}, {"id": "school-117737", "type": "school", "name": "Goxhill Primary School", "address": "Northend, Barrow-upon-Humber", "postcode": "DN19 7JR", "lat": 53.682133, "lng": -0.328011, "districtCode": "E06000013"}, {"id": "school-117740", "type": "school", "name": "Luddington & Garthorpe Primary", "address": "High Street, Scunthorpe", "postcode": "DN17 4QP", "lat": 53.642909, "lng": -0.746757, "districtCode": "E06000013"}, {"id": "school-117741", "type": "school", "name": "Messingham Primary School", "address": "Briggate Drive, Scunthorpe", "postcode": "DN17 3TN", "lat": 53.528431, "lng": -0.649335, "districtCode": "E06000013"}, {"id": "school-117743", "type": "school", "name": "Killingholme Primary School", "address": "School Road", "postcode": "DN40 3HX", "lat": 53.628532, "lng": -0.262342, "districtCode": "E06000013"}, {"id": "school-117747", "type": "school", "name": "Bushfield Road Infant School", "address": "Bushfield Road, Scunthorpe", "postcode": "DN16 1NA", "lat": 53.579066, "lng": -0.649549, "districtCode": "E06000013"}, {"id": "school-117748", "type": "school", "name": "Frodingham Infant School", "address": "Rowland Road, Scunthorpe", "postcode": "DN16 1ST", "lat": 53.585801, "lng": -0.644107, "districtCode": "E06000013"}, {"id": "school-117752", "type": "school", "name": "South Ferriby Primary School", "address": "Horkstow Road, Barton-upon-Humber", "postcode": "DN18 6HU", "lat": 53.672534, "lng": -0.507122, "districtCode": "E06000013"}, {"id": "school-117753", "type": "school", "name": "Winteringham Primary School", "address": "School Road, Scunthorpe", "postcode": "DN15 9NL", "lat": 53.687468, "lng": -0.592605, "districtCode": "E06000013"}, {"id": "school-117756", "type": "school", "name": "Priory Lane Community School", "address": "Priory Lane, Scunthorpe", "postcode": "DN17 1HE", "lat": 53.569537, "lng": -0.662388, "districtCode": "E06000013"}, {"id": "school-117768", "type": "school", "name": "Enderby Road Infant School", "address": "Sunningdale Road, Scunthorpe", "postcode": "DN17 2TD", "lat": 53.558484, "lng": -0.66932, "districtCode": "E06000013"}, {"id": "school-117771", "type": "school", "name": "Leys Farm Junior School", "address": "Park Avenue, Scunthorpe", "postcode": "DN17 2PB", "lat": 53.556677, "lng": -0.661994, "districtCode": "E06000013"}, {"id": "school-117780", "type": "school", "name": "Bottesford Infant School", "address": "Manor Road, Scunthorpe", "postcode": "DN16 3PB", "lat": 53.552424, "lng": -0.653145, "districtCode": "E06000013"}, {"id": "school-117781", "type": "school", "name": "Berkeley Primary School", "address": "Marsden Drive, Scunthorpe", "postcode": "DN15 8AH", "lat": 53.593066, "lng": -0.675547, "districtCode": "E06000013"}, {"id": "school-117787", "type": "school", "name": "Winterton Junior School", "address": "West Street, Scunthorpe", "postcode": "DN15 9QG", "lat": 53.655057, "lng": -0.5932, "districtCode": "E06000013"}, {"id": "school-117811", "type": "school", "name": "Holme Valley Primary School", "address": "Timberland, Scunthorpe", "postcode": "DN16 3SL", "lat": 53.555368, "lng": -0.636067, "districtCode": "E06000013"}, {"id": "school-117812", "type": "school", "name": "Bowmandale Primary School", "address": "Bowmandale, Barton-upon-Humber", "postcode": "DN18 5EE", "lat": 53.677726, "lng": -0.443933, "districtCode": "E06000013"}, {"id": "school-117824", "type": "school", "name": "Barmby-on-the-Marsh Primary School", "address": "High Street, Goole", "postcode": "DN14 7HQ", "lat": 53.747771, "lng": -0.948219, "districtCode": "E06000011"}, {"id": "school-117841", "type": "school", "name": "Eastrington Primary School", "address": "Portington Road, Goole", "postcode": "DN14 7QE", "lat": 53.761007, "lng": -0.793961, "districtCode": "E06000011"}, {"id": "school-117892", "type": "school", "name": "Rawcliffe Primary School", "address": "Ridding Lane, Goole", "postcode": "DN14 8RG", "lat": 53.695546, "lng": -0.959064, "districtCode": "E06000011"}, {"id": "school-117893", "type": "school", "name": "Rawcliffe Bridge Primary School", "address": "Bridge Lane, Goole", "postcode": "DN14 8NH", "lat": 53.683702, "lng": -0.945137, "districtCode": "E06000011"}, {"id": "school-117894", "type": "school", "name": "Snaith Primary School", "address": "Bourn Mill Balk Rd, Goole", "postcode": "DN14 9RD", "lat": 53.687342, "lng": -1.031188, "districtCode": "E06000011"}, {"id": "school-117926", "type": "school", "name": "Western Primary School", "address": "Broadway, Grimsby", "postcode": "DN34 5RS", "lat": 53.554298, "lng": -0.12722, "districtCode": "E06000012"}, {"id": "school-117934", "type": "school", "name": "Crosby Primary School", "address": "Normanby Road, Scunthorpe", "postcode": "DN15 6AS", "lat": 53.599378, "lng": -0.651471, "districtCode": "E06000013"}, {"id": "school-117935", "type": "school", "name": "Parkside Primary School", "address": "Western Road, Goole", "postcode": "DN14 6RQ", "lat": 53.714169, "lng": -0.883773, "districtCode": "E06000011"}, {"id": "school-117936", "type": "school", "name": "Kingsway Primary School", "address": "Fountayne Street, Goole", "postcode": "DN14 5HQ", "lat": 53.70798, "lng": -0.858511, "districtCode": "E06000011"}, {"id": "school-117937", "type": "school", "name": "Marshlands Primary School", "address": "Hall Road, Goole", "postcode": "DN14 5UE", "lat": 53.690599, "lng": -0.866645, "districtCode": "E06000011"}, {"id": "school-117939", "type": "school", "name": "Reedness Primary School", "address": "Main Street, Reedness, Goole", "postcode": "DN14 8HG", "lat": 53.695076, "lng": -0.781426, "districtCode": "E06000011"}, {"id": "school-117941", "type": "school", "name": "Boothferry Primary School", "address": "Newport Street, Goole", "postcode": "DN14 6TL", "lat": 53.704554, "lng": -0.883164, "districtCode": "E06000011"}, {"id": "school-117942", "type": "school", "name": "Swinefleet Primary School", "address": "Low Street, Goole", "postcode": "DN14 8BX", "lat": 53.688983, "lng": -0.835913, "districtCode": "E06000011"}, {"id": "school-117967", "type": "school", "name": "Castledyke Primary School", "address": "Castledyke West, Barton-upon-Humber", "postcode": "DN18 5AW", "lat": 53.687178, "lng": -0.444145, "districtCode": "E06000013"}, {"id": "school-118004", "type": "school", "name": "St Barnabas CofE Primary School, Barnetby", "address": "St Barnabas Road, Barnetby", "postcode": "DN38 6JD", "lat": 53.572745, "lng": -0.401525, "districtCode": "E06000013"}, {"id": "school-118005", "type": "school", "name": "John Harrison C of E Primary School", "address": "North Street, Barrow-upon-Humber", "postcode": "DN19 7AP", "lat": 53.679687, "lng": -0.377626, "districtCode": "E06000013"}, {"id": "school-118006", "type": "school", "name": "Barton St Peter's CofE Primary School", "address": "Marsh Lane, Barton-upon-Humber", "postcode": "DN18 5HB", "lat": 53.686578, "lng": -0.433293, "districtCode": "E06000013"}, {"id": "school-118007", "type": "school", "name": "Belton All Saints CofE Primary School", "address": "High Street, Doncaster", "postcode": "DN9 1LR", "lat": 53.554144, "lng": -0.814753, "districtCode": "E06000013"}, {"id": "school-118010", "type": "school", "name": "Gunness and Burringham Church of England Primary School", "address": "Burringham Road, Scunthorpe", "postcode": "DN17 3LT", "lat": 53.584777, "lng": -0.726843, "districtCode": "E06000013"}, {"id": "school-118014", "type": "school", "name": "Kirmington CofE Primary School", "address": "Kirmington, Ulceby", "postcode": "DN39 6YP", "lat": 53.586662, "lng": -0.326555, "districtCode": "E06000013"}, {"id": "school-118016", "type": "school", "name": "Scunthorpe CofE Primary School", "address": "Gurnell Street, Scunthorpe", "postcode": "DN15 6HP", "lat": 53.593013, "lng": -0.647502, "districtCode": "E06000013"}, {"id": "school-118017", "type": "school", "name": "Stallingborough CofE Primary School", "address": "Station Road, Grimsby", "postcode": "DN41 8AP", "lat": 53.587164, "lng": -0.180557, "districtCode": "E06000012"}, {"id": "school-118020", "type": "school", "name": "Winterton Church of England Infants' School", "address": "West Street, Scunthorpe", "postcode": "DN15 9QF", "lat": 53.656382, "lng": -0.595003, "districtCode": "E06000013"}, {"id": "school-118022", "type": "school", "name": "Wroot Travis Charity Church of England Primary School", "address": "Field Lane, Doncaster", "postcode": "DN9 2BN", "lat": 53.517971, "lng": -0.921428, "districtCode": "E06000013"}, {"id": "school-118023", "type": "school", "name": "New Holland Church of England and Methodist Primary School", "address": "School Lane, Barrow-upon-Humber", "postcode": "DN19 7RN", "lat": 53.700155, "lng": -0.361552, "districtCode": "E06000013"}, {"id": "school-118025", "type": "school", "name": "Cowick Church of England Voluntary Controlled Primary School", "address": "Snaith Road, Goole", "postcode": "DN14 9DG", "lat": 53.686358, "lng": -0.997969, "districtCode": "E06000011"}, {"id": "school-118038", "type": "school", "name": "Wootton St Andrew's CofE Primary School", "address": "6 High Street, Ulceby", "postcode": "DN39 6SG", "lat": 53.629754, "lng": -0.35324, "districtCode": "E06000013"}, {"id": "school-118043", "type": "school", "name": "Eastoft Church of England Primary School", "address": "Eastoft C of E Primary School, Scunthorpe", "postcode": "DN17 4PG", "lat": 53.639204, "lng": -0.781434, "districtCode": "E06000013"}, {"id": "school-118044", "type": "school", "name": "Pollington-Balne Church of England Primary School", "address": "Balne Moor Road, Goole", "postcode": "DN14 0DZ", "lat": 53.665599, "lng": -1.075962, "districtCode": "E06000011"}, {"id": "school-118097", "type": "school", "name": "Frederick Gough School", "address": "Grange Lane South, Scunthorpe", "postcode": "DN16 3NG", "lat": 53.559792, "lng": -0.639352, "districtCode": "E06000013"}, {"id": "school-118109", "type": "school", "name": "Baysgarth School", "address": "Barrow Road, Barton-upon-Humber", "postcode": "DN18 6AE", "lat": 53.680767, "lng": -0.429617, "districtCode": "E06000013"}, {"id": "school-118112", "type": "school", "name": "Sir John Nelthorpe School", "address": "Grammar School Road, Brigg", "postcode": "DN20 8AA", "lat": 53.553936, "lng": -0.487854, "districtCode": "E06000013"}, {"id": "school-118124", "type": "school", "name": "St James' School", "address": "22 Bargate, Grimsby", "postcode": "DN34 4SY", "lat": 53.560328, "lng": -0.091194, "districtCode": "E06000012"}, {"id": "school-118125", "type": "school", "name": "St Martin's Preparatory School", "address": "63 Bargate, Grimsby", "postcode": "DN34 5AA", "lat": 53.554549, "lng": -0.08854, "districtCode": "E06000012"}, {"id": "school-118146", "type": "school", "name": "St Hugh's Special School", "address": "Bushfield Road, Scunthorpe", "postcode": "DN16 1NB", "lat": 53.57963, "lng": -0.646993, "districtCode": "E06000013"}, {"id": "school-118147", "type": "school", "name": "St Luke's Primary School", "address": "Grange Lane North, Scunthorpe", "postcode": "DN16 1BN", "lat": 53.573885, "lng": -0.626393, "districtCode": "E06000013"}, {"id": "school-118148", "type": "school", "name": "Riverside Special School", "address": "Ainsty Street, Goole", "postcode": "DN14 5JS", "lat": 53.706996, "lng": -0.858023, "districtCode": "E06000011"}, {"id": "school-119381", "type": "school", "name": "Bickerstaffe CofE Primary School and Nursery", "address": "Hall Lane, Ormskirk", "postcode": "L39 0EH", "lat": 53.530095, "lng": -2.839051, "districtCode": "E07000127"}, {"id": "school-119903", "type": "school", "name": "The Latimer Primary School", "address": "Latimer Street, Leicester", "postcode": "LE7 7AW", "lat": 52.670746, "lng": -1.185508, "districtCode": "E07000130"}, {"id": "school-119906", "type": "school", "name": "Moira Primary School", "address": "Blackfordby Lane, Swadlincote", "postcode": "DE12 6EX", "lat": 52.748429, "lng": -1.51595, "districtCode": "E07000134"}, {"id": "school-119912", "type": "school", "name": "Burton-on-the-Wolds Primary School", "address": "Barrow Road, Loughborough", "postcode": "LE12 5TB", "lat": 52.781336, "lng": -1.128922, "districtCode": "E07000130"}, {"id": "school-119913", "type": "school", "name": "Belvoirdale Community Primary School", "address": "Scotlands Road, Coalville", "postcode": "LE67 3RD", "lat": 52.721148, "lng": -1.366537, "districtCode": "E07000134"}, {"id": "school-119914", "type": "school", "name": "Ellistown Community Primary School", "address": "Whitehill Road, Coalville", "postcode": "LE67 1EN", "lat": 52.696849, "lng": -1.363751, "districtCode": "E07000134"}, {"id": "school-119916", "type": "school", "name": "Woodstone Community Primary School", "address": "Heather Lane, Coalville", "postcode": "LE67 2AH", "lat": 52.717055, "lng": -1.404262, "districtCode": "E07000134"}, {"id": "school-119917", "type": "school", "name": "New Swannington Primary School", "address": "Church Lane, Coalville", "postcode": "LE67 5DQ", "lat": 52.7399, "lng": -1.374501, "districtCode": "E07000134"}, {"id": "school-119918", "type": "school", "name": "Griffydam Primary School", "address": "Top Road, Coalville", "postcode": "LE67 8HU", "lat": 52.762762, "lng": -1.386298, "districtCode": "E07000134"}, {"id": "school-119925", "type": "school", "name": "Martinshaw Primary School", "address": "Forest Rise, Leicester", "postcode": "LE6 0BB", "lat": 52.663191, "lng": -1.232289, "districtCode": "E07000132"}, {"id": "school-119926", "type": "school", "name": "Heather Primary School", "address": "Main Street, Coalville", "postcode": "LE67 2QP", "lat": 52.693363, "lng": -1.422194, "districtCode": "E07000134"}, {"id": "school-119928", "type": "school", "name": "Westfield Junior School", "address": "Westfield Road, Hinckley", "postcode": "LE10 0LT", "lat": 52.534526, "lng": -1.380579, "districtCode": "E07000132"}, {"id": "school-119929", "type": "school", "name": "Westfield Infant School", "address": "Ashford Road, Hinckley", "postcode": "LE10 0JL", "lat": 52.535179, "lng": -1.383371, "districtCode": "E07000132"}, {"id": "school-119930", "type": "school", "name": "Barwell Infant School", "address": "Townend Road, Leicester", "postcode": "LE9 8HG", "lat": 52.568878, "lng": -1.34502, "districtCode": "E07000132"}, {"id": "school-119931", "type": "school", "name": "Ibstock Junior School", "address": "Melbourne Road, Ibstock", "postcode": "LE67 6NP", "lat": 52.688669, "lng": -1.400195, "districtCode": "E07000134"}, {"id": "school-119932", "type": "school", "name": "Kegworth Primary School", "address": "High Street, Derby", "postcode": "DE74 2DA", "lat": 52.835071, "lng": -1.280065, "districtCode": "E07000134"}, {"id": "school-119934", "type": "school", "name": "Hemington Primary School", "address": "Main Street, Derby", "postcode": "DE74 2RB", "lat": 52.847865, "lng": -1.322934, "districtCode": "E07000134"}, {"id": "school-119936", "type": "school", "name": "Little Bowden School", "address": "Scotland Road, Market Harborough", "postcode": "LE16 8AY", "lat": 52.472799, "lng": -0.910838, "districtCode": "E07000131"}, {"id": "school-119942", "type": "school", "name": "Newbold Verdon Primary School", "address": "Dragon Lane, Leicester", "postcode": "LE9 9NG", "lat": 52.63116, "lng": -1.343721, "districtCode": "E07000132"}, {"id": "school-119952", "type": "school", "name": "Stathern Primary School", "address": "Water Lane, Melton Mowbray", "postcode": "LE14 4HX", "lat": 52.870246, "lng": -0.852856, "districtCode": "E07000133"}, {"id": "school-119953", "type": "school", "name": "Newton Burgoland Primary School", "address": "School Lane, Coalville", "postcode": "LE67 2SL", "lat": 52.676903, "lng": -1.451034, "districtCode": "E07000134"}, {"id": "school-119954", "type": "school", "name": "Worthington School", "address": "Main Street, Ashby-de-la-Zouch", "postcode": "LE65 1RQ", "lat": 52.780716, "lng": -1.393162, "districtCode": "E07000134"}, {"id": "school-119956", "type": "school", "name": "Blaby Thistly Meadow Primary School", "address": "Hospital Lane, Leicester", "postcode": "LE8 4FE", "lat": 52.570174, "lng": -1.157505, "districtCode": "E07000129"}, {"id": "school-119957", "type": "school", "name": "Thorpe Acre Junior School", "address": "Alan Moss Road, Loughborough", "postcode": "LE11 4SQ", "lat": 52.771466, "lng": -1.236123, "districtCode": "E07000130"}, {"id": "school-119958", "type": "school", "name": "Thorpe Acre Infant School", "address": "Alan Moss Road, Loughborough", "postcode": "LE11 4SQ", "lat": 52.771301, "lng": -1.234287, "districtCode": "E07000130"}, {"id": "school-119959", "type": "school", "name": "Elizabeth Woodville Primary School", "address": "Glebe Road, Leicester", "postcode": "LE6 0GT", "lat": 52.658149, "lng": -1.22426, "districtCode": "E07000132"}, {"id": "school-119961", "type": "school", "name": "Oxley Primary School Shepshed", "address": "Thorpe Road, Loughborough", "postcode": "LE12 9LU", "lat": 52.768242, "lng": -1.299415, "districtCode": "E07000130"}, {"id": "school-119964", "type": "school", "name": "Burbage Junior School", "address": "Grove Road, Hinckley", "postcode": "LE10 2AD", "lat": 52.527806, "lng": -1.349715, "districtCode": "E07000132"}, {"id": "school-119981", "type": "school", "name": "Warren Hills Community Primary School", "address": "Stamford Drive, Coalville", "postcode": "LE67 4TA", "lat": 52.726538, "lng": -1.325008, "districtCode": "E07000134"}, {"id": "school-119986", "type": "school", "name": "Sketchley Hill Primary School Burbage", "address": "Sketchley Road, Hinckley", "postcode": "LE10 2DY", "lat": 52.525356, "lng": -1.36551, "districtCode": "E07000132"}, {"id": "school-120002", "type": "school", "name": "Catherine Infant School", "address": "Ulverscroft Road, Leicester", "postcode": "LE4 6BY", "lat": 52.646003, "lng": -1.115324, "districtCode": "E06000016"}, {"id": "school-120003", "type": "school", "name": "Catherine Junior School", "address": "Brandon Street, Leicester", "postcode": "LE4 6AZ", "lat": 52.646603, "lng": -1.118608, "districtCode": "E06000016"}, {"id": "school-120005", "type": "school", "name": "Evington Valley Primary School", "address": "Evington Valley Road, Leicester", "postcode": "LE5 5LL", "lat": 52.624739, "lng": -1.099766, "districtCode": "E06000016"}, {"id": "school-120006", "type": "school", "name": "Granby Primary School", "address": "Granby Road, Leicester", "postcode": "LE2 8LP", "lat": 52.606347, "lng": -1.148939, "districtCode": "E06000016"}, {"id": "school-120009", "type": "school", "name": "Rushey Mead Primary School", "address": "Gipsy Lane, Leicester", "postcode": "LE4 6RB", "lat": 52.6559, "lng": -1.110275, "districtCode": "E06000016"}, {"id": "school-120014", "type": "school", "name": "Imperial Avenue Infant School", "address": "Imperial Avenue, Leicester", "postcode": "LE3 1AH", "lat": 52.623835, "lng": -1.160376, "districtCode": "E06000016"}, {"id": "school-120016", "type": "school", "name": "Inglehurst Junior School", "address": "Ingle Street, Leicester", "postcode": "LE3 9FS", "lat": 52.641253, "lng": -1.158106, "districtCode": "E06000016"}, {"id": "school-120017", "type": "school", "name": "King Richard III Infant and Nursery School", "address": "Andrewes Street, Leicester", "postcode": "LE3 5PA", "lat": 52.631724, "lng": -1.147058, "districtCode": "E06000016"}, {"id": "school-120018", "type": "school", "name": "Mayflower Primary School", "address": "70 Ethel Road, Leicester", "postcode": "LE5 5NA", "lat": 52.62691, "lng": -1.097978, "districtCode": "E06000016"}, {"id": "school-120023", "type": "school", "name": "Merrydale Infant School", "address": "Claydon Road, Leicester", "postcode": "LE5 0PL", "lat": 52.644612, "lng": -1.094259, "districtCode": "E06000016"}, {"id": "school-120026", "type": "school", "name": "Shaftesbury Junior School", "address": "Latimer Street, Leicester", "postcode": "LE3 0QE", "lat": 52.628943, "lng": -1.149122, "districtCode": "E06000016"}, {"id": "school-120028", "type": "school", "name": "Wyvern Primary School", "address": "Wyvern Avenue, Leicester", "postcode": "LE4 7HH", "lat": 52.656647, "lng": -1.103221, "districtCode": "E06000016"}, {"id": "school-120029", "type": "school", "name": "Montrose School", "address": "Wigston Lane, Leicester", "postcode": "LE2 8TN", "lat": 52.599897, "lng": -1.147219, "districtCode": "E06000016"}, {"id": "school-120034", "type": "school", "name": "Folville Junior School", "address": "Folville Rise, Leicester", "postcode": "LE3 1EE", "lat": 52.619629, "lng": -1.165642, "districtCode": "E06000016"}, {"id": "school-120038", "type": "school", "name": "Stokes Wood Primary School", "address": "Blackett Avenue, Leicester", "postcode": "LE3 9BX", "lat": 52.646537, "lng": -1.164154, "districtCode": "E06000016"}, {"id": "school-120039", "type": "school", "name": "Wolsey House Primary School", "address": "Beaumont Leys Lane, Leicester", "postcode": "LE4 2BB", "lat": 52.658675, "lng": -1.136538, "districtCode": "E06000016"}, {"id": "school-120047", "type": "school", "name": "Sandfield Close Primary School", "address": "Sandfield Close, Leicester", "postcode": "LE4 7RE", "lat": 52.667477, "lng": -1.095605, "districtCode": "E06000016"}, {"id": "school-120050", "type": "school", "name": "Barley Croft Primary School", "address": "Malham Close, Leicester", "postcode": "LE4 0UT", "lat": 52.658339, "lng": -1.156122, "districtCode": "E06000016"}, {"id": "school-120068", "type": "school", "name": "Linden Primary School", "address": "Headland Road, Leicester", "postcode": "LE5 6AD", "lat": 52.622936, "lng": -1.081631, "districtCode": "E06000016"}, {"id": "school-120069", "type": "school", "name": "Eyres Monsell Primary School", "address": "Simmins Crescent, Leicester", "postcode": "LE2 9AH", "lat": 52.591743, "lng": -1.148647, "districtCode": "E06000016"}, {"id": "school-120071", "type": "school", "name": "Hazel Community Primary School", "address": "Hazel Street, Leicester", "postcode": "LE2 7JN", "lat": 52.623118, "lng": -1.135731, "districtCode": "E06000016"}, {"id": "school-120073", "type": "school", "name": "Mellor Community Primary School", "address": "60 Checketts Road, LEICESTER", "postcode": "LE4 5EQ", "lat": 52.657686, "lng": -1.115783, "districtCode": "E06000016"}, {"id": "school-120077", "type": "school", "name": "Marriott Primary School", "address": "Broughton Road, Leicester", "postcode": "LE2 6NE", "lat": 52.601331, "lng": -1.136662, "districtCode": "E06000016"}, {"id": "school-120079", "type": "school", "name": "Water Leys Primary School", "address": "Guilford Drive, Wigston", "postcode": "LE18 1HG", "lat": 52.593069, "lng": -1.117262, "districtCode": "E07000135"}, {"id": "school-120081", "type": "school", "name": "Whitehall Primary School", "address": "Whitehall Road, Leicester", "postcode": "LE5 6GJ", "lat": 52.627473, "lng": -1.070735, "districtCode": "E06000016"}, {"id": "school-120084", "type": "school", "name": "Spinney Hill Primary School", "address": "Ventnor Street, Leicester", "postcode": "LE5 5EZ", "lat": 52.633516, "lng": -1.101167, "districtCode": "E06000016"}, {"id": "school-120086", "type": "school", "name": "Scraptoft Valley Primary School", "address": "New Romney Crescent, Leicester", "postcode": "LE5 1NG", "lat": 52.647183, "lng": -1.052859, "districtCode": "E06000016"}, {"id": "school-120087", "type": "school", "name": "Beaumont Lodge Primary School", "address": "Astill Lodge Road, Leicester", "postcode": "LE4 1DT", "lat": 52.674254, "lng": -1.158714, "districtCode": "E06000016"}, {"id": "school-120088", "type": "school", "name": "Parks Primary School", "address": "1 Gillman Road, Leicester", "postcode": "LE3 9NS", "lat": 52.644814, "lng": -1.167099, "districtCode": "E06000016"}, {"id": "school-120095", "type": "school", "name": "Coleman Primary School", "address": "Gwendolen Road, Leicester", "postcode": "LE5 5FS", "lat": 52.628331, "lng": -1.092098, "districtCode": "E06000016"}, {"id": "school-120096", "type": "school", "name": "Woodcote Primary School", "address": "Willowbrook Close, Ashby-de-la-Zouch", "postcode": "LE65 1JX", "lat": 52.753194, "lng": -1.46965, "districtCode": "E07000134"}, {"id": "school-120100", "type": "school", "name": "Herrick Primary School", "address": "Lockerbie Avenue, Leicester", "postcode": "LE4 7NJ", "lat": 52.663627, "lng": -1.103581, "districtCode": "E06000016"}, {"id": "school-120101", "type": "school", "name": "Slater Primary School", "address": "Slater Street, Leicester", "postcode": "LE3 5AS", "lat": 52.641581, "lng": -1.141265, "districtCode": "E06000016"}, {"id": "school-120107", "type": "school", "name": "Alderman Richard Hallam Primary School", "address": "Avebury Avenue, Leicester", "postcode": "LE4 0FQ", "lat": 52.650704, "lng": -1.152026, "districtCode": "E06000016"}, {"id": "school-120108", "type": "school", "name": "Medway Community Primary School", "address": "St Stephens Road, Leicester", "postcode": "LE2 1GH", "lat": 52.628048, "lng": -1.112923, "districtCode": "E06000016"}, {"id": "school-120114", "type": "school", "name": "Belton Church of England Primary School", "address": "Sadlers Wells, Loughborough", "postcode": "LE12 9TS", "lat": 52.781274, "lng": -1.334526, "districtCode": "E07000134"}, {"id": "school-120115", "type": "school", "name": "Billesdon Church of England Primary School", "address": "Gaulby Road, Leicester", "postcode": "LE7 9AG", "lat": 52.614393, "lng": -0.937299, "districtCode": "E07000131"}, {"id": "school-120119", "type": "school", "name": "St Hardulph's Church of England Primary School", "address": "Main Street, Derby", "postcode": "DE73 8AN", "lat": 52.802445, "lng": -1.398111, "districtCode": "E07000134"}, {"id": "school-120120", "type": "school", "name": "Orchard Church of England Primary School, Broughton Astley", "address": "Blenheim Crescent, Broughton Astley", "postcode": "LE9 6QX", "lat": 52.533251, "lng": -1.23211, "districtCode": "E07000131"}, {"id": "school-120121", "type": "school", "name": "Burbage Church of England Infant School", "address": "Grove Road, Hinckley", "postcode": "LE10 2AE", "lat": 52.527806, "lng": -1.349715, "districtCode": "E07000132"}, {"id": "school-120122", "type": "school", "name": "St Edward's Church of England Primary School", "address": "Dovecote, Derby", "postcode": "DE74 2LH", "lat": 52.840208, "lng": -1.336134, "districtCode": "E07000134"}, {"id": "school-120123", "type": "school", "name": "All Saints Church of England Primary School, Coalville", "address": "Ashby Road, Coalville", "postcode": "LE67 3LB", "lat": 52.727213, "lng": -1.381154, "districtCode": "E07000134"}, {"id": "school-120124", "type": "school", "name": "Cossington Church of England Primary School", "address": "Main Street, LEICESTER", "postcode": "LE7 4UU", "lat": 52.716098, "lng": -1.103572, "districtCode": "E07000130"}, {"id": "school-120127", "type": "school", "name": "Diseworth Church of England Primary School", "address": "Grimesgate, Derby", "postcode": "DE74 2QD", "lat": 52.817496, "lng": -1.327829, "districtCode": "E07000134"}, {"id": "school-120129", "type": "school", "name": "Fleckney Church of England Primary School", "address": "Batchelor Road, Leicester", "postcode": "LE8 8BE", "lat": 52.538167, "lng": -1.048527, "districtCode": "E07000131"}, {"id": "school-120131", "type": "school", "name": "Great Glen St Cuthbert's Church of England Primary School", "address": "The Chase, Leicester", "postcode": "LE8 9EQ", "lat": 52.57803, "lng": -1.024876, "districtCode": "E07000131"}, {"id": "school-120132", "type": "school", "name": "Harby Church of England Primary School", "address": "School Lane, Melton Mowbray", "postcode": "LE14 4BZ", "lat": 52.872545, "lng": -0.891356, "districtCode": "E07000133"}, {"id": "school-120134", "type": "school", "name": "St Mary's Church of England Primary School, Hinckley", "address": "Station Road, Hinckley", "postcode": "LE10 1AW", "lat": 52.540175, "lng": -1.370841, "districtCode": "E07000132"}, {"id": "school-120135", "type": "school", "name": "Hose Church of England Primary School", "address": "Bolton Lane, Melton Mowbray", "postcode": "LE14 4JE", "lat": 52.855189, "lng": -0.906429, "districtCode": "E07000133"}, {"id": "school-120138", "type": "school", "name": "St Denys Church of England Infant School, Ibstock", "address": "Laud Close, Ibstock", "postcode": "LE67 6NL", "lat": 52.688285, "lng": -1.400703, "districtCode": "E07000134"}, {"id": "school-120141", "type": "school", "name": "Long Clawson Church of England Primary School", "address": "School Lane, Melton Mowbray", "postcode": "LE14 4PB", "lat": 52.837997, "lng": -0.924009, "districtCode": "E07000133"}, {"id": "school-120142", "type": "school", "name": "Long Whatton Church of England Primary School and Community Centre", "address": "The Green, Loughborough", "postcode": "LE12 5DB", "lat": 52.804522, "lng": -1.284768, "districtCode": "E07000134"}, {"id": "school-120149", "type": "school", "name": "Newbold Church of England Primary School", "address": "School Lane, Coalville", "postcode": "LE67 8PF", "lat": 52.764678, "lng": -1.405791, "districtCode": "E07000134"}, {"id": "school-120151", "type": "school", "name": "Packington Church of England Primary School", "address": "Mill Street, Ashby-de-la-Zouch", "postcode": "LE65 1WL", "lat": 52.72669, "lng": -1.46784, "districtCode": "E07000134"}, {"id": "school-120153", "type": "school", "name": "St Bartholomew's Church of England Primary School", "address": "Willowcroft, Loughborough", "postcode": "LE12 8HQ", "lat": 52.742439, "lng": -1.178987, "districtCode": "E07000130"}, {"id": "school-120159", "type": "school", "name": "St Botolph's Church of England Primary School", "address": "Forest Street, Loughborough", "postcode": "LE12 9DA", "lat": 52.773433, "lng": -1.283395, "districtCode": "E07000130"}, {"id": "school-120163", "type": "school", "name": "Swithland St Leonard's Church of England Primary School", "address": "Main Street, Loughborough", "postcode": "LE12 8TQ", "lat": 52.711535, "lng": -1.182513, "districtCode": "E07000130"}, {"id": "school-120171", "type": "school", "name": "Whitwick St John The Baptist Church of England Primary School", "address": "Parsonwood Hill, Coalville", "postcode": "LE67 5AT", "lat": 52.745088, "lng": -1.356041, "districtCode": "E07000134"}, {"id": "school-120174", "type": "school", "name": "Wymeswold Church of England Primary School", "address": "Brook Street, Loughborough", "postcode": "LE12 6TU", "lat": 52.803019, "lng": -1.104367, "districtCode": "E07000130"}, {"id": "school-120175", "type": "school", "name": "Hathern Church of England Primary School", "address": "Pasture Lane, Loughborough", "postcode": "LE12 5LJ", "lat": 52.795924, "lng": -1.253568, "districtCode": "E07000130"}, {"id": "school-120176", "type": "school", "name": "Hallaton Church of England Primary School", "address": "Churchgate, Market Harborough", "postcode": "LE16 8TY", "lat": 52.561099, "lng": -0.840239, "districtCode": "E07000131"}, {"id": "school-120187", "type": "school", "name": "St Barnabas CofE Primary School", "address": "St Barnabas Road, Leicester", "postcode": "LE5 4BD", "lat": 52.640595, "lng": -1.095701, "districtCode": "E06000016"}, {"id": "school-120190", "type": "school", "name": "Ashby-de-la-Zouch Church of England Primary School", "address": "Burton Road, Ashby-de-la-Zouch", "postcode": "LE65 2LL", "lat": 52.747726, "lng": -1.475362, "districtCode": "E07000134"}, {"id": "school-120192", "type": "school", "name": "Sir John Moore Church of England Primary School", "address": "101 Top Street, Swadlincote", "postcode": "DE12 7AH", "lat": 52.681853, "lng": -1.531851, "districtCode": "E07000134"}, {"id": "school-120195", "type": "school", "name": "Kilby St Mary's Church of England Primary School", "address": "Main Street, Wigston", "postcode": "LE18 3TD", "lat": 52.552624, "lng": -1.084884, "districtCode": "E07000129"}, {"id": "school-120201", "type": "school", "name": "Thurlaston Church of England Primary School", "address": "Desford Road, Leicester", "postcode": "LE9 7TE", "lat": 52.587469, "lng": -1.259166, "districtCode": "E07000129"}, {"id": "school-120229", "type": "school", "name": "St Mary and St John CofE VA Primary School", "address": "Church Street, Oakham, Rutland", "postcode": "LE15 8JR", "lat": 52.619636, "lng": -0.619982, "districtCode": "E06000017"}, {"id": "school-120230", "type": "school", "name": "St John the Baptist CofE Primary School", "address": "East Avenue, Leicester", "postcode": "LE2 1TE", "lat": 52.618501, "lng": -1.111964, "districtCode": "E06000016"}, {"id": "school-120277", "type": "school", "name": "Crown Hills Community College", "address": "Gwendolen Road, Leicester", "postcode": "LE5 5FT", "lat": 52.628059, "lng": -1.08838, "districtCode": "E06000016"}, {"id": "school-120281", "type": "school", "name": "Beaumont Leys School", "address": "Anstey Lane, Leicester", "postcode": "LE4 0FL", "lat": 52.654874, "lng": -1.159338, "districtCode": "E06000016"}, {"id": "school-120292", "type": "school", "name": "Moat Community College", "address": "Maidstone Road, Leicester", "postcode": "LE2 0TU", "lat": 52.632799, "lng": -1.118324, "districtCode": "E06000016"}, {"id": "school-120298", "type": "school", "name": "Fullhurst Community College", "address": "Imperial Avenue, Leicester", "postcode": "LE3 1AH", "lat": 52.622773, "lng": -1.158978, "districtCode": "E06000016"}, {"id": "school-120316", "type": "school", "name": "Ratcliffe College", "address": "Fosse Way", "postcode": "LE7 4SG", "lat": 52.729255, "lng": -1.074763, "districtCode": "E07000130"}, {"id": "school-120320", "type": "school", "name": "Uppingham School", "address": "Uppingham", "postcode": "LE15 9QE", "lat": 52.587672, "lng": -0.723486, "districtCode": "E06000017"}, {"id": "school-120322", "type": "school", "name": "Oakham School", "address": "Chapel Close, Oakham", "postcode": "LE15 6DT", "lat": 52.670114, "lng": -0.726868, "districtCode": "E06000017"}, {"id": "school-120324", "type": "school", "name": "Leicester High School for Girls", "address": "454 London Road", "postcode": "LE2 2PP", "lat": 52.609065, "lng": -1.095982, "districtCode": "E07000135"}, {"id": "school-120325", "type": "school", "name": "LGS Stoneygate", "address": "6 London Road, Leicester", "postcode": "LE8 9DJ", "lat": 52.564802, "lng": -1.021347, "districtCode": "E07000131"}, {"id": "school-120326", "type": "school", "name": "St Crispin's School", "address": "4 - 6 St Mary's Road, Leicester", "postcode": "LE2 1XA", "lat": 52.620476, "lng": -1.114007, "districtCode": "E06000016"}, {"id": "school-120329", "type": "school", "name": "Leicester Preparatory School", "address": "2 Albert Road, Leicester", "postcode": "LE2 2AA", "lat": 52.618094, "lng": -1.106802, "districtCode": "E06000016"}, {"id": "school-120330", "type": "school", "name": "The Grange Therapeutic School", "address": "15 - 17 Somerby Road, Oakham", "postcode": "LE15 8LY", "lat": 52.669901, "lng": -0.817407, "districtCode": "E07000133"}, {"id": "school-120332", "type": "school", "name": "Loughborough Grammar School", "address": "Burton Walks, Loughborough", "postcode": "LE11 2DU", "lat": 52.764799, "lng": -1.200043, "districtCode": "E07000130"}, {"id": "school-120333", "type": "school", "name": "Loughborough High School", "address": "Burton Walks", "postcode": "LE11 2DU", "lat": 52.765018, "lng": -1.201774, "districtCode": "E07000130"}, {"id": "school-120334", "type": "school", "name": "Leicester Grammar School Trust", "address": "London Road, Leicester", "postcode": "LE8 9FL", "lat": 52.575501, "lng": -1.039941, "districtCode": "E07000131"}, {"id": "school-120335", "type": "school", "name": "Leicester Islamic Academy", "address": "320 London Road, Leicester", "postcode": "LE2 2PJ", "lat": 52.616956, "lng": -1.106219, "districtCode": "E06000016"}, {"id": "school-120340", "type": "school", "name": "Brooke Priory School", "address": "Station Approach, Oakham", "postcode": "LE15 6QW", "lat": 52.672938, "lng": -0.73112, "districtCode": "E06000017"}, {"id": "school-120341", "type": "school", "name": "Brooke House College", "address": "12 Leicester Road, Market Harborough", "postcode": "LE16 7AU", "lat": 52.480964, "lng": -0.922698, "districtCode": "E07000131"}, {"id": "school-120344", "type": "school", "name": "Fairfield Prep School", "address": "Leicester Road", "postcode": "LE11 2AE", "lat": 52.766768, "lng": -1.199933, "districtCode": "E07000130"}, {"id": "school-120345", "type": "school", "name": "Darul Uloom Leicester", "address": "119 Loughborough Road, Leicester", "postcode": "LE4 5LN", "lat": 52.654942, "lng": -1.120392, "districtCode": "E06000016"}, {"id": "school-120348", "type": "school", "name": "Maplewell Hall School", "address": "Maplewell Road, Loughborough", "postcode": "LE12 8QY", "lat": 52.713507, "lng": -1.225854, "districtCode": "E07000130"}, {"id": "school-120352", "type": "school", "name": "Ashmount School", "address": "Thorpe Hill, Loughborough", "postcode": "LE11 4SQ", "lat": 52.760332, "lng": -1.241268, "districtCode": "E07000130"}, {"id": "school-120363", "type": "school", "name": "The Children's Hospital School", "address": "University Hospitals of Leicester NHS Trust, Leicester", "postcode": "LE1 5WW", "lat": 52.627452, "lng": -1.133267, "districtCode": "E06000016"}, {"id": "school-120364", "type": "school", "name": "Wyndham Park Nursery School", "address": "Hill Avenue, Grantham", "postcode": "NG31 9BB", "lat": 52.917483, "lng": -0.634256, "districtCode": "E07000141"}, {"id": "school-120365", "type": "school", "name": "The Lincoln St Giles Nursery School", "address": "Addison Drive, Lincoln", "postcode": "LN2 4LQ", "lat": 53.24329, "lng": -0.515991, "districtCode": "E07000138"}, {"id": "school-120374", "type": "school", "name": "Corby Glen Community Primary School", "address": "Station Road, Grantham", "postcode": "NG33 4NW", "lat": 52.812703, "lng": -0.518992, "districtCode": "E07000141"}, {"id": "school-120375", "type": "school", "name": "Digby the Tedder Primary School", "address": "Trenchard Road, Lincoln", "postcode": "LN4 3JY", "lat": 53.094763, "lng": -0.432654, "districtCode": "E07000139"}, {"id": "school-120376", "type": "school", "name": "Eagle Community Primary School", "address": "Scarle Lane, Lincoln", "postcode": "LN6 9EJ", "lat": 53.192937, "lng": -0.687943, "districtCode": "E07000139"}, {"id": "school-120382", "type": "school", "name": "The Metheringham Primary School", "address": "Princes Street, Lincoln", "postcode": "LN4 3BX", "lat": 53.137819, "lng": -0.404114, "districtCode": "E07000139"}, {"id": "school-120383", "type": "school", "name": "Nocton Community Primary School", "address": "The Green, Lincoln", "postcode": "LN4 2BJ", "lat": 53.163827, "lng": -0.415956, "districtCode": "E07000139"}, {"id": "school-120385", "type": "school", "name": "North Scarle Primary School", "address": "School Lane, Lincoln", "postcode": "LN6 9EY", "lat": 53.192593, "lng": -0.731711, "districtCode": "E07000139"}, {"id": "school-120387", "type": "school", "name": "Church Lane Primary School & Nursery", "address": "Church Lane, Sleaford", "postcode": "NG34 7DF", "lat": 53.000986, "lng": -0.408242, "districtCode": "E07000139"}, {"id": "school-120388", "type": "school", "name": "The South Hykeham Community Primary School", "address": "Wath Lane, Lincoln", "postcode": "LN6 9PG", "lat": 53.168927, "lng": -0.599084, "districtCode": "E07000139"}, {"id": "school-120391", "type": "school", "name": "Walcott Primary School", "address": "Pinfold Lane, Lincoln", "postcode": "LN4 3SX", "lat": 53.093415, "lng": -0.313616, "districtCode": "E07000139"}, {"id": "school-120392", "type": "school", "name": "Belton Lane Community Primary School", "address": "Green Lane, Grantham", "postcode": "NG31 9PP", "lat": 52.924674, "lng": -0.623928, "districtCode": "E07000141"}, {"id": "school-120393", "type": "school", "name": "Cliffedale Primary School", "address": "Northcliffe Road, Grantham", "postcode": "NG31 8DP", "lat": 52.923329, "lng": -0.641422, "districtCode": "E07000141"}, {"id": "school-120400", "type": "school", "name": "Skellingthorpe the Holt Primary School", "address": "Swallow Avenue, Lincoln", "postcode": "LN6 5XJ", "lat": 53.231432, "lng": -0.61934, "districtCode": "E07000139"}, {"id": "school-120401", "type": "school", "name": "Belmont Community Primary School", "address": "Harrowby Lane, Grantham", "postcode": "NG31 9LR", "lat": 52.918998, "lng": -0.609024, "districtCode": "E07000141"}, {"id": "school-120427", "type": "school", "name": "Sir Francis Hill Community Primary School", "address": "Bristol Drive, Lincoln", "postcode": "LN6 7UE", "lat": 53.217023, "lng": -0.557297, "districtCode": "E07000138"}, {"id": "school-120429", "type": "school", "name": "Lincoln Monks Abbey Primary School", "address": "Monks Road, Lincoln", "postcode": "LN2 5PF", "lat": 53.230707, "lng": -0.521401, "districtCode": "E07000138"}, {"id": "school-120436", "type": "school", "name": "Woodlands Infant and Nursery School", "address": "Whitethorn Grove, Lincoln", "postcode": "LN6 0PF", "lat": 53.220509, "lng": -0.60158, "districtCode": "E07000138"}, {"id": "school-120440", "type": "school", "name": "Alford Primary School", "address": "Hanby Lane, Alford", "postcode": "LN13 9BJ", "lat": 53.256933, "lng": 0.184278, "districtCode": "E07000137"}, {"id": "school-120443", "type": "school", "name": "Bucknall Primary School", "address": "Bucknall Primary School, Main Street, Bardney", "postcode": "LN10 5DT", "lat": 53.202694, "lng": -0.244055, "districtCode": "E07000137"}, {"id": "school-120444", "type": "school", "name": "The Donington-on-Bain School", "address": "Main Road, Louth", "postcode": "LN11 9TJ", "lat": 53.328358, "lng": -0.145212, "districtCode": "E07000137"}, {"id": "school-120445", "type": "school", "name": "Faldingworth Community Primary School", "address": "High Street, Market Rasen", "postcode": "LN8 3SF", "lat": 53.3484, "lng": -0.397882, "districtCode": "E07000142"}, {"id": "school-120450", "type": "school", "name": "Grainthorpe Junior School", "address": "Fen Lane, Louth", "postcode": "LN11 7JY", "lat": 53.444901, "lng": 0.081652, "districtCode": "E07000137"}, {"id": "school-120453", "type": "school", "name": "Holton Le Clay Infant School", "address": "Church Lane, Nr Grimsby", "postcode": "DN36 5AQ", "lat": 53.506062, "lng": -0.055719, "districtCode": "E07000137"}, {"id": "school-120454", "type": "school", "name": "Ingham Primary School", "address": "The Green, Lincoln", "postcode": "LN1 2XT", "lat": 53.338843, "lng": -0.57886, "districtCode": "E07000142"}, {"id": "school-120457", "type": "school", "name": "Legsby Primary School", "address": "Legsby, Market Rasen", "postcode": "LN8 3QW", "lat": 53.353817, "lng": -0.293765, "districtCode": "E07000142"}, {"id": "school-120461", "type": "school", "name": "Marshchapel Infant School", "address": "Sea Dyke Way, Grimsby", "postcode": "DN36 5SX", "lat": 53.472014, "lng": 0.049162, "districtCode": "E07000137"}, {"id": "school-120463", "type": "school", "name": "The Middle Rasen Primary School", "address": "North Street, Market Rasen", "postcode": "LN8 3TS", "lat": 53.391271, "lng": -0.363634, "districtCode": "E07000142"}, {"id": "school-120464", "type": "school", "name": "Morton Trentside Primary School", "address": "Crooked Billet Street, GAINSBOROUGH", "postcode": "DN21 3AH", "lat": 53.416269, "lng": -0.784882, "districtCode": "E07000142"}, {"id": "school-120465", "type": "school", "name": "Nettleton Community Primary School", "address": "Moortown Road, Market Rasen", "postcode": "LN7 6AA", "lat": 53.485589, "lng": -0.330989, "districtCode": "E07000142"}, {"id": "school-120468", "type": "school", "name": "Normanby Primary School", "address": "Main Street, Market Rasen", "postcode": "LN8 2HE", "lat": 53.379065, "lng": -0.495095, "districtCode": "E07000142"}, {"id": "school-120469", "type": "school", "name": "Kelsey Primary School", "address": "Chapel Street, Market Rasen", "postcode": "LN7 6EJ", "lat": 53.50156, "lng": -0.428045, "districtCode": "E07000142"}, {"id": "school-120471", "type": "school", "name": "Osgodby Primary School", "address": "Main Street, Market Rasen", "postcode": "LN8 3TA", "lat": 53.41907, "lng": -0.382117, "districtCode": "E07000142"}, {"id": "school-120473", "type": "school", "name": "Scotter Primary School", "address": "High Street, Gainsborough", "postcode": "DN21 3RY", "lat": 53.494267, "lng": -0.662768, "districtCode": "E07000142"}, {"id": "school-120478", "type": "school", "name": "Sturton by Stow Primary School", "address": "School Lane, Lincoln", "postcode": "LN1 2BY", "lat": 53.318322, "lng": -0.664011, "districtCode": "E07000142"}, {"id": "school-120479", "type": "school", "name": "Sutton-on-Sea Community Primary School", "address": "Station Road, Mablethorpe", "postcode": "LN12 2HU", "lat": 53.307441, "lng": 0.281675, "districtCode": "E07000137"}, {"id": "school-120480", "type": "school", "name": "Tealby School", "address": "Front Street, Market Rasen", "postcode": "LN8 3XU", "lat": 53.400919, "lng": -0.259462, "districtCode": "E07000142"}, {"id": "school-120481", "type": "school", "name": "The Edward Richardson Primary School, Tetford", "address": "East Road, Horncastle", "postcode": "LN9 6QQ", "lat": 53.252984, "lng": -0.001609, "districtCode": "E07000137"}, {"id": "school-120482", "type": "school", "name": "Tetney Primary School", "address": "Humberston Road, Grimsby", "postcode": "DN36 5NG", "lat": 53.493378, "lng": -0.019149, "districtCode": "E07000137"}, {"id": "school-120485", "type": "school", "name": "Waddingham Primary School", "address": "The Green, Gainsborough", "postcode": "DN21 4SX", "lat": 53.45256, "lng": -0.517214, "districtCode": "E07000142"}, {"id": "school-120487", "type": "school", "name": "Willoughton Primary School", "address": "Northfield Lane, Gainsborough", "postcode": "DN21 5RT", "lat": 53.428567, "lng": -0.600856, "districtCode": "E07000142"}, {"id": "school-120488", "type": "school", "name": "Wragby Primary School", "address": "Silver Street, Market Rasen", "postcode": "LN8 5PJ", "lat": 53.287685, "lng": -0.296642, "districtCode": "E07000137"}, {"id": "school-120491", "type": "school", "name": "Hemswell Cliff Primary School", "address": "Capper Avenue, Gainsborough", "postcode": "DN21 5XS", "lat": 53.398154, "lng": -0.56837, "districtCode": "E07000142"}, {"id": "school-120492", "type": "school", "name": "The Gainsborough Charles Baines Community Primary School", "address": "Baines Road, Gainsborough", "postcode": "DN21 1TE", "lat": 53.3991, "lng": -0.755482, "districtCode": "E07000142"}, {"id": "school-120493", "type": "school", "name": "Tattershall Primary School", "address": "Clinton Park, Lincoln", "postcode": "LN4 4QZ", "lat": 53.108831, "lng": -0.184992, "districtCode": "E07000137"}, {"id": "school-120496", "type": "school", "name": "Winchelsea Primary School Ruskington", "address": "4a Sleaford Road, Sleaford", "postcode": "NG34 9BY", "lat": 53.043039, "lng": -0.388313, "districtCode": "E07000139"}, {"id": "school-120497", "type": "school", "name": "Holton-le-Clay Junior School", "address": "Picksley Crescent, Grimsby", "postcode": "DN36 5DR", "lat": 53.503715, "lng": -0.054575, "districtCode": "E07000137"}, {"id": "school-120506", "type": "school", "name": "Bythams Primary School", "address": "Creeton Road, Grantham", "postcode": "NG33 4PX", "lat": 52.759109, "lng": -0.497838, "districtCode": "E07000141"}, {"id": "school-120508", "type": "school", "name": "Lincoln Birchwood Junior School", "address": "Larchwood Crescent, Lincoln", "postcode": "LN6 0NL", "lat": 53.21622, "lng": -0.602319, "districtCode": "E07000138"}, {"id": "school-120509", "type": "school", "name": "Leslie Manser Primary School", "address": "Kingsdown Road, Lincoln", "postcode": "LN6 0FB", "lat": 53.211496, "lng": -0.606622, "districtCode": "E07000138"}, {"id": "school-120511", "type": "school", "name": "Allington with Sedgebrook Church of England Primary School", "address": "Marston Lane, Grantham", "postcode": "NG32 2DY", "lat": 52.953301, "lng": -0.719668, "districtCode": "E07000141"}, {"id": "school-120512", "type": "school", "name": "Ancaster CofE Primary School", "address": "Mercia Drive, Grantham", "postcode": "NG32 3QQ", "lat": 52.983836, "lng": -0.532348, "districtCode": "E07000141"}, {"id": "school-120513", "type": "school", "name": "Barrowby Church of England Primary School", "address": "Church Street, Grantham", "postcode": "NG32 1BX", "lat": 52.918568, "lng": -0.69234, "districtCode": "E07000141"}, {"id": "school-120515", "type": "school", "name": "The Billinghay Church of England Primary School", "address": "Fen Road, Lincoln", "postcode": "LN4 4HU", "lat": 53.082706, "lng": -0.280317, "districtCode": "E07000139"}, {"id": "school-120518", "type": "school", "name": "Denton CofE School", "address": "Church Street, Grantham", "postcode": "NG32 1LG", "lat": 52.882956, "lng": -0.712199, "districtCode": "E07000141"}, {"id": "school-120519", "type": "school", "name": "Digby Church of England School", "address": "Church Street, Lincoln", "postcode": "LN4 3LZ", "lat": 53.079918, "lng": -0.386816, "districtCode": "E07000139"}, {"id": "school-120520", "type": "school", "name": "Dunston St Peter's Church of England Primary School", "address": "Back Lane, Lincoln", "postcode": "LN4 2EH", "lat": 53.154763, "lng": -0.40917, "districtCode": "E07000139"}, {"id": "school-120522", "type": "school", "name": "St Anne's Church of England Primary School, Grantham", "address": "Harrowby Road, Grantham", "postcode": "NG31 9ED", "lat": 52.906892, "lng": -0.629623, "districtCode": "E07000141"},