[
  {
    "id": "school-100279",
    "type": "school",
    "name": "Stoke Newington School and Sixth Form",
    "address": "Clissold Road, London",
    "postcode": "N16 9EX",
    "lat": 51.557382,
    "lng": -0.082996
  },
  {
    "id": "school-102157",
    "type": "school",
    "name": "Gladesmore Community School",
    "address": "Crowland Road, London",
    "postcode": "N15 6EB",
    "lat": 51.579562,
    "lng": -0.064466
  },
  {
    "id": "school-108410",
    "type": "school",
    "name": "Kingsmeadow Community School",
    "address": "Market Lane, Gateshead",
    "postcode": "NE11 9NX",
    "lat": 54.950111,
    "lng": -1.651882
  },
  {
    "id": "school-108519",
    "type": "school",
    "name": "Gosforth Central Middle School",
    "address": "Great North Road, Newcastle-upon-Tyne",
    "postcode": "NE3 1UN",
    "lat": 55.010299,
    "lng": -1.616003
  },
  {
    "id": "school-108521",
    "type": "school",
    "name": "Gosforth East Middle School",
    "address": "Harewood Road, Newcastle-upon-Tyne",
    "postcode": "NE3 5JT",
    "lat": 55.015661,
    "lng": -1.614857
  },
  {
    "id": "school-108627",
    "type": "school",
    "name": "Marden High School",
    "address": "Hartington Road, North Shields",
    "postcode": "NE30 3RZ",
    "lat": 55.027177,
    "lng": -1.439805
  },
  {
    "id": "school-108628",
    "type": "school",
    "name": "Norham High School",
    "address": "Alnwick Avenue, North Shields",
    "postcode": "NE29 7BU",
    "lat": 55.005856,
    "lng": -1.471297
  },
  {
    "id": "school-108635",
    "type": "school",
    "name": "Marden Bridge Middle School",
    "address": "Lovaine Avenue, Whitley Bay",
    "postcode": "NE25 8RW",
    "lat": 55.038712,
    "lng": -1.448642
  },
  {
    "id": "school-108636",
    "type": "school",
    "name": "Valley Gardens Middle School",
    "address": "Valley Gardens, Whitley Bay",
    "postcode": "NE25 9AQ",
    "lat": 55.046878,
    "lng": -1.468049
  },
  {
    "id": "school-108637",
    "type": "school",
    "name": "Monkseaton Middle School",
    "address": "Vernon Drive, Whitley Bay",
    "postcode": "NE25 8JW",
    "lat": 55.038715,
    "lng": -1.461318
  },
  {
    "id": "school-108638",
    "type": "school",
    "name": "Whitley Bay High School",
    "address": "Deneholm, Whitley Bay",
    "postcode": "NE25 9AS",
    "lat": 55.048048,
    "lng": -1.464323
  },
  {
    "id": "school-108639",
    "type": "school",
    "name": "George Stephenson High School",
    "address": "Southgate, Newcastle-upon-Tyne",
    "postcode": "NE12 6SA",
    "lat": 55.03311,
    "lng": -1.565573
  },
  {
    "id": "school-108640",
    "type": "school",
    "name": "Burnside College",
    "address": "St Peter's Road, Wallsend",
    "postcode": "NE28 7LQ",
    "lat": 54.994709,
    "lng": -1.518403
  },
  {
    "id": "school-108642",
    "type": "school",
    "name": "Monkseaton High School",
    "address": "Seatonville Road, Whitley Bay",
    "postcode": "NE25 9EQ",
    "lat": 55.031351,
    "lng": -1.46259
  },
  {
    "id": "school-108645",
    "type": "school",
    "name": "Longbenton High School",
    "address": "Hailsham Avenue, Newcastle-upon-Tyne",
    "postcode": "NE12 8ER",
    "lat": 55.018476,
    "lng": -1.572566
  },
  {
    "id": "school-108649",
    "type": "school",
    "name": "Wellfield Middle School",
    "address": "Kielder Road, Whitley Bay",
    "postcode": "NE25 9QW",
    "lat": 55.041423,
    "lng": -1.489187
  },
  {
    "id": "school-108727",
    "type": "school",
    "name": "Mortimer Community College",
    "address": "Reading Road, South Shields",
    "postcode": "NE33 4UG",
    "lat": 54.981127,
    "lng": -1.424662
  },
  {
    "id": "school-108730",
    "type": "school",
    "name": "Boldon School",
    "address": "New Road, Boldon Colliery",
    "postcode": "NE35 9DZ",
    "lat": 54.950341,
    "lng": -1.445012
  },
  {
    "id": "school-108731",
    "type": "school",
    "name": "Hebburn Comprehensive School",
    "address": "Campbell Park Road, Hebburn",
    "postcode": "NE31 2QU",
    "lat": 54.96743,
    "lng": -1.510872
  },
  {
    "id": "school-111731",
    "type": "school",
    "name": "Northfield School and Sports College",
    "address": "Thames Road, Billingham",
    "postcode": "TS22 5EG",
    "lat": 54.617043,
    "lng": -1.308978
  },
  {
    "id": "school-111748",
    "type": "school",
    "name": "High Tunstall College of Science",
    "address": "Elwick Road, Hartlepool",
    "postcode": "TS26 0LQ",
    "lat": 54.687898,
    "lng": -1.246229
  },
  {
    "id": "school-114308",
    "type": "school",
    "name": "Belmont Community School",
    "address": "The Links, Durham",
    "postcode": "DH1 2AG",
    "lat": 54.783972,
    "lng": -1.525451
  },
  {
    "id": "school-114312",
    "type": "school",
    "name": "Durham Johnston Comprehensive School",
    "address": "Crossgate Moor, Durham",
    "postcode": "DH1 4SU",
    "lat": 54.779379,
    "lng": -1.594823
  },
  {
    "id": "school-121663",
    "type": "school",
    "name": "Risedale School",
    "address": "Hipswell, Catterick Garrison",
    "postcode": "DL9 4BD",
    "lat": 54.378129,
    "lng": -1.7134
  },
  {
    "id": "school-121670",
    "type": "school",
    "name": "Bedale High School",
    "address": "Fitzalan Road, Bedale",
    "postcode": "DL8 2EQ",
    "lat": 54.283835,
    "lng": -1.589393
  },
  {
    "id": "school-121679",
    "type": "school",
    "name": "Wensleydale School",
    "address": "Richmond Road, Leyburn",
    "postcode": "DL8 5HY",
    "lat": 54.313129,
    "lng": -1.822414
  },
  {
    "id": "school-122326",
    "type": "school",
    "name": "Corbridge Middle School",
    "address": "Cow Lane, Corbridge",
    "postcode": "NE45 5HX",
    "lat": 54.979547,
    "lng": -2.020705
  },
  {
    "id": "school-122328",
    "type": "school",
    "name": "Haydon Bridge High School",
    "address": "Haydon Bridge, Hexham",
    "postcode": "NE47 6LR",
    "lat": 54.975335,
    "lng": -2.251291
  },
  {
    "id": "school-122334",
    "type": "school",
    "name": "Seaton Sluice Middle School",
    "address": "Alston Grove, Whitley Bay",
    "postcode": "NE26 4JS",
    "lat": 55.089197,
    "lng": -1.486369
  },
  {
    "id": "school-122335",
    "type": "school",
    "name": "Whytrig Middle School",
    "address": "Prospect Avenue, Whitley Bay",
    "postcode": "NE25 0FW",
    "lat": 55.074483,
    "lng": -1.521267
  },
  {
    "id": "school-122350",
    "type": "school",
    "name": "Bellingham Middle School and Sports College",
    "address": "Redesmouth Road, Hexham",
    "postcode": "NE48 2EN",
    "lat": 55.142112,
    "lng": -2.245309
  },
  {
    "id": "school-122363",
    "type": "school",
    "name": "James Calvert Spence College",
    "address": "Acklington Road, Morpeth",
    "postcode": "NE65 0NG",
    "lat": 55.327323,
    "lng": -1.59283
  },
  {
    "id": "school-122374",
    "type": "school",
    "name": "Seaton Valley High School",
    "address": "Prospect Avenue, Seaton Delaval",
    "postcode": "NE25 0FW",
    "lat": 55.074137,
    "lng": -1.522509
  },
  {
    "id": "school-130908",
    "type": "school",
    "name": "Macmillan Academy",
    "address": "Stockton Road, Middlesbrough",
    "postcode": "TS5 4AG",
    "lat": 54.565984,
    "lng": -1.262278
  },
  {
    "id": "school-133725",
    "type": "school",
    "name": "Jarrow School",
    "address": "Field Terrace, Jarrow",
    "postcode": "NE32 5PR",
    "lat": 54.972248,
    "lng": -1.487206
  },
  {
    "id": "school-133768",
    "type": "school",
    "name": "Lift Unity City",
    "address": "Ormesby Road, Middlesbrough",
    "postcode": "TS3 8RE",
    "lat": 54.556215,
    "lng": -1.196081
  },
  {
    "id": "school-134223",
    "type": "school",
    "name": "The King's Academy",
    "address": "Stainton Way, Middlesbrough",
    "postcode": "TS8 0GA",
    "lat": 54.523961,
    "lng": -1.220186
  },
  {
    "id": "school-135314",
    "type": "school",
    "name": "St Aidan's Church of England Academy",
    "address": "Hundens Lane, Darlington",
    "postcode": "DL1 1LL",
    "lat": 54.525674,
    "lng": -1.53097
  },
  {
    "id": "school-135423",
    "type": "school",
    "name": "Excelsior Academy",
    "address": "Denton Road, Newcastle-upon-Tyne",
    "postcode": "NE15 6AF",
    "lat": 54.974467,
    "lng": -1.688592
  },
  {
    "id": "school-135619",
    "type": "school",
    "name": "Bede Academy",
    "address": "Sixth Avenue, Blyth",
    "postcode": "NE24 2SY",
    "lat": 55.117946,
    "lng": -1.519352
  },
  {
    "id": "school-135818",
    "type": "school",
    "name": "Castle View Enterprise Academy",
    "address": "Cartwright Road, Sunderland",
    "postcode": "SR5 3DX",
    "lat": 54.918274,
    "lng": -1.445188
  },
  {
    "id": "school-135878",
    "type": "school",
    "name": "Red House Academy",
    "address": "Rutherglen Road, Sunderland",
    "postcode": "SR5 5LN",
    "lat": 54.929084,
    "lng": -1.419646
  },
  {
    "id": "school-135886",
    "type": "school",
    "name": "NCEA Duke's Secondary School",
    "address": "Academy Road, Ashington",
    "postcode": "NE63 9FZ",
    "lat": 55.176143,
    "lng": -1.544138
  },
  {
    "id": "school-136146",
    "type": "school",
    "name": "North Shore Academy",
    "address": "Talbot Street, Stockton-on-Tees",
    "postcode": "TS20 2AY",
    "lat": 54.575763,
    "lng": -1.306288
  },
  {
    "id": "school-136348",
    "type": "school",
    "name": "Gosforth Junior High Academy",
    "address": "Regent Avenue, Newcastle-upon-Tyne",
    "postcode": "NE3 1EE",
    "lat": 55.008506,
    "lng": -1.623088
  },
  {
    "id": "school-136352",
    "type": "school",
    "name": "Gosforth Academy",
    "address": "Knightsbridge, Newcastle-upon-Tyne",
    "postcode": "NE3 2JH",
    "lat": 55.012987,
    "lng": -1.622123
  },
  {
    "id": "school-136386",
    "type": "school",
    "name": "Whitburn Church of England Academy",
    "address": "Whitburn, Sunderland",
    "postcode": "SR6 7EF",
    "lat": 54.95268,
    "lng": -1.363088
  },
  {
    "id": "school-136451",
    "type": "school",
    "name": "The Academy at Shotton Hall",
    "address": "Passfield Way, Peterlee",
    "postcode": "SR8 1AU",
    "lat": 54.749507,
    "lng": -1.35138
  },
  {
    "id": "school-136525",
    "type": "school",
    "name": "Hurworth School",
    "address": "Croft Road, Darlington",
    "postcode": "DL2 2JG",
    "lat": 54.483777,
    "lng": -1.539353
  },
  {
    "id": "school-136745",
    "type": "school",
    "name": "North Durham Academy",
    "address": "High Street, Stanley",
    "postcode": "DH9 0TW",
    "lat": 54.871473,
    "lng": -1.689121
  },
  {
    "id": "school-136770",
    "type": "school",
    "name": "King James I Academy Bishop Auckland",
    "address": "South Church Road, Bishop Auckland",
    "postcode": "DL14 7JZ",
    "lat": 54.660444,
    "lng": -1.668565
  },
  {
    "id": "school-136838",
    "type": "school",
    "name": "Hummersknott Academy",
    "address": "Edinburgh Drive, Darlington",
    "postcode": "DL3 8AR",
    "lat": 54.521188,
    "lng": -1.592794
  },
  {
    "id": "school-136971",
    "type": "school",
    "name": "Park View School",
    "address": "Church Chare, Chester le Street",
    "postcode": "DH3 3QA",
    "lat": 54.855305,
    "lng": -1.568607
  },
  {
    "id": "school-137262",
    "type": "school",
    "name": "Kepier",
    "address": "Dairy Lane, Houghton le Spring",
    "postcode": "DH4 5BH",
    "lat": 54.839924,
    "lng": -1.472144
  },
  {
    "id": "school-137360",
    "type": "school",
    "name": "Whickham School",
    "address": "Burnthouse Lane, Newcastle-upon-Tyne",
    "postcode": "NE16 5AR",
    "lat": 54.940419,
    "lng": -1.683235
  },
  {
    "id": "school-137457",
    "type": "school",
    "name": "Cramlington Learning Village",
    "address": "Highburn, Cramlington",
    "postcode": "NE23 6BN",
    "lat": 55.076486,
    "lng": -1.589978
  },
  {
    "id": "school-137622",
    "type": "school",
    "name": "Carmel College",
    "address": "The Headlands, Darlington",
    "postcode": "DL3 8RW",
    "lat": 54.524549,
    "lng": -1.584602
  },
  {
    "id": "school-137638",
    "type": "school",
    "name": "Consett Academy",
    "address": "Ashdale Road, Consett",
    "postcode": "DH8 6LZ",
    "lat": 54.857827,
    "lng": -1.827102
  },
  {
    "id": "school-137696",
    "type": "school",
    "name": "Framwellgate School Durham",
    "address": "Newton Drive, Durham",
    "postcode": "DH1 5BQ",
    "lat": 54.797073,
    "lng": -1.583617
  },
  {
    "id": "school-137702",
    "type": "school",
    "name": "St John's Catholic School & Sixth Form College",
    "address": "Woodhouse Lane, Bishop Auckland",
    "postcode": "DL14 6JT",
    "lat": 54.650442,
    "lng": -1.689602
  },
  {
    "id": "school-137708",
    "type": "school",
    "name": "Sacred Heart Catholic High School",
    "address": "Fenham Hall Drive, Newcastle-upon-Tyne",
    "postcode": "NE4 9YH",
    "lat": 54.982265,
    "lng": -1.657246
  },
  {
    "id": "school-137734",
    "type": "school",
    "name": "St Thomas More Catholic High School",
    "address": "Lynn Road, North Shields",
    "postcode": "NE29 8LF",
    "lat": 55.017969,
    "lng": -1.475126
  },
  {
    "id": "school-137746",
    "type": "school",
    "name": "The King Edward VI School",
    "address": "Cottingwood Lane, Morpeth",
    "postcode": "NE61 1DN",
    "lat": 55.174754,
    "lng": -1.691492
  },
  {
    "id": "school-137747",
    "type": "school",
    "name": "Morpeth Chantry Middle School",
    "address": "Mitford Road, Morpeth",
    "postcode": "NE61 1RQ",
    "lat": 55.171445,
    "lng": -1.698065
  },
  {
    "id": "school-137748",
    "type": "school",
    "name": "Morpeth Newminster Middle School",
    "address": "Mitford Road, Morpeth",
    "postcode": "NE61 1RH",
    "lat": 55.170864,
    "lng": -1.699545
  },
  {
    "id": "school-137851",
    "type": "school",
    "name": "St Thomas More Catholic School, Blaydon",
    "address": "Croftdale Road, Blaydon-on-Tyne",
    "postcode": "NE21 4BQ",
    "lat": 54.961127,
    "lng": -1.720652
  },
  {
    "id": "school-137852",
    "type": "school",
    "name": "Cardinal Hume Catholic School, Gateshead",
    "address": "Old Durham Road, Gateshead",
    "postcode": "NE9 6RZ",
    "lat": 54.935,
    "lng": -1.572079
  },
  {
    "id": "school-137900",
    "type": "school",
    "name": "St Cuthbert's High School",
    "address": "Gretna Road, Newcastle-upon-Tyne",
    "postcode": "NE15 7PX",
    "lat": 54.978868,
    "lng": -1.673791
  },
  {
    "id": "school-137903",
    "type": "school",
    "name": "Parkside Academy",
    "address": "Hall Lane Estate, Crook",
    "postcode": "DL15 0QF",
    "lat": 54.70663,
    "lng": -1.688366
  },
  {
    "id": "school-137942",
    "type": "school",
    "name": "Lord Lawson of Beamish Academy",
    "address": "Birtley Lane, Chester le Street",
    "postcode": "DH3 2LP",
    "lat": 54.892775,
    "lng": -1.568862
  },
  {
    "id": "school-138054",
    "type": "school",
    "name": "St Anthony's Girls' Catholic Academy",
    "address": "Thornhill Terrace, Sunderland",
    "postcode": "SR2 7JN",
    "lat": 54.900401,
    "lng": -1.389647
  },
  {
    "id": "school-138069",
    "type": "school",
    "name": "Tapton School & Sixth Form",
    "address": "Darwin Lane, Sheffield",
    "postcode": "S10 5RG",
    "lat": 53.374978,
    "lng": -1.519113
  },
  {
    "id": "school-138075",
    "type": "school",
    "name": "Easington Academy",
    "address": "Stockton Road, Peterlee",
    "postcode": "SR8 3AY",
    "lat": 54.781427,
    "lng": -1.352347
  },
  {
    "id": "school-138089",
    "type": "school",
    "name": "Haughton Academy",
    "address": "Salters Lane South, Darlington",
    "postcode": "DL1 2AN",
    "lat": 54.540503,
    "lng": -1.526209
  },
  {
    "id": "school-138103",
    "type": "school",
    "name": "Southmoor Academy",
    "address": "Ryhope Road, Sunderland",
    "postcode": "SR2 7TF",
    "lat": 54.890492,
    "lng": -1.374579
  },
  {
    "id": "school-138120",
    "type": "school",
    "name": "Kenton School",
    "address": "Drayton Road, Newcastle-upon-Tyne",
    "postcode": "NE3 3RU",
    "lat": 55.004241,
    "lng": -1.654822
  },
  {
    "id": "school-138172",
    "type": "school",
    "name": "St Bede's Catholic School and Sixth Form College, Lanchester",
    "address": "Consett Road, Durham",
    "postcode": "DH7 0RD",
    "lat": 54.828339,
    "lng": -1.745404
  },
  {
    "id": "school-138337",
    "type": "school",
    "name": "All Saints' Catholic High School",
    "address": "Granville Road, Sheffield",
    "postcode": "S2 2RJ",
    "lat": 53.372989,
    "lng": -1.455594
  },
  {
    "id": "school-138567",
    "type": "school",
    "name": "Christ's College",
    "address": "Pennywell Road, Sunderland",
    "postcode": "SR4 8PG",
    "lat": 54.89583,
    "lng": -1.434939
  },
  {
    "id": "school-138711",
    "type": "school",
    "name": "Outwood Academy Ormesby",
    "address": "Tothill Avenue, Middlesbrough",
    "postcode": "TS3 0RH",
    "lat": 54.554341,
    "lng": -1.17402
  },
  {
    "id": "school-138717",
    "type": "school",
    "name": "Woodham Academy",
    "address": "Washington Crescent, Newton Aycliffe",
    "postcode": "DL5 4AX",
    "lat": 54.626819,
    "lng": -1.560789
  },
  {
    "id": "school-138845",
    "type": "school",
    "name": "Nunthorpe Academy",
    "address": "Guisborough Road, Middlesbrough",
    "postcode": "TS7 0LA",
    "lat": 54.53126,
    "lng": -1.161086
  },
  {
    "id": "school-138923",
    "type": "school",
    "name": "Oxclose Community Academy",
    "address": "Dilston Close, Washington",
    "postcode": "NE38 0LN",
    "lat": 54.896216,
    "lng": -1.543812
  },
  {
    "id": "school-139184",
    "type": "school",
    "name": "Venerable Bede Church of England Academy",
    "address": "Tunstall Bank, Sunderland",
    "postcode": "SR2 0SX",
    "lat": 54.874451,
    "lng": -1.387203
  },
  {
    "id": "school-139211",
    "type": "school",
    "name": "Outwood Academy Shafton",
    "address": "Engine Lane, Barnsley",
    "postcode": "S72 8RE",
    "lat": 53.586687,
    "lng": -1.402375
  },
  {
    "id": "school-139318",
    "type": "school",
    "name": "Conyers School",
    "address": "Green Lane, Yarm",
    "postcode": "TS15 9ET",
    "lat": 54.495743,
    "lng": -1.34858
  },
  {
    "id": "school-139405",
    "type": "school",
    "name": "Dyke House Sports and Technology College",
    "address": "Mapleton Road, Hartlepool",
    "postcode": "TS24 8NQ",
    "lat": 54.695815,
    "lng": -1.216196
  },
  {
    "id": "school-139538",
    "type": "school",
    "name": "St Aidan's Catholic Academy",
    "address": "Willowbank Road, Sunderland",
    "postcode": "SR2 7HJ",
    "lat": 54.892918,
    "lng": -1.386782
  },
  {
    "id": "school-139606",
    "type": "school",
    "name": "All Saints Church of England Academy",
    "address": "Blair Avenue, Stockton-on-Tees",
    "postcode": "TS17 5BL",
    "lat": 54.518024,
    "lng": -1.319086
  },
  {
    "id": "school-139656",
    "type": "school",
    "name": "St Michael's Catholic Academy",
    "address": "Beamish Road, Billingham",
    "postcode": "TS23 3DX",
    "lat": 54.613508,
    "lng": -1.268805
  },
  {
    "id": "school-139658",
    "type": "school",
    "name": "Kings Priory School",
    "address": "Huntington Place, North Shields",
    "postcode": "NE30 4RF",
    "lat": 55.018934,
    "lng": -1.424168
  },
  {
    "id": "school-139673",
    "type": "school",
    "name": "The Grangefield Academy",
    "address": "Oxbridge Avenue, Stockton-on-Tees",
    "postcode": "TS18 4LE",
    "lat": 54.566522,
    "lng": -1.339779
  },
  {
    "id": "school-139823",
    "type": "school",
    "name": "Outwood Academy Acklam",
    "address": "Hall Drive, Middlesbrough",
    "postcode": "TS5 7JY",
    "lat": 54.54323,
    "lng": -1.243951
  },
  {
    "id": "school-139839",
    "type": "school",
    "name": "Biddick Academy",
    "address": "Biddick Lane, Washington",
    "postcode": "NE38 8AL",
    "lat": 54.891275,
    "lng": -1.51666
  },
  {
    "id": "school-139878",
    "type": "school",
    "name": "St Joseph's Catholic Academy",
    "address": "Mill Lane, Hebburn",
    "postcode": "NE31 2ET",
    "lat": 54.959795,
    "lng": -1.520961
  },
  {
    "id": "school-140002",
    "type": "school",
    "name": "The Blyth Academy",
    "address": "Chase Farm Drive, Blyth",
    "postcode": "NE24 4JP",
    "lat": 55.123612,
    "lng": -1.546133
  },
  {
    "id": "school-140081",
    "type": "school",
    "name": "St Mary's Catholic School",
    "address": "Benton Park Road, Newcastle-upon-Tyne",
    "postcode": "NE7 7PE",
    "lat": 55.007121,
    "lng": -1.592265
  },
  {
    "id": "school-140751",
    "type": "school",
    "name": "St Peter's Catholic College",
    "address": "Normanby Road, Middlesbrough",
    "postcode": "TS6 6SP",
    "lat": 54.574461,
    "lng": -1.168105
  },
  {
    "id": "school-140867",
    "type": "school",
    "name": "English Martyrs Catholic School and Sixth Form College",
    "address": "Catcote Road, Hartlepool",
    "postcode": "TS25 4HA",
    "lat": 54.675414,
    "lng": -1.234844
  },
  {
    "id": "school-140949",
    "type": "school",
    "name": "Ingleby Manor Free School",
    "address": "Welwyn Road, Stockton-on-Tees",
    "postcode": "TS17 0FA",
    "lat": 54.508983,
    "lng": -1.30189
  },
  {
    "id": "school-140965",
    "type": "school",
    "name": "Studio West",
    "address": "West Denton Way, Newcastle-upon-Tyne",
    "postcode": "NE5 2SZ",
    "lat": 54.994045,
    "lng": -1.696944
  },
  {
    "id": "school-141185",
    "type": "school",
    "name": "Thorp Academy",
    "address": "Main Road, Ryton",
    "postcode": "NE40 3AH",
    "lat": 54.972139,
    "lng": -1.773352
  },
  {
    "id": "school-141369",
    "type": "school",
    "name": "Ian Ramsey Church of England Academy",
    "address": "Fairfield Road, Stockton-on-Tees",
    "postcode": "TS19 7AJ",
    "lat": 54.560893,
    "lng": -1.349305
  },
  {
    "id": "school-141370",
    "type": "school",
    "name": "Our Lady & St. Bede Catholic Academy",
    "address": "Bishopton Road West, Stockton-on-Tees",
    "postcode": "TS19 0QH",
    "lat": 54.570953,
    "lng": -1.344674
  },
  {
    "id": "school-141399",
    "type": "school",
    "name": "Outwood Academy Bydales",
    "address": "Coast Road, Redcar",
    "postcode": "TS11 6AR",
    "lat": 54.596055,
    "lng": -1.020933
  },
  {
    "id": "school-141686",
    "type": "school",
    "name": "Manor Community Academy",
    "address": "Owton Manor Lane, Hartlepool",
    "postcode": "TS25 3PS",
    "lat": 54.657109,
    "lng": -1.239637
  },
  {
    "id": "school-141814",
    "type": "school",
    "name": "St Benet Biscop Catholic Academy",
    "address": "Ridge Terrace, Bedlington",
    "postcode": "NE22 6ED",
    "lat": 55.132601,
    "lng": -1.603301
  },
  {
    "id": "school-141930",
    "type": "school",
    "name": "Stokesley School",
    "address": "Station Road, Stokesley",
    "postcode": "TS9 5AL",
    "lat": 54.467394,
    "lng": -1.181373
  },
  {
    "id": "school-141986",
    "type": "school",
    "name": "Sandhill View Academy",
    "address": "Grindon Lane, Sunderland",
    "postcode": "SR3 4EN",
    "lat": 54.88777,
    "lng": -1.427693
  },
  {
    "id": "school-142174",
    "type": "school",
    "name": "Polam Hall School",
    "address": "Grange Road, Darlington",
    "postcode": "DL1 5PA",
    "lat": 54.518707,
    "lng": -1.559463
  },
  {
    "id": "school-142273",
    "type": "school",
    "name": "Sacred Heart Catholic Secondary",
    "address": "Mersey Road, Redcar",
    "postcode": "TS10 1PJ",
    "lat": 54.612288,
    "lng": -1.078228
  },
  {
    "id": "school-142281",
    "type": "school",
    "name": "St Patrick's Catholic College, A Voluntary Catholic Academy",
    "address": "Baysdale Road, Stockton-on-Tees",
    "postcode": "TS17 9DE",
    "lat": 54.543314,
    "lng": -1.290344
  },
  {
    "id": "school-142382",
    "type": "school",
    "name": "Trinity Catholic College",
    "address": "Lacy Road, Middlesbrough",
    "postcode": "TS4 3JW",
    "lat": 54.543686,
    "lng": -1.227834
  },
  {
    "id": "school-142601",
    "type": "school",
    "name": "St Wilfrid's RC College",
    "address": "Temple Park Road, South Shields",
    "postcode": "NE34 0QA",
    "lat": 54.975173,
    "lng": -1.427638
  },
  {
    "id": "school-142673",
    "type": "school",
    "name": "Trinity Solutions Academy",
    "address": "Condercum Road, Newcastle-upon-Tyne",
    "postcode": "NE4 8XJ",
    "lat": 54.97489,
    "lng": -1.658465
  },
  {
    "id": "school-142894",
    "type": "school",
    "name": "UTC South Durham",
    "address": "Long Tens Way, Newton Aycliffe",
    "postcode": "DL5 6AP",
    "lat": 54.595901,
    "lng": -1.575982
  },
  {
    "id": "school-143063",
    "type": "school",
    "name": "Egglescliffe School",
    "address": "Urlay Nook Road, Stockton-on-Tees",
    "postcode": "TS16 0LA",
    "lat": 54.516234,
    "lng": -1.358234
  },
  {
    "id": "school-143146",
    "type": "school",
    "name": "Outwood Academy Bishopsgarth",
    "address": "Harrowgate Lane, Stockton-on-Tees",
    "postcode": "TS19 8TF",
    "lat": 54.581135,
    "lng": -1.363032
  },
  {
    "id": "school-143291",
    "type": "school",
    "name": "Queen Elizabeth High School",
    "address": "Whetstone Bridge Road, Hexham",
    "postcode": "NE46 3JB",
    "lat": 54.970074,
    "lng": -2.116294
  },
  {
    "id": "school-143292",
    "type": "school",
    "name": "Hexham Middle School",
    "address": "Whetstone Bridge Road, Hexham",
    "postcode": "NE46 3JB",
    "lat": 54.968724,
    "lng": -2.097794
  },
  {
    "id": "school-143583",
    "type": "school",
    "name": "St Leonard's Catholic School, Durham",
    "address": "North End, Durham",
    "postcode": "DH1 4NG",
    "lat": 54.783418,
    "lng": -1.585204
  },
  {
    "id": "school-143659",
    "type": "school",
    "name": "City of London Academy, Highgate Hill",
    "address": "Holland Walk, Duncombe Road, London",
    "postcode": "N19 3EU",
    "lat": 51.567468,
    "lng": -0.127827
  },
  {
    "id": "school-143845",
    "type": "school",
    "name": "Wyvern Academy",
    "address": "Eggleston View, Darlington",
    "postcode": "DL3 9SH",
    "lat": 54.537554,
    "lng": -1.595182
  },
  {
    "id": "school-143923",
    "type": "school",
    "name": "Great Park Academy",
    "address": "Primrose Lane, Newcastle-upon-Tyne",
    "postcode": "NE13 9FR",
    "lat": 55.036789,
    "lng": -1.650239
  },
  {
    "id": "school-144204",
    "type": "school",
    "name": "Harton Academy",
    "address": "Lisle Road, South Shields",
    "postcode": "NE34 6DL",
    "lat": 54.975599,
    "lng": -1.40582
  },
  {
    "id": "school-144271",
    "type": "school",
    "name": "Benfield School",
    "address": "Benfield Road, Newcastle-upon-Tyne",
    "postcode": "NE6 4NU",
    "lat": 54.989826,
    "lng": -1.557756
  },
  {
    "id": "school-144279",
    "type": "school",
    "name": "North Gosforth Academy",
    "address": "Dudley Lane, Newcastle-upon-Tyne",
    "postcode": "NE13 6EJ",
    "lat": 55.058189,
    "lng": -1.617909
  },
  {
    "id": "school-144496",
    "type": "school",
    "name": "Teesdale School and Sixth Form",
    "address": "Prospect Place, Barnard Castle",
    "postcode": "DL12 8HH",
    "lat": 54.55027,
    "lng": -1.911327
  },
  {
    "id": "school-144601",
    "type": "school",
    "name": "Ashington Academy",
    "address": "Green Lane, Ashington",
    "postcode": "NE63 8DH",
    "lat": 55.177729,
    "lng": -1.577821
  },
  {
    "id": "school-144937",
    "type": "school",
    "name": "Washington Academy",
    "address": "Spout Lane, Washington",
    "postcode": "NE37 2AA",
    "lat": 54.908537,
    "lng": -1.520259
  },
  {
    "id": "school-144962",
    "type": "school",
    "name": "City of London Academy Highbury Grove",
    "address": "8 Highbury Grove, London",
    "postcode": "N5 2EQ",
    "lat": 51.549333,
    "lng": -0.096288
  },
  {
    "id": "school-144977",
    "type": "school",
    "name": "Bedlington Academy",
    "address": "Palace Road, Bedlington",
    "postcode": "NE22 7DS",
    "lat": 55.13796,
    "lng": -1.562066
  },
  {
    "id": "school-144990",
    "type": "school",
    "name": "Thornhill Academy",
    "address": "Thornholme Road, Sunderland",
    "postcode": "SR2 7NA",
    "lat": 54.897216,
    "lng": -1.3906
  },
  {
    "id": "school-144991",
    "type": "school",
    "name": "Staindrop Academy",
    "address": "Cleatlam Lane, Darlington",
    "postcode": "DL2 3JU",
    "lat": 54.577396,
    "lng": -1.810437
  },
  {
    "id": "school-145090",
    "type": "school",
    "name": "Richmond School & Sixth Form College",
    "address": "Darlington Road, Richmond",
    "postcode": "DL10 7BQ",
    "lat": 54.406563,
    "lng": -1.723094
  },
  {
    "id": "school-145188",
    "type": "school",
    "name": "Outwood Academy Redcar",
    "address": "Kirkleatham Lane, Redcar",
    "postcode": "TS10 4AB",
    "lat": 54.605463,
    "lng": -1.079064
  },
  {
    "id": "school-145227",
    "type": "school",
    "name": "Prior Pursglove and Stockton Sixth Form College",
    "address": "Church Walk, Guisborough",
    "postcode": "TS14 6BU",
    "lat": 54.537286,
    "lng": -1.046438
  },
  {
    "id": "school-145253",
    "type": "school",
    "name": "Ferryhill School",
    "address": "Merrington Road, Ferryhill",
    "postcode": "DL17 8RW",
    "lat": 54.684047,
    "lng": -1.574055
  },
  {
    "id": "school-145477",
    "type": "school",
    "name": "Academy 360",
    "address": "Portsmouth Road, Sunderland",
    "postcode": "SR4 9BA",
    "lat": 54.89745,
    "lng": -1.441248
  },
  {
    "id": "school-145490",
    "type": "school",
    "name": "Heworth Grange School",
    "address": "High Lanes, Gateshead",
    "postcode": "NE10 0PT",
    "lat": 54.94754,
    "lng": -1.550273
  },
  {
    "id": "school-145528",
    "type": "school",
    "name": "Walker Riverside Academy",
    "address": "Waverdale Avenue, Newcastle-upon-Tyne",
    "postcode": "NE6 4AW",
    "lat": 54.980761,
    "lng": -1.543979
  },
  {
    "id": "school-145564",
    "type": "school",
    "name": "Whitworth Park Academy",
    "address": "Whitworth Lane, Spennymoor",
    "postcode": "DL16 7LN",
    "lat": 54.694692,
    "lng": -1.612503
  },
  {
    "id": "school-145577",
    "type": "school",
    "name": "Longfield Academy",
    "address": "Longfield Road, Darlington",
    "postcode": "DL3 0HT",
    "lat": 54.548064,
    "lng": -1.552606
  },
  {
    "id": "school-145639",
    "type": "school",
    "name": "Dr Thomlinson Church of England Middle School",
    "address": "Silverton Lane, Morpeth",
    "postcode": "NE65 7RJ",
    "lat": 55.304748,
    "lng": -1.900861
  },
  {
    "id": "school-145774",
    "type": "school",
    "name": "Acklam Grange School",
    "address": "Lodore Grove, Middlesbrough",
    "postcode": "TS5 8PB",
    "lat": 54.544296,
    "lng": -1.262267
  },
  {
    "id": "school-145783",
    "type": "school",
    "name": "Ponteland High School",
    "address": "The Crescent, Ponteland",
    "postcode": "NE20 9EG",
    "lat": 55.043092,
    "lng": -1.741633
  },
  {
    "id": "school-145900",
    "type": "school",
    "name": "North East Futures UTC",
    "address": "Stephenson Square, Newcastle Upon Tyne",
    "postcode": "NE1 3AS",
    "lat": 54.966472,
    "lng": -1.614484
  },
  {
    "id": "school-146752",
    "type": "school",
    "name": "Jesmond Park Academy",
    "address": "Jesmond Park West, Newcastle-upon-Tyne",
    "postcode": "NE7 7DP",
    "lat": 54.994109,
    "lng": -1.58727
  },
  {
    "id": "school-146871",
    "type": "school",
    "name": "Highfield Middle School",
    "address": "Highfield Lane, Prudhoe",
    "postcode": "NE42 6EY",
    "lat": 54.957596,
    "lng": -1.855177
  },
  {
    "id": "school-146894",
    "type": "school",
    "name": "Ovingham Middle School",
    "address": "West Road, Prudhoe",
    "postcode": "NE42 6DE",
    "lat": 54.965732,
    "lng": -1.873268
  },
  {
    "id": "school-146926",
    "type": "school",
    "name": "Prudhoe Community High School",
    "address": "Moor Road, Prudhoe",
    "postcode": "NE42 5LJ",
    "lat": 54.955864,
    "lng": -1.849311
  },
  {
    "id": "school-146969",
    "type": "school",
    "name": "Northallerton School & Sixth Form College",
    "address": "Brompton Road, Northallerton",
    "postcode": "DL6 1ED",
    "lat": 54.335807,
    "lng": -1.428679
  },
  {
    "id": "school-147122",
    "type": "school",
    "name": "Dene Academy",
    "address": "Manor Way, Peterlee",
    "postcode": "SR8 5RL",
    "lat": 54.758231,
    "lng": -1.316444
  },
  {
    "id": "school-147142",
    "type": "school",
    "name": "St Robert of Newminster Catholic School and Sixth Form College, Washington",
    "address": "Biddick Lane, Washington",
    "postcode": "NE38 8AF",
    "lat": 54.887404,
    "lng": -1.519434
  },
  {
    "id": "school-147178",
    "type": "school",
    "name": "Grace College",
    "address": "Saltwell Road South, Gateshead",
    "postcode": "NE9 6LE",
    "lat": 54.928774,
    "lng": -1.604482
  },
  {
    "id": "school-147213",
    "type": "school",
    "name": "St Francis Xavier School - a Joint Catholic and Church of England Voluntary Academy",
    "address": "Darlington Road, Richmond",
    "postcode": "DL10 7DA",
    "lat": 54.4094,
    "lng": -1.717512
  },
  {
    "id": "school-147531",
    "type": "school",
    "name": "Hermitage Academy",
    "address": "Waldridge Lane, Chester le Street",
    "postcode": "DH2 3AD",
    "lat": 54.850997,
    "lng": -1.591037
  },
  {
    "id": "school-147532",
    "type": "school",
    "name": "Monkwearmouth Academy",
    "address": "Torver Crescent, Sunderland",
    "postcode": "SR6 8LG",
    "lat": 54.936685,
    "lng": -1.384571
  },
  {
    "id": "school-147541",
    "type": "school",
    "name": "Freebrough Academy",
    "address": "Linden Road, Saltburn-By-the-Sea",
    "postcode": "TS12 2SJ",
    "lat": 54.569114,
    "lng": -0.944679
  },
  {
    "id": "school-147544",
    "type": "school",
    "name": "Outwood Academy Normanby",
    "address": "Normanby Road, Middlesbrough",
    "postcode": "TS6 9AG",
    "lat": 54.566764,
    "lng": -1.159955
  },
  {
    "id": "school-147670",
    "type": "school",
    "name": "Sedgefield Community College",
    "address": "Hawthorn Road, Stockton-on-Tees",
    "postcode": "TS21 3DD",
    "lat": 54.657989,
    "lng": -1.44288
  },
  {
    "id": "school-147711",
    "type": "school",
    "name": "Seaham High School",
    "address": "Station Road, Seaham",
    "postcode": "SR7 0BH",
    "lat": 54.840029,
    "lng": -1.36287
  },
  {
    "id": "school-147724",
    "type": "school",
    "name": "Laurence Jackson School",
    "address": "Church Lane, Guisborough",
    "postcode": "TS14 6RD",
    "lat": 54.540957,
    "lng": -1.043446
  },
  {
    "id": "school-147848",
    "type": "school",
    "name": "Outwood Academy Riverside",
    "address": "100 Russell Street, Middlesbrough",
    "postcode": "TS1 2AD",
    "lat": 54.574628,
    "lng": -1.225748
  },
  {
    "id": "school-147894",
    "type": "school",
    "name": "Tanfield School",
    "address": "Tanfield Lea Road, Stanley",
    "postcode": "DH9 8AY",
    "lat": 54.877104,
    "lng": -1.705241
  },
  {
    "id": "school-148109",
    "type": "school",
    "name": "Wolsingham School",
    "address": "The Grammar School Building, Bishop Auckland",
    "postcode": "DL13 3DJ",
    "lat": 54.730018,
    "lng": -1.892112
  },
  {
    "id": "school-148135",
    "type": "school",
    "name": "Walbottle Academy",
    "address": "Hexham Road, Newcastle-upon-Tyne",
    "postcode": "NE15 9TP",
    "lat": 54.996481,
    "lng": -1.739916
  },
  {
    "id": "school-148186",
    "type": "school",
    "name": "Thornaby Academy",
    "address": "Baysdale Road, Stockton-on-Tees",
    "postcode": "TS17 9DB",
    "lat": 54.542348,
    "lng": -1.288119
  },
  {
    "id": "school-148260",
    "type": "school",
    "name": "St Joseph's Catholic Middle School, Hexham",
    "address": "Highford Lane, Hexham",
    "postcode": "NE46 2DD",
    "lat": 54.968142,
    "lng": -2.115883
  },
  {
    "id": "school-148304",
    "type": "school",
    "name": "St Bede's Catholic School and Byron Sixth Form College",
    "address": "Westway, Peterlee",
    "postcode": "SR8 1DE",
    "lat": 54.757196,
    "lng": -1.345554
  },
  {
    "id": "school-148335",
    "type": "school",
    "name": "Huntcliff School",
    "address": "Marske Mill Lane, Saltburn By the Sea",
    "postcode": "TS12 1HJ",
    "lat": 54.577747,
    "lng": -0.980755
  },
  {
    "id": "school-148421",
    "type": "school",
    "name": "Woodhouse College",
    "address": "Woodhouse Road, London",
    "postcode": "N12 9EY",
    "lat": 51.610979,
    "lng": -0.16719
  },
  {
    "id": "school-148532",
    "type": "school",
    "name": "St Hild's Church of England School",
    "address": "King Oswy Drive, Hartlepool",
    "postcode": "TS24 9PB",
    "lat": 54.709958,
    "lng": -1.231011
  },
  {
    "id": "school-148573",
    "type": "school",
    "name": "Callerton Academy",
    "address": "Bedeburn Road, Newcastle-upon-Tyne",
    "postcode": "NE5 4JQ",
    "lat": 55.008077,
    "lng": -1.694493
  },
  {
    "id": "school-148617",
    "type": "school",
    "name": "XP Gateshead",
    "address": "Swards Road, Felling",
    "postcode": "NE10 9UZ",
    "lat": 54.943269,
    "lng": -1.561999
  },
  {
    "id": "school-148706",
    "type": "school",
    "name": "Bishop Barrington Academy",
    "address": "Woodhouse Lane, Bishop Auckland",
    "postcode": "DL14 6LA",
    "lat": 54.651842,
    "lng": -1.688584
  },
  {
    "id": "school-148728",
    "type": "school",
    "name": "Rye Hills Academy",
    "address": "Redcar Lane, Redcar",
    "postcode": "TS10 2HN",
    "lat": 54.603569,
    "lng": -1.055991
  },
  {
    "id": "school-149235",
    "type": "school",
    "name": "Hetton Academy",
    "address": "North Road, Houghton le Spring",
    "postcode": "DH5 9JZ",
    "lat": 54.817991,
    "lng": -1.459201
  },
  {
    "id": "school-149251",
    "type": "school",
    "name": "Durham Academy",
    "address": "Bracken Court, Durham",
    "postcode": "DH7 7NG",
    "lat": 54.781487,
    "lng": -1.636103
  },
  {
    "id": "school-149733",
    "type": "school",
    "name": "Imperial College London Mathematics School",
    "address": "C/O Woodhouse College, London",
    "postcode": "N12 9EY",
    "lat": 51.610979,
    "lng": -0.16719
  },
  {
    "id": "school-149739",
    "type": "school",
    "name": "Wellfield School",
    "address": "North Road East, Wingate",
    "postcode": "TS28 5AX",
    "lat": 54.731595,
    "lng": -1.3756
  },
  {
    "id": "school-149962",
    "type": "school",
    "name": "Greenfield Academy",
    "address": "Greenfield Way, Newton Aycliffe",
    "postcode": "DL5 7LF",
    "lat": 54.619565,
    "lng": -1.599464
  },
  {
    "id": "school-150012",
    "type": "school",
    "name": "Durham Sixth Form Centre",
    "address": "Providence Row, Durham",
    "postcode": "DH1 1SG",
    "lat": 54.780072,
    "lng": -1.571554
  },
  {
    "id": "school-150195",
    "type": "school",
    "name": "John Spence Community High School",
    "address": "Preston Road, North Shields",
    "postcode": "NE29 9PU",
    "lat": 55.022289,
    "lng": -1.449916
  },
  {
    "id": "school-150196",
    "type": "school",
    "name": "The Duchess's Community High School",
    "address": "Taylor Drive, Alnwick",
    "postcode": "NE66 2DH",
    "lat": 55.398089,
    "lng": -1.696277
  },
  {
    "id": "school-150268",
    "type": "school",
    "name": "Farringdon Community Academy",
    "address": "Allendale Road, Sunderland",
    "postcode": "SR3 3EL",
    "lat": 54.872779,
    "lng": -1.425786
  },
  {
    "id": "school-150514",
    "type": "school",
    "name": "Queen Elizabeth Sixth Form College",
    "address": "Vane Terrace, Darlington",
    "postcode": "DL3 7AU",
    "lat": 54.525625,
    "lng": -1.563684
  }
]