[
  {
    "id": "uni-10007777",
    "type": "university",
    "name": "Royal College of Art",
    "postcode": "SW7 2EU",
    "lat": 51.5014,
    "lng": -0.1772,
    "address": ""
  },
  {
    "id": "uni-10007816",
    "type": "university",
    "name": "The Royal Central School of Speech and Drama",
    "postcode": "NW3 3HY",
    "lat": 51.5441,
    "lng": -0.1757,
    "address": ""
  },
  {
    "id": "uni-10007162",
    "type": "university",
    "name": "University of the Arts, London",
    "postcode": "WC1V 7EY",
    "lat": 51.52,
    "lng": -0.098,
    "address": ""
  },
  {
    "id": "uni-10005389",
    "type": "university",
    "name": "Ravensbourne University London",
    "postcode": "SE10 0EW",
    "lat": 51.502,
    "lng": 0.006,
    "address": ""
  },
  {
    "id": "uni-10007776",
    "type": "university",
    "name": "Roehampton University",
    "postcode": "SW15 5PU",
    "lat": 51.459,
    "lng": -0.242,
    "address": ""
  },
  {
    "id": "uni-10007835",
    "type": "university",
    "name": "Royal Academy of Music",
    "postcode": "NW1 5HT",
    "lat": 51.5237,
    "lng": -0.1527,
    "address": ""
  },
  {
    "id": "uni-10007778",
    "type": "university",
    "name": "Royal College of Music",
    "postcode": "SW7 2BS",
    "lat": 51.4993,
    "lng": -0.178,
    "address": ""
  },
  {
    "id": "uni-10008017",
    "type": "university",
    "name": "Trinity Laban Conservatoire of Music and Dance",
    "postcode": "SE10 9JF",
    "lat": 51.4843,
    "lng": -0.0089,
    "address": ""
  },
  {
    "id": "uni-10007144",
    "type": "university",
    "name": "The University of East London",
    "postcode": "E16 2RD",
    "lat": 51.5088,
    "lng": 0.06,
    "address": ""
  },
  {
    "id": "uni-10007146",
    "type": "university",
    "name": "The University of Greenwich",
    "postcode": "SE10 9LS",
    "lat": 51.4826,
    "lng": 0.0046,
    "address": ""
  },
  {
    "id": "uni-10004351",
    "type": "university",
    "name": "Middlesex University",
    "postcode": "N14 4YZ",
    "lat": 51.591,
    "lng": -0.228,
    "address": ""
  },
  {
    "id": "uni-10004078",
    "type": "university",
    "name": "London South Bank University",
    "postcode": "SE1 0AA",
    "lat": 51.499,
    "lng": -0.102,
    "address": ""
  },
  {
    "id": "uni-10006566",
    "type": "university",
    "name": "The University of West London",
    "postcode": "W5 5RF",
    "lat": 51.4966,
    "lng": -0.3411,
    "address": ""
  },
  {
    "id": "uni-10007165",
    "type": "university",
    "name": "The University of Westminster",
    "postcode": "W1B 2HW",
    "lat": 51.5169,
    "lng": -0.144,
    "address": ""
  },
  {
    "id": "uni-10001478",
    "type": "university",
    "name": "City St George's, University of London",
    "postcode": "EC1V 0HB",
    "lat": 51.5279,
    "lng": -0.1022,
    "address": ""
  },
  {
    "id": "uni-10007760",
    "type": "university",
    "name": "Birkbeck College",
    "postcode": "WC1E 7HX",
    "lat": 51.5219,
    "lng": -0.1302,
    "address": ""
  },
  {
    "id": "uni-10002718",
    "type": "university",
    "name": "Goldsmiths College",
    "postcode": "SE14 6NW",
    "lat": 51.4742,
    "lng": -0.0369,
    "address": ""
  },
  {
    "id": "uni-10003270",
    "type": "university",
    "name": "Imperial College of Science, Technology and Medicine",
    "postcode": "SW7 2AZ",
    "lat": 51.4988,
    "lng": -0.1749,
    "address": ""
  },
  {
    "id": "uni-10003645",
    "type": "university",
    "name": "King's College London",
    "postcode": "WC2R 2LS",
    "lat": 51.5115,
    "lng": -0.116,
    "address": ""
  },
  {
    "id": "uni-10007769",
    "type": "university",
    "name": "London Business School",
    "postcode": "NW1 4SA",
    "lat": 51.5234,
    "lng": -0.1571,
    "address": ""
  },
  {
    "id": "uni-10004063",
    "type": "university",
    "name": "London School of Economics and Political Science",
    "postcode": "WC2A 2AE",
    "lat": 51.5144,
    "lng": -0.1165,
    "address": ""
  },
  {
    "id": "uni-10007771",
    "type": "university",
    "name": "London School of Hygiene and Tropical Medicine",
    "postcode": "WC1E 7HT",
    "lat": 51.5207,
    "lng": -0.1307,
    "address": ""
  },
  {
    "id": "uni-10007775",
    "type": "university",
    "name": "Queen Mary University of London",
    "postcode": "E1 4NS",
    "lat": 51.5238,
    "lng": -0.0402,
    "address": ""
  },
  {
    "id": "uni-10007780",
    "type": "university",
    "name": "SOAS University of London",
    "postcode": "WC1H 0XG",
    "lat": 51.5218,
    "lng": -0.1304,
    "address": ""
  },
  {
    "id": "uni-10007784",
    "type": "university",
    "name": "University College London",
    "postcode": "WC1E 6BT",
    "lat": 51.5246,
    "lng": -0.134,
    "address": ""
  },
  {
    "id": "uni-10007797",
    "type": "university",
    "name": "University of London (Institutes and activities)",
    "postcode": "WC1E 7HU",
    "lat": 51.5223,
    "lng": -0.1299,
    "address": ""
  },
  {
    "id": "uni-10003324",
    "type": "university",
    "name": "The Institute of Cancer Research",
    "postcode": "SW7 3RP",
    "lat": 51.4884,
    "lng": -0.1724,
    "address": ""
  },
  {
    "id": "uni-10007761",
    "type": "university",
    "name": "Courtauld Institute of Art",
    "postcode": "WC2R 0RN",
    "lat": 51.511,
    "lng": -0.117,
    "address": ""
  },
  {
    "id": "uni-10004048",
    "type": "university",
    "name": "London Metropolitan University",
    "postcode": "N7 8DB",
    "lat": 51.5474,
    "lng": -0.0723,
    "address": ""
  },
  {
    "id": "uni-10007825",
    "type": "university",
    "name": "Guildhall School of Music and Drama",
    "postcode": "EC2Y 8DT",
    "lat": 51.5201,
    "lng": -0.0963,
    "address": ""
  },
  {
    "id": "uni-10037544",
    "type": "university",
    "name": "BIMM University",
    "postcode": "EC1V 9FR",
    "lat": 51.5085,
    "lng": -0.0937,
    "address": ""
  },
  {
    "id": "uni-10042570",
    "type": "university",
    "name": "Escape Studios",
    "postcode": "W6 7NL",
    "lat": 51.5019,
    "lng": -0.1423,
    "address": ""
  },
  {
    "id": "uni-10004036",
    "type": "university",
    "name": "London Film School Limited",
    "postcode": "WC2H 9JN",
    "lat": 51.5137,
    "lng": -0.1283,
    "address": ""
  },
  {
    "id": "uni-10019178",
    "type": "university",
    "name": "Point Blank Music School",
    "postcode": "EC1V 8BR",
    "lat": 51.5219,
    "lng": -0.0942,
    "address": ""
  },
  {
    "id": "uni-10048199",
    "type": "university",
    "name": "Northeastern University London",
    "postcode": "EC2A 1NT",
    "lat": 51.5085,
    "lng": -0.0937,
    "address": ""
  },
  {
    "id": "uni-10062810",
    "type": "university",
    "name": "The London School of Architecture",
    "postcode": "N1 6AR",
    "lat": 51.5085,
    "lng": -0.0937,
    "address": ""
  },
  {
    "id": "uni-10003758",
    "type": "university",
    "name": "LAMDA Limited",
    "postcode": "W14 0RF",
    "lat": 51.492,
    "lng": -0.214,
    "address": ""
  },
  {
    "id": "uni-10009292",
    "type": "university",
    "name": "Royal Academy of Dramatic Art",
    "postcode": "WC1E 6ED",
    "lat": 51.5228,
    "lng": -0.1321,
    "address": ""
  },
  {
    "id": "uni-10082728",
    "type": "university",
    "name": "INTO University Partnerships Limited",
    "postcode": "EC2A 1NT",
    "lat": 51.5085,
    "lng": -0.0937,
    "address": ""
  },
  {
    "id": "uni-10004028",
    "type": "university",
    "name": "The Place, London Contemporary Dance School (LCDS)",
    "postcode": "WC1H 9QU",
    "lat": 51.531,
    "lng": -0.1227,
    "address": ""
  },
  {
    "id": "uni-10001444",
    "type": "university",
    "name": "National Centre for Circus Arts",
    "postcode": "EC1R 4TN",
    "lat": 51.531,
    "lng": -0.1227,
    "address": ""
  },
  {
    "id": "uni-10001264",
    "type": "university",
    "name": "Central School of Ballet",
    "postcode": "EC1R 1PX",
    "lat": 51.531,
    "lng": -0.1227,
    "address": ""
  },
  {
    "id": "uni-10088214",
    "type": "university",
    "name": "S P Jain London School of Management Limited",
    "postcode": "NW1 5LS",
    "lat": 51.5085,
    "lng": -0.0937,
    "address": ""
  },
  {
    "id": "uni-10089288",
    "type": "university",
    "name": "Corndel College London",
    "postcode": "EC2A 1NT",
    "lat": 51.5085,
    "lng": -0.0937,
    "address": ""
  },
  {
    "id": "uni-10090839",
    "type": "university",
    "name": "National Institute of Teaching",
    "postcode": "EC2A 1NT",
    "lat": 51.5085,
    "lng": -0.0937,
    "address": ""
  },
  {
    "id": "uni-extra-The_University_of_La",
    "type": "university",
    "name": "The University of Law",
    "postcode": "W1B 2HW",
    "lat": 51.5169,
    "lng": -0.144,
    "address": ""
  },
  {
    "id": "uni-extra-Institute_of_Contemp",
    "type": "university",
    "name": "Institute of Contemporary Music Performance",
    "postcode": "EC1V 9FR",
    "lat": 51.5085,
    "lng": -0.0937,
    "address": ""
  },
  {
    "id": "uni-extra-ICON_College_of_Tech",
    "type": "university",
    "name": "ICON College of Technology and Management",
    "postcode": "E1 7AA",
    "lat": 51.5085,
    "lng": -0.0937,
    "address": ""
  },
  {
    "id": "uni-extra-Bloomsbury_Institute",
    "type": "university",
    "name": "Bloomsbury Institute",
    "postcode": "WC1A 2RA",
    "lat": 51.5219,
    "lng": -0.1302,
    "address": ""
  },
  {
    "id": "uni-extra-Mont_Rose_College_of",
    "type": "university",
    "name": "Mont Rose College of Management and Sciences Limited",
    "postcode": "N16 8EJ",
    "lat": 51.5622,
    "lng": -0.0691,
    "address": ""
  },
  {
    "id": "uni-extra-London_School_of_Man",
    "type": "university",
    "name": "London School of Management Education",
    "postcode": "W1T 1HY",
    "lat": 51.5085,
    "lng": -0.0937,
    "address": ""
  },
  {
    "id": "uni-extra-St_Mellitus_College",
    "type": "university",
    "name": "St Mellitus College",
    "postcode": "N7 6AB",
    "lat": 51.5085,
    "lng": -0.0937,
    "address": ""
  },
  {
    "id": "uni-extra-Nelson_College_Londo",
    "type": "university",
    "name": "Nelson College London Ltd",
    "postcode": "W12 8LB",
    "lat": 51.5085,
    "lng": -0.0937,
    "address": ""
  },
  {
    "id": "uni-extra-London_Bridge_Busine",
    "type": "university",
    "name": "London Bridge Business Academy",
    "postcode": "SE1 2RT",
    "lat": 51.5045,
    "lng": -0.0865,
    "address": ""
  },
  {
    "id": "uni-extra-Chicken_Shed_Theatre",
    "type": "university",
    "name": "Chicken Shed Theatre Company",
    "postcode": "N14 4PE",
    "lat": 51.603,
    "lng": -0.159,
    "address": ""
  },
  {
    "id": "uni-extra-University_of_the_Bu",
    "type": "university",
    "name": "University of the Built Environment",
    "postcode": "EC1V 7QE",
    "lat": 51.5085,
    "lng": -0.0937,
    "address": ""
  },
  {
    "id": "uni-extra-The_Metanoia_Institu",
    "type": "university",
    "name": "The Metanoia Institute",
    "postcode": "W5 5RF",
    "lat": 51.5085,
    "lng": -0.3411,
    "address": ""
  },
  {
    "id": "uni-extra-Matrix_College_of_Co",
    "type": "university",
    "name": "Matrix College of Counselling and Psychotherapy Ltd",
    "postcode": "N1 9BE",
    "lat": 51.5085,
    "lng": -0.0937,
    "address": ""
  },
  {
    "id": "uni-extra-Court_Theatre_Traini",
    "type": "university",
    "name": "Court Theatre Training Company Ltd",
    "postcode": "EC1R 3GA",
    "lat": 51.5085,
    "lng": -0.0937,
    "address": ""
  },
  {
    "id": "uni-extra-Waltham_Internationa",
    "type": "university",
    "name": "Waltham International College Limited",
    "postcode": "E17 7JF",
    "lat": 51.5788,
    "lng": -0.0152,
    "address": ""
  },
  {
    "id": "uni-extra-Amity_University_[IN",
    "type": "university",
    "name": "Amity University [IN] London",
    "postcode": "NW1 2QB",
    "lat": 51.5085,
    "lng": -0.0937,
    "address": ""
  },
  {
    "id": "uni-extra-Institute_of_Art_-_L",
    "type": "university",
    "name": "Institute of Art - London Limited",
    "postcode": "W1T 1HY",
    "lat": 51.5085,
    "lng": -0.0937,
    "address": ""
  },
  {
    "id": "uni-extra-Central_Film_School",
    "type": "university",
    "name": "Central Film School",
    "postcode": "WC2H 9JN",
    "lat": 51.5219,
    "lng": -0.1302,
    "address": ""
  },
  {
    "id": "uni-extra-David_Game_College_L",
    "type": "university",
    "name": "David Game College Ltd",
    "postcode": "W2 3LJ",
    "lat": 51.5085,
    "lng": -0.0937,
    "address": ""
  },
  {
    "id": "uni-extra-Kaplan_International",
    "type": "university",
    "name": "Kaplan International Colleges U.K. Limited",
    "postcode": "EC2A 1NT",
    "lat": 51.5085,
    "lng": -0.0937,
    "address": ""
  },
  {
    "id": "uni-extra-Academy_of_Live_Tech",
    "type": "university",
    "name": "Academy of Live Technology Ltd",
    "postcode": "SE1 7PB",
    "lat": 51.5085,
    "lng": -0.0937,
    "address": ""
  },
  {
    "id": "uni-extra-British_Academy_of_J",
    "type": "university",
    "name": "British Academy of Jewellery Limited",
    "postcode": "EC1V 9HX",
    "lat": 51.5085,
    "lng": -0.0937,
    "address": ""
  },
  {
    "id": "uni-extra-The_London_Interdisc",
    "type": "university",
    "name": "The London Interdisciplinary School Ltd",
    "postcode": "E1 6RF",
    "lat": 51.5085,
    "lng": -0.0937,
    "address": ""
  },
  {
    "id": "uni-extra-The_College_of_Healt",
    "type": "university",
    "name": "The College of Health Ltd",
    "postcode": "WC1X 8HR",
    "lat": 51.5085,
    "lng": -0.0937,
    "address": ""
  },
  {
    "id": "uni-extra-ASU_London",
    "type": "university",
    "name": "ASU London",
    "postcode": "EC2A 1NT",
    "lat": 51.5085,
    "lng": -0.0937,
    "address": ""
  },
  {
    "id": "uni-extra-College_of_Legal_Pra",
    "type": "university",
    "name": "College of Legal Practice Limited",
    "postcode": "EC2A 1NT",
    "lat": 51.5085,
    "lng": -0.0937,
    "address": ""
  },
  {
    "id": "uni-extra-ThinkSpace_Education",
    "type": "university",
    "name": "ThinkSpace Education Limited",
    "postcode": "EC2A 1NT",
    "lat": 51.5085,
    "lng": -0.0937,
    "address": ""
  },
  {
    "id": "uni-extra-Walbrook_Institute_L",
    "type": "university",
    "name": "Walbrook Institute London Limited",
    "postcode": "EC4N 8AF",
    "lat": 51.5085,
    "lng": -0.0937,
    "address": ""
  },
  {
    "id": "uni-extra-Caspian_School_of_Ac",
    "type": "university",
    "name": "Caspian School of Academics",
    "postcode": "E1 7AA",
    "lat": 51.5085,
    "lng": -0.0937,
    "address": ""
  },
  {
    "id": "uni-extra-SIRM_College",
    "type": "university",
    "name": "SIRM College",
    "postcode": "W1T 1HY",
    "lat": 51.5085,
    "lng": -0.0937,
    "address": ""
  },
  {
    "id": "uni-extra-Engineering_College_",
    "type": "university",
    "name": "Engineering College of Technology Limited",
    "postcode": "E1 7AA",
    "lat": 51.5085,
    "lng": -0.0937,
    "address": ""
  },
  {
    "id": "uni-extra-Collective_Acting_St",
    "type": "university",
    "name": "Collective Acting Studio",
    "postcode": "N1 6AR",
    "lat": 51.5085,
    "lng": -0.0937,
    "address": ""
  },
  {
    "id": "uni-extra-London_School_of_Jew",
    "type": "university",
    "name": "London School of Jewish Studies",
    "postcode": "NW4 2EJ",
    "lat": 51.5971,
    "lng": -0.3116,
    "address": ""
  },
  {
    "id": "uni-extra-Sysco_Business_Skill",
    "type": "university",
    "name": "Sysco Business Skills Academy Limited",
    "postcode": "E1 7AA",
    "lat": 51.5085,
    "lng": -0.0937,
    "address": ""
  }
]
