[
  {"id": "uni-birmingham", "type": "university", "name": "University of Birmingham", "lat": 52.4509, "lng": -1.9306, "address": "Edgbaston, Birmingham B15 2TT"},
  {"id": "uni-warwick", "type": "university", "name": "University of Warwick", "lat": 52.3793, "lng": -1.5617, "address": "Gibbet Hill Rd, Coventry CV4 7AL"},
  {"id": "uni-aston", "type": "university", "name": "Aston University", "lat": 52.4863, "lng": -1.887, "address": "Aston Triangle, Birmingham B4 7ET"},
  {"id": "uni-bcu", "type": "university", "name": "Birmingham City University", "lat": 52.482, "lng": -1.892, "address": "Curzon Building, Birmingham B4 7XG"},
  {"id": "uni-coventry", "type": "university", "name": "Coventry University", "lat": 52.408, "lng": -1.503, "address": "Priory St, Coventry CV1 5FB"},
  {"id": "uni-wolverhampton", "type": "university", "name": "University of Wolverhampton", "lat": 52.5861, "lng": -2.1267, "address": "Wulfruna St, Wolverhampton WV1 1LY"},
  {"id": "uni-keele", "type": "university", "name": "Keele University", "lat": 53.003, "lng": -2.274, "address": "Keele, Newcastle-under-Lyme ST5 5BG"},
  {"id": "uni-staffs", "type": "university", "name": "University of Staffordshire", "lat": 52.999, "lng": -2.179, "address": "College Rd, Stoke-on-Trent ST4 2DE"},
  {"id": "uni-worcester", "type": "university", "name": "University of Worcester", "lat": 52.194, "lng": -2.221, "address": "Henwick Grove, Worcester WR2 6AJ"},
  {"id": "uni-newman", "type": "university", "name": "Birmingham Newman University", "lat": 52.4152, "lng": -1.8453, "address": "Genners Lane, Birmingham B32 3NT"},
  {"id": "uni-ucbirmingham", "type": "university", "name": "University College Birmingham", "lat": 52.4796, "lng": -1.9017, "address": "Summer Row, Birmingham B3 1JB"},
  {"id": "uni-harperadams", "type": "university", "name": "Harper Adams University", "lat": 52.7757, "lng": -2.4244, "address": "Newport, Shropshire TF10 8NB"},
  {"id": "uni-arden", "type": "university", "name": "Arden University", "lat": 52.4085, "lng": -1.5081, "address": "Millennium Point, Coventry CV3 4FJ"},
  {"id": "uni-nmite", "type": "university", "name": "New Model Institute for Technology and Engineering", "lat": 52.0566, "lng": -2.716, "address": "Hereford HR4 0BE"},
  {"id": "uni-warwickshirecollege", "type": "university", "name": "Warwickshire College", "lat": 52.2877, "lng": -1.5843, "address": "Warwick New Rd, Leamington Spa CV32 5JE"}
]
