[
  {"id": "uni-leeds", "type": "university", "name": "University of Leeds", "lat": 53.807974, "lng": -1.553334, "address": "Woodhouse, Leeds LS2 9JT", "place_id": "ChIJryWK2gJceUgR-Wrph4RHiNM"},
  {"id": "uni-sheffield", "type": "university", "name": "University of Sheffield", "lat": 53.38135, "lng": -1.488423, "address": "Western Bank, Sheffield S10 2TN", "place_id": "ChIJT4jycXiCeUgRYzbDNIse7Mk"},
  {"id": "uni-york", "type": "university", "name": "University of York", "lat": 53.946109, "lng": -1.051772, "address": "Heslington, York YO10 5DD", "place_id": "ChIJ86Z4SjIweUgRGB353YHhXuU"},
  {"id": "uni-hull", "type": "university", "name": "University of Hull", "lat": 53.772367, "lng": -0.366822, "address": "Cottingham Rd, Hull HU6 7RX", "place_id": "ChIJia9E9KG_eEgRvekId9WdXi0"},
  {"id": "uni-bradford", "type": "university", "name": "University of Bradford", "lat": 53.791468, "lng": -1.766069, "address": "Richmond Rd, Bradford BD7 1DP", "place_id": "ChIJKzxqibXme0gR0o7kCysgHD4"},
  {"id": "uni-huddersfield", "type": "university", "name": "University of Huddersfield", "lat": 53.642829, "lng": -1.778098, "address": "Queensgate, Huddersfield HD1 3DH", "place_id": "ChIJgTPIFnPce0gRHxWLbCsDL2I"},
  {"id": "uni-sheffhalm", "type": "university", "name": "Sheffield Hallam University", "lat": 53.378475, "lng": -1.466468, "address": "Howard St, Sheffield City Centre, Sheffield S1 1WB", "place_id": "ChIJ6UMiG4OCeUgRT75XbwjRrTc"},
  {"id": "uni-leedsbeckett", "type": "university", "name": "Leeds Beckett University", "lat": 53.803609, "lng": -1.547267, "address": "Leeds LS1 3HE", "place_id": "ChIJryWK2gJceUgRWinnpiWqOMQ"},
  {"id": "uni-leedstrinity", "type": "university", "name": "Leeds Trinity University", "lat": 53.848254, "lng": -1.645257, "address": "Brownberrie Ln, Horsforth, Leeds LS18 5HD", "place_id": "ChIJKxAJdI9YeUgRKvfAzN80xmk"},
  {"id": "uni-yorkstjohn", "type": "university", "name": "York St John University", "lat": 53.966254, "lng": -1.082876, "address": "Lord Mayor's Walk, York YO31 7EX", "place_id": "ChIJkfJXla8xeUgRxtAnbv2yjbA"},
  {"id": "uni-leedsarts", "type": "university", "name": "Leeds Arts University", "lat": 53.808845, "lng": -1.551577, "address": "Blenheim Walk, Woodhouse, Leeds LS2 9AQ", "place_id": "ChIJT8Me_wFceUgROFqcHMdskus"},
  {"id": "uni-nscd", "type": "university", "name": "Northern School of Contemporary Dance", "lat": 53.81321, "lng": -1.533423, "address": "98 Chapeltown Rd, Leeds LS7 4BH", "place_id": "ChIJq2L37wlceUgRyrSYR2aPYnw"},
  {"id": "uni-luminate", "type": "university", "name": "Luminate Education Group", "lat": 53.800137, "lng": -1.558465, "address": "Park Ln, Woodhouse, Leeds LS1 3AA", "place_id": "ChIJmdsugJdfeUgRGRUNoHUImPQ"},
  {"id": "uni-tec", "type": "university", "name": "TEC Partnership", "lat": 53.553722, "lng": -0.092765, "address": "Grimsby Institute Nuns Corner, Grimsby DN34 5BQ", "place_id": "ChIJQ0ZQMq2DeEgRiyHNAqrPVO4"}
]
