[
  {"id":"uni-cambridge","type":"university","name":"University of Cambridge","lat":52.2054,"lng":0.1132,"address":"The Old Schools, Trinity Lane, Cambridge CB2 1TN"},
  {"id":"uni-openuni","type":"university","name":"The Open University","lat":52.0241,"lng":-0.7087,"address":"Walton Hall, Milton Keynes MK7 6AA"},
  {"id":"uni-uea","type":"university","name":"University of East Anglia","lat":52.6212,"lng":1.2386,"address":"Norwich Research Park, Norwich NR4 7TJ"},
  {"id":"uni-essex","type":"university","name":"University of Essex","lat":51.8779,"lng":0.9412,"address":"Wivenhoe Park, Colchester CO4 3SQ"},
  {"id":"uni-hertfordshire","type":"university","name":"University of Hertfordshire","lat":51.7510,"lng":-0.2430,"address":"College Lane, Hatfield AL10 9AB"},
  {"id":"uni-angliaru","type":"university","name":"Anglia Ruskin University","lat":52.2024,"lng":0.1302,"address":"East Rd, Cambridge CB1 1PT"},
  {"id":"uni-bedfordshire","type":"university","name":"University of Bedfordshire","lat":51.8793,"lng":-0.4201,"address":"Park Square, Luton LU1 3JU"},
  {"id":"uni-cranfield","type":"university","name":"Cranfield University","lat":52.0722,"lng":-0.6276,"address":"Cranfield, Bedford MK43 0AL"},
  {"id":"uni-suffolk","type":"university","name":"University of Suffolk","lat":52.0560,"lng":1.1490,"address":"Waterfront Building, Ipswich IP4 1QJ"},
  {"id":"uni-norwich-arts","type":"university","name":"Norwich University of the Arts","lat":52.6311,"lng":1.2990,"address":"Francis House, Norwich NR2 4SN"}
]
