[
  {"id": "uni-ucl", "type": "university", "name": "University College London", "lat": 51.524559, "lng": -0.13404, "address": "Gower St, London WC1E 6BT", "place_id": "ChIJeTUXaS8bdkgRPhPMrn_GCNA"},
  {"id": "uni-kcl", "type": "university", "name": "King's College London", "lat": 51.511486, "lng": -0.115997, "address": "Strand, London WC2R 2LS", "place_id": "ChIJ3VW0o7UEdkgRjZLQfvs-ZLA"},
  {"id": "uni-lse", "type": "university", "name": "London School of Economics", "lat": 51.514439, "lng": -0.116451, "address": "Houghton St, London WC2A 2AE", "place_id": "ChIJWwWza3sadkgR77gsD5ccs70"},
  {"id": "uni-imperial", "type": "university", "name": "Imperial College London", "lat": 51.498822, "lng": -0.174873, "address": "Exhibition Rd, South Kensington, London SW7 2AZ", "place_id": "ChIJAQoi2mcFdkgRhi5pHDcbkTE"},
  {"id": "uni-qmul", "type": "university", "name": "Queen Mary University of London", "lat": 51.523711, "lng": -0.040729, "address": "327 Mile End Rd, Bethnal Green, London E1 4NS", "place_id": "ChIJ3UC7Ti8ddkgRGQUSM96nzMA"},
  {"id": "uni-birkbeck", "type": "university", "name": "Birkbeck, University of London", "lat": 51.521968, "lng": -0.130254, "address": "Malet St, London WC1E 7HX", "place_id": "ChIJo_OLHzEbdkgR7kXAO6sseGI"},
  {"id": "uni-goldsmiths", "type": "university", "name": "Goldsmiths, University of London", "lat": 51.474277, "lng": -0.035417, "address": "8 Lewisham Way, London SE14 6NW", "place_id": "ChIJz9IbH_gCdkgR-NcAI13_LOs"},
  {"id": "uni-soas", "type": "university", "name": "SOAS University of London", "lat": 51.52235, "lng": -0.129259, "address": "10 Thornhaugh St, London WC1H 0XG", "place_id": "ChIJGQ8e2zEbdkgRC7j1E4dT2xQ"},
  {"id": "uni-rhul", "type": "university", "name": "Royal Holloway, University of London", "lat": 51.42471, "lng": -0.566749, "address": "Egham Hill, Egham TW20 0EX", "place_id": "ChIJyXTO81V3dkgRaEXYSwg5Q9A"},
  {"id": "uni-lbs", "type": "university", "name": "London Business School", "lat": 51.526162, "lng": -0.160749, "address": "The, London NW1 4SA", "place_id": "ChIJG9WdMMYadkgRI3crwPFSnL8"},
  {"id": "uni-lshtm", "type": "university", "name": "London School of Hygiene and Tropical Medicine", "lat": 51.520646, "lng": -0.12997, "address": "Keppel St, London WC1E 7HT", "place_id": "ChIJGbU32jEbdkgRAJ-__zvTiYA"},
  {"id": "uni-ram", "type": "university", "name": "Royal Academy of Music", "lat": 51.523423, "lng": -0.15168, "address": "Royal Academy of Music, 1–5 York Gate, Marylebone Rd, London NW1 5HT", "place_id": "ChIJRf8cOtAadkgRfySDbVaUNzE"},
  {"id": "uni-rvc", "type": "university", "name": "Royal Veterinary College", "lat": 51.713813, "lng": -0.210257, "address": "Hawkshead Ln, Brookmans Park, Hatfield AL9 7TA", "place_id": "ChIJT6X95jw9dkgRCUJkgWVvx1Q"},
  {"id": "uni-icr", "type": "university", "name": "The Institute of Cancer Research", "lat": 51.490874, "lng": -0.181295, "address": "Institute of Cancer Research, 123 Old Brompton Rd, South Kensington, London SW7 3RP"},
  {"id": "uni-courtauld", "type": "university", "name": "Courtauld Institute of Art", "lat": 51.530162, "lng": -0.114648, "address": "Vernon Square, Penton Rise, London WC1X 9EW", "place_id": "ChIJw6RBJUcbdkgRaBLln6Z02us"},
  {"id": "uni-city", "type": "university", "name": "City St George's, University of London", "lat": 51.527972, "lng": -0.102462, "address": "Northampton Square, London EC1V 0HB", "place_id": "ChIJUTPYsaccdkgRgyqyCsIZDVc"},
  {"id": "uni-brunel", "type": "university", "name": "Brunel University of London", "lat": 51.532139, "lng": -0.472749, "address": "Campus, Kingston Ln, Uxbridge UB8 3PH", "place_id": "ChIJH3XMbwpudkgRenrfZcPl6kM"},
  {"id": "uni-uel", "type": "university", "name": "University of East London", "lat": 51.507623, "lng": 0.065065, "address": "University Way, London E16 2RD", "place_id": "ChIJ6TKW15uo2EcR0CZiTHPuodI"},
  {"id": "uni-greenwich", "type": "university", "name": "University of Greenwich", "lat": 51.482987, "lng": -0.006388, "address": "Old Royal Naval College, Park Row, London SE10 9LS", "place_id": "ChIJIzVESoQCdkgRCkNlixKBUZ8"},
  {"id": "uni-middlesex", "type": "university", "name": "Middlesex University", "lat": 51.589711, "lng": -0.229349, "address": "The Burroughs, London NW4 4BT", "place_id": "ChIJV4asCIsQdkgRfeJZc5UbJMY"},
  {"id": "uni-lsbu", "type": "university", "name": "London South Bank University", "lat": 51.49792, "lng": -0.101759, "address": "103 Borough Rd, London SE1 0AA", "place_id": "ChIJldb7OqAEdkgR5FfD5fcOr_8"},
  {"id": "uni-uwl", "type": "university", "name": "University of West London", "lat": 51.506533, "lng": -0.303929, "address": "St Mary's Rd, London W5 5RF", "place_id": "ChIJ_V1cA_MNdkgROBTyzDQjL0I"},
  {"id": "uni-westminster", "type": "university", "name": "University of Westminster", "lat": 51.516984, "lng": -0.143179, "address": "309 Regent St., London W1B 2HW", "place_id": "ChIJ-RweG9UadkgRBqsmw6hEdcw"},
  {"id": "uni-londonmet", "type": "university", "name": "London Metropolitan University", "lat": 51.552088, "lng": -0.111419, "address": "166-220 Holloway Rd, London N7 8DB", "place_id": "ChIJI8pjP00DdkgRxzRetudegMM"},
  {"id": "uni-roehampton", "type": "university", "name": "University of Roehampton", "lat": 51.45634, "lng": -0.24465, "address": "Roehampton Ln, London SW15 5PH", "place_id": "ChIJ60LCwOYOdkgRvyt1gc5lVjo"},
  {"id": "uni-kingston", "type": "university", "name": "Kingston University", "lat": 51.403236, "lng": -0.303485, "address": "55-59 Penrhyn Rd, Kingston upon Thames KT1 2EE", "place_id": "ChIJ2VnVBb8LdkgRsRCVKCnWZCo"},
  {"id": "uni-stmarys", "type": "university", "name": "St Mary's University, Twickenham", "lat": 51.436299, "lng": -0.3345, "address": "Waldegrave Rd, Twickenham TW1 4SX", "place_id": "ChIJhZkiP4QMdkgReWLuHsEBNa0"},
  {"id": "uni-ual", "type": "university", "name": "University of the Arts London", "lat": 51.517788, "lng": -0.116367, "address": "272 High Holborn, London WC1V 7EY", "place_id": "ChIJ1TUjujUbdkgR5Rd30q8j7yY"},
  {"id": "uni-ravensbourne", "type": "university", "name": "Ravensbourne University London", "lat": 51.501735, "lng": 0.005539, "address": "6 Penrose Way, London SE10 0EW", "place_id": "ChIJI_5texyo2EcR4qykpgxMHsM"},
  {"id": "uni-rca", "type": "university", "name": "Royal College of Art", "lat": 51.501144, "lng": -0.179285, "address": "Kensington Gore, South Kensington, London SW7 2EU", "place_id": "ChIJM8PHBFsFdkgRFJMllTutvtg"},
  {"id": "uni-rcm", "type": "university", "name": "Royal College of Music", "lat": 51.499441, "lng": -0.177087, "address": "Prince Consort Rd, South Kensington, London SW7 2BS", "place_id": "ChIJbdvSeVsFdkgRcmnwiG3O7wE"},
  {"id": "uni-cssd", "type": "university", "name": "Royal Central School of Speech and Drama", "lat": 51.544277, "lng": -0.174316, "address": "Eton Ave, Belsize Park, London NW3 3HY", "place_id": "ChIJwxhwUJAadkgRwzJ0VK9J4w4"},
  {"id": "uni-trinitylaban", "type": "university", "name": "Trinity Laban Conservatoire of Music and Dance", "lat": 51.483119, "lng": -0.006461, "address": "Old Royal Naval College, Romney Rd, London SE10 9JF", "place_id": "ChIJYcvvSpsCdkgRS5HpddfGaXY"},
  {"id": "uni-gsmd", "type": "university", "name": "Guildhall School of Music and Drama", "lat": 51.519804, "lng": -0.091867, "address": "Silk St, London EC2Y 8DT", "place_id": "ChIJZZ5T0qscdkgRPcWM-KCWJac"},
  {"id": "uni-lamda", "type": "university", "name": "London Academy of Music and Dramatic Art (LAMDA)", "lat": 51.490595, "lng": -0.215481, "address": "155 Talgarth Rd, London W14 9DA", "place_id": "ChIJ3wx45r4PdkgRZfDeYZTcMkQ"},
  {"id": "uni-rada", "type": "university", "name": "Royal Academy of Dramatic Art (RADA)", "lat": 51.521806, "lng": -0.131332, "address": "62-64 Gower St, London WC1E 6ED", "place_id": "ChIJ5dfBXC4bdkgRrP6PWiyvTvg"},
  {"id": "uni-regents", "type": "university", "name": "Regent's University London", "lat": 51.526006, "lng": -0.154636, "address": "Inner Cir, London NW1 4NS", "place_id": "ChIJE168bNIadkgRk2D9eBOAvV4"},
  {"id": "uni-richmond", "type": "university", "name": "Richmond American University London", "lat": 51.493256, "lng": -0.27393, "address": "Building 12, 566 Chiswick Park, Chiswick High Rd., Chiswick, London W4 5AN", "place_id": "ChIJERfsfD0MdkgR5M6z-w_qoU4"},
  {"id": "uni-bimm", "type": "university", "name": "BIMM University", "lat": 51.479451, "lng": -0.196612, "address": "Barclay House, 21 Effie Rd, London SW6 1EN", "place_id": "ChIJreHdLT0OdkgRNh-gtF9OS-o"},
  {"id": "uni-northeastern", "type": "university", "name": "Northeastern University London", "lat": 51.506094, "lng": -0.071288, "address": "Devon House, 58 St Katharine's Way, London E1W 1LP", "place_id": "ChIJe6C5ojYbdkgRmoTX30JC_j4"},
  {"id": "uni-londonfilm", "type": "university", "name": "London Film School", "lat": 51.516229, "lng": -0.121337, "address": "39-41 Parker St, London WC2B 5PQ", "place_id": "ChIJl-7I58wEdkgR7nTExpLqRqM"},
  {"id": "uni-spjain", "type": "university", "name": "S P Jain London School of Management", "lat": 51.498825, "lng": -0.014481, "address": "2 Harbour Exchange Square, London E14 9GE", "place_id": "ChIJsyYAE_cDdkgRNfjkHcUPDa8"},
  {"id": "uni-lsa", "type": "university", "name": "The London School of Architecture", "lat": 51.544394, "lng": -0.073451, "address": "Trinity Centre Dalston, Beechwood Rd, London E8 3DY", "place_id": "ChIJw4c5MdYddkgRjMb4mb92wHg"},
  {"id": "uni-icmp", "type": "university", "name": "Institute of Contemporary Music Performance", "lat": 51.544457, "lng": -0.20221, "address": "1B Dyne Rd, London NW6 7XG", "place_id": "ChIJU509Hm8QdkgRWuZJ9kWbHcY"},
  {"id": "uni-lis", "type": "university", "name": "London Interdisciplinary School", "lat": 51.516892, "lng": -0.067486, "address": "Shadwell, London E1 1EW", "place_id": "ChIJTzDyQZMddkgRslnFcFia_v8"},
  {"id": "uni-lcds", "type": "university", "name": "London Contemporary Dance School", "lat": 51.527796, "lng": -0.128048, "address": "The Place, Flaxman Terrace, London WC1H 9AT", "place_id": "ChIJOfnHzTobdkgRkZ5IgvyY0wo"},
  {"id": "uni-nationalcircus", "type": "university", "name": "National Centre for Circus Arts", "lat": 51.527531, "lng": -0.082558, "address": "Coronet St, London N1 6HD", "place_id": "ChIJq3LWL6UcdkgRGDvK3qlXcCM"},
  {"id": "uni-centralballet", "type": "university", "name": "Central School of Ballet", "lat": 51.505537, "lng": -0.106545, "address": "21 – 22 Hatfields, Paris Garden, London SE1 8DJ", "place_id": "ChIJoSNl-E4bdkgRrc64ufAWZt8"},
  {"id": "uni-walbrook", "type": "university", "name": "Walbrook Institute London", "lat": 51.509925, "lng": -0.084045, "address": "25 Lovat Ln, London EC3R 8EB", "place_id": "ChIJsyGzf1EDdkgRt1oHAGy85cg"},
  {"id": "uni-asu", "type": "university", "name": "ASU London", "lat": 51.496884, "lng": -0.041749, "address": "11 Quebec Way, London SE16 7LG", "place_id": "ChIJU1gz1SYDdkgRlSEcjMqdyGY"},
  {"id": "uni-aa", "type": "university", "name": "Architectural Association School of Architecture", "lat": 51.518263, "lng": -0.13078, "address": "36 Bedford Square, London WC1B 3ES", "place_id": "ChIJr6fNvC0bdkgR-MC9QftBfjc"},
  {"id": "uni-escp", "type": "university", "name": "ESCP Business School", "lat": 51.555236, "lng": -0.193141, "address": "527 Finchley Rd, London NW3 7BG", "place_id": "ChIJl6qndn4QdkgRAp9gIV5v1B4"},
  {"id": "uni-hult", "type": "university", "name": "Hult International Business School", "lat": 51.521326, "lng": -0.115188, "address": "37-38 John St, London WC1N 2AT", "place_id": "ChIJg5l3mUkbdkgRvPFz42HCgA4"},
  {"id": "uni-multiverse", "type": "university", "name": "Multiverse", "lat": 51.51758, "lng": -0.180429, "address": "2 Eastbourne Terrace, London W2 6LG", "place_id": "ChIJrRtcvTQFdkgRpHbPI8pTl_s"},
  {"id": "uni-nit", "type": "university", "name": "National Institute of Teaching", "lat": 51.416716, "lng": -0.039932, "address": "170 Lennard Rd, Beckenham BR3 1QP", "place_id": "ChIJf2rcuqgBdkgRBGlpRGQK-2s"}
]
