[
  {"id":"uni-ucl","type":"university","name":"University College London","lat":51.5246,"lng":-0.1340,"address":"Gower St, London WC1E 6BT"},
  {"id":"uni-kcl","type":"university","name":"King's College London","lat":51.5116,"lng":-0.1160,"address":"Strand, London WC2R 2LS"},
  {"id":"uni-lse","type":"university","name":"London School of Economics","lat":51.5144,"lng":-0.1165,"address":"Houghton St, London WC2A 2AE"},
  {"id":"uni-imperial","type":"university","name":"Imperial College London","lat":51.4988,"lng":-0.1749,"address":"Exhibition Rd, London SW7 2AZ"},
  {"id":"uni-qmul","type":"university","name":"Queen Mary University of London","lat":51.5238,"lng":-0.0402,"address":"Mile End Rd, London E1 4NS"},
  {"id":"uni-birkbeck","type":"university","name":"Birkbeck, University of London","lat":51.5219,"lng":-0.1302,"address":"Malet St, London WC1E 7HX"},
  {"id":"uni-goldsmiths","type":"university","name":"Goldsmiths, University of London","lat":51.4742,"lng":-0.0369,"address":"New Cross, London SE14 6NW"},
  {"id":"uni-soas","type":"university","name":"SOAS University of London","lat":51.5218,"lng":-0.1304,"address":"Thornhaugh St, London WC1H 0XG"},
  {"id":"uni-rhul","type":"university","name":"Royal Holloway, University of London","lat":51.4256,"lng":-0.5651,"address":"Egham Hill, Egham TW20 0EX"},
  {"id":"uni-lbs","type":"university","name":"London Business School","lat":51.5234,"lng":-0.1571,"address":"Regent's Park, London NW1 4SA"},
  {"id":"uni-lshtm","type":"university","name":"London School of Hygiene and Tropical Medicine","lat":51.5207,"lng":-0.1307,"address":"Keppel St, London WC1E 7HT"},
  {"id":"uni-ram","type":"university","name":"Royal Academy of Music","lat":51.5237,"lng":-0.1527,"address":"Marylebone Rd, London NW1 5HT"},
  {"id":"uni-rvc","type":"university","name":"Royal Veterinary College","lat":51.7114,"lng":-0.2147,"address":"Hawkshead Lane, Hertfordshire AL9 7TA"},
  {"id":"uni-icr","type":"university","name":"The Institute of Cancer Research","lat":51.4884,"lng":-0.1724,"address":"123 Old Brompton Rd, London SW7 3RP"},
  {"id":"uni-courtauld","type":"university","name":"Courtauld Institute of Art","lat":51.5110,"lng":-0.1170,"address":"Somerset House, Strand, London WC2R 0RN"},
  {"id":"uni-city","type":"university","name":"City St George's, University of London","lat":51.5279,"lng":-0.1022,"address":"Northampton Square, London EC1V 0HB"},
  {"id":"uni-brunel","type":"university","name":"Brunel University of London","lat":51.5322,"lng":-0.4754,"address":"Kingston Lane, Uxbridge UB8 3PH"},
  {"id":"uni-uel","type":"university","name":"University of East London","lat":51.5088,"lng":0.0602,"address":"University Way, London E16 2RD"},
  {"id":"uni-greenwich","type":"university","name":"University of Greenwich","lat":51.4826,"lng":0.0046,"address":"Old Royal Naval College, London SE10 9LS"},
  {"id":"uni-middlesex","type":"university","name":"Middlesex University","lat":51.5891,"lng":-0.2280,"address":"The Burroughs, London NW4 4BT"},
  {"id":"uni-lsbu","type":"university","name":"London South Bank University","lat":51.4990,"lng":-0.1020,"address":"103 Borough Rd, London SE1 0AA"},
  {"id":"uni-uwl","type":"university","name":"University of West London","lat":51.4966,"lng":-0.3411,"address":"St Mary's Rd, Ealing W5 5RF"},
  {"id":"uni-westminster","type":"university","name":"University of Westminster","lat":51.5169,"lng":-0.1440,"address":"309 Regent St, London W1B 2HW"},
  {"id":"uni-londonmet","type":"university","name":"London Metropolitan University","lat":51.5474,"lng":-0.0723,"address":"166-220 Holloway Rd, London N7 8DB"},
  {"id":"uni-roehampton","type":"university","name":"University of Roehampton","lat":51.4590,"lng":-0.2420,"address":"Erasmus House, London SW15 5PU"},
  {"id":"uni-kingston","type":"university","name":"Kingston University","lat":51.4120,"lng":-0.3010,"address":"Penrhyn Rd, Kingston KT1 2EE"},
  {"id":"uni-stmarys","type":"university","name":"St Mary's University, Twickenham","lat":51.4452,"lng":-0.3362,"address":"Waldegrave Rd, Twickenham TW1 4SX"},
  {"id":"uni-ual","type":"university","name":"University of the Arts London","lat":51.5175,"lng":-0.1220,"address":"272 High Holborn, London WC1V 7EY"},
  {"id":"uni-ravensbourne","type":"university","name":"Ravensbourne University London","lat":51.5022,"lng":0.0060,"address":"6 Penrose Way, London SE10 0EW"},
  {"id":"uni-rca","type":"university","name":"Royal College of Art","lat":51.5014,"lng":-0.1772,"address":"Kensington Gore, London SW7 2EU"},
  {"id":"uni-rcm","type":"university","name":"Royal College of Music","lat":51.4993,"lng":-0.1780,"address":"Prince Consort Rd, London SW7 2BS"},
  {"id":"uni-cssd","type":"university","name":"Royal Central School of Speech and Drama","lat":51.5441,"lng":-0.1757,"address":"Embassy Theatre, London NW3 3HY"},
  {"id":"uni-trinitylaban","type":"university","name":"Trinity Laban Conservatoire of Music and Dance","lat":51.4843,"lng":-0.0089,"address":"King Charles Court, London SE10 9JF"},
  {"id":"uni-gsmd","type":"university","name":"Guildhall School of Music and Drama","lat":51.5201,"lng":-0.0963,"address":"Silk St, London EC2Y 8DT"},
  {"id":"uni-lamda","type":"university","name":"London Academy of Music and Dramatic Art (LAMDA)","lat":51.4920,"lng":-0.2140,"address":"155 Talgarth Rd, London W14 0RF"},
  {"id":"uni-rada","type":"university","name":"Royal Academy of Dramatic Art (RADA)","lat":51.5228,"lng":-0.1321,"address":"62 Gower St, London WC1E 6ED"},
  {"id":"uni-regents","type":"university","name":"Regent's University London","lat":51.5269,"lng":-0.1536,"address":"Inner Circle, Regent's Park NW1 4NS"},
  {"id":"uni-richmond","type":"university","name":"Richmond American University London","lat":51.4454,"lng":-0.3036,"address":"Queens Rd, Richmond TW10 6JP"},
  {"id":"uni-bimm","type":"university","name":"BIMM University","lat":51.5278,"lng":-0.0998,"address":"25 Worship St, London EC2A 2DX"},
  {"id":"uni-northeastern","type":"university","name":"Northeastern University London","lat":51.5221,"lng":-0.0877,"address":"Devon House, London EC2A 1NT"},
  {"id":"uni-aru-london","type":"university","name":"Anglia Ruskin University (London campus)","lat":51.5155,"lng":-0.0874,"address":"Bishop's Square, London E1"},
  {"id":"uni-londonfilm","type":"university","name":"London Film School","lat":51.5137,"lng":-0.1283,"address":"24 Shelton St, London WC2H 9JN"},
  {"id":"uni-spjain","type":"university","name":"S P Jain London School of Management","lat":51.5293,"lng":-0.1425,"address":"London NW1 5LS"},
  {"id":"uni-lsa","type":"university","name":"The London School of Architecture","lat":51.5370,"lng":-0.1073,"address":"Unit 10, N1 6AR"},
  {"id":"uni-icmp","type":"university","name":"Institute of Contemporary Music Performance","lat":51.5474,"lng":-0.1135,"address":"London N7"},
  {"id":"uni-lis","type":"university","name":"London Interdisciplinary School","lat":51.5155,"lng":-0.0703,"address":"London E1 6RF"},
  {"id":"uni-lcds","type":"university","name":"London Contemporary Dance School","lat":51.5310,"lng":-0.1227,"address":"The Place, London WC1H 9QU"},
  {"id":"uni-nationalcircus","type":"university","name":"National Centre for Circus Arts","lat":51.5275,"lng":-0.1045,"address":"Coronet St, London EC1R 4TN"},
  {"id":"uni-centralballet","type":"university","name":"Central School of Ballet","lat":51.5275,"lng":-0.1045,"address":"London EC1R 1PX"},
  {"id":"uni-walbrook","type":"university","name":"Walbrook Institute London","lat":51.5123,"lng":-0.0912,"address":"London EC4N 8AF"},
  {"id":"uni-asu","type":"university","name":"ASU London","lat":51.5130,"lng":-0.0830,"address":"London EC2A"}
]
