[{"id":"uni-10007713","type":"university","name":"York St John University","postcode":"YO31 7EX","lat":53.9632,"lng":-1.0735,"address":""},{"id":"uni-10003863","type":"university","name":"Leeds Trinity University","postcode":"LS18 5HD","lat":53.8601,"lng":-1.651,"address":""},{"id":"uni-10007148","type":"university","name":"The University of Huddersfield","postcode":"HD1 3DH","lat":53.6456,"lng":-1.778,"address":""},{"id":"uni-10003861","type":"university","name":"Leeds Beckett University","postcode":"LS1 3HE","lat":53.8008,"lng":-1.549,"address":""},{"id":"uni-10005790","type":"university","name":"Sheffield Hallam University","postcode":"S1 1WB","lat":53.378,"lng":-1.4657,"address":""},{"id":"uni-10007785","type":"university","name":"The University of Bradford","postcode":"BD7 1DP","lat":53.7878,"lng":-1.7517,"address":""},{"id":"uni-10007149","type":"university","name":"The University of Hull","postcode":"HU6 7RX","lat":53.7706,"lng":-0.3644,"address":""},{"id":"uni-10007795","type":"university","name":"The University of Leeds","postcode":"LS2 9JT","lat":53.8066,"lng":-1.555,"address":""},{"id":"uni-10007157","type":"university","name":"The University of Sheffield","postcode":"S10 2TN","lat":53.3811,"lng":-1.4874,"address":""},{"id":"uni-10007167","type":"university","name":"The University of York","postcode":"YO10 5DD","lat":53.9454,"lng":-1.029,"address":""},{"id":"uni-10008816","type":"university","name":"Northern School of Contemporary Dance","postcode":"LS6 2LF","lat":53.8175,"lng":-1.544,"address":""},{"id":"uni-10003854","type":"university","name":"Leeds Arts University","postcode":"LS6 2LF","lat":53.8175,"lng":-1.544,"address":""},{"id":"uni-10034449","type":"university","name":"Leeds Conservatoire","postcode":"LS2 7NT","lat":53.7978,"lng":-1.5443,"address":""},{"id":"uni-extra-Cliff_College","type":"university","name":"Cliff College","postcode":"S32 3XG","lat":53.3098,"lng":-1.8041,"address":""}]