[
  {"id": "uni-edinburgh", "type": "university", "name": "University of Edinburgh", "lat": 55.9445, "lng": -3.1892, "address": "Old College, South Bridge, Edinburgh EH8 9YL"},
  {"id": "uni-glasgow", "type": "university", "name": "University of Glasgow", "lat": 55.8721, "lng": -4.2882, "address": "University Ave, Glasgow G12 8QQ"},
  {"id": "uni-standrews", "type": "university", "name": "University of St Andrews", "lat": 56.3398, "lng": -2.797, "address": "College Gate, St Andrews KY16 9AJ"},
  {"id": "uni-aberdeen", "type": "university", "name": "University of Aberdeen", "lat": 57.1656, "lng": -2.1007, "address": "King's College, Aberdeen AB24 3FX"},
  {"id": "uni-dundee", "type": "university", "name": "University of Dundee", "lat": 56.4561, "lng": -2.9788, "address": "Nethergate, Dundee DD1 4HN"},
  {"id": "uni-strathclyde", "type": "university", "name": "University of Strathclyde", "lat": 55.8614, "lng": -4.2441, "address": "16 Richmond St, Glasgow G1 1XQ"},
  {"id": "uni-heriotwatt", "type": "university", "name": "Heriot-Watt University", "lat": 55.9093, "lng": -3.3213, "address": "Edinburgh EH14 4AS"},
  {"id": "uni-glasgowcal", "type": "university", "name": "Glasgow Caledonian University", "lat": 55.8661, "lng": -4.2514, "address": "Cowcaddens Rd, Glasgow G4 0BA"},
  {"id": "uni-napier", "type": "university", "name": "Edinburgh Napier University", "lat": 55.9286, "lng": -3.2196, "address": "Craiglockhart Campus, Edinburgh EH14 1DJ"},
  {"id": "uni-rgu", "type": "university", "name": "Robert Gordon University", "lat": 57.1386, "lng": -2.1218, "address": "Garthdee Rd, Aberdeen AB10 7QB"},
  {"id": "uni-stirling", "type": "university", "name": "University of Stirling", "lat": 56.1436, "lng": -3.919, "address": "Stirling FK9 4LA"},
  {"id": "uni-wos", "type": "university", "name": "University of the West of Scotland", "lat": 55.845, "lng": -4.4234, "address": "High St, Paisley PA1 2BE"},
  {"id": "uni-abertay", "type": "university", "name": "Abertay University", "lat": 56.4604, "lng": -2.972, "address": "Bell St, Dundee DD1 1HG"},
  {"id": "uni-qmu", "type": "university", "name": "Queen Margaret University", "lat": 55.9387, "lng": -3.0628, "address": "Musselburgh, Edinburgh EH21 6UU"},
  {"id": "uni-uhi", "type": "university", "name": "University of the Highlands and Islands", "lat": 57.4778, "lng": -4.2247, "address": "Ness Walk, Inverness IV3 5SQ"},
  {"id": "uni-rcs", "type": "university", "name": "Royal Conservatoire of Scotland", "lat": 55.8664, "lng": -4.255, "address": "100 Renfrew St, Glasgow G2 3DB"}
]
