[
  {"id":"uni-10007777","type":"university","name":"Royal College of Art","postcode":"SW7 2EU","lat":51.5014,"lng":-0.1772,"address":""},
  {"id":"uni-10007816","type":"university","name":"Royal Central School of Speech and Drama","postcode":"NW3 3HY","lat":51.5441,"lng":-0.1757,"address":""},
  {"id":"uni-10007162","type":"university","name":"University of the Arts London","postcode":"WC1V 7EY","lat":51.52,"lng":-0.098,"address":""},
  {"id":"uni-10005389","type":"university","name":"Ravensbourne University London","postcode":"SE10 0EW","lat":51.502,"lng":0.006,"address":""},
  {"id":"uni-10007776","type":"university","name":"University of Roehampton","postcode":"SW15 5PU","lat":51.459,"lng":-0.242,"address":""},
  {"id":"uni-10007835","type":"university","name":"Royal Academy of Music","postcode":"NW1 5HT","lat":51.5237,"lng":-0.1527,"address":""},
  {"id":"uni-10007778","type":"university","name":"Royal College of Music","postcode":"SW7 2BS","lat":51.4993,"lng":-0.178,"address":""},
  {"id":"uni-10008017","type":"university","name":"Trinity Laban Conservatoire of Music and Dance","postcode":"SE10 9JF","lat":51.4843,"lng":-0.0089,"address":""},
  {"id":"uni-10007144","type":"university","name":"University of East London","postcode":"E16 2RD","lat":51.5088,"lng":0.0602,"address":""},
  {"id":"uni-10007146","type":"university","name":"University of Greenwich","postcode":"SE10 9LS","lat":51.4826,"lng":0.0046,"address":""},
  {"id":"uni-10004351","type":"university","name":"Middlesex University","postcode":"N14 4YZ","lat":51.591,"lng":-0.228,"address":""},
  {"id":"uni-10004078","type":"university","name":"London South Bank University","postcode":"SE1 0AA","lat":51.499,"lng":-0.102,"address":""},
  {"id":"uni-10006566","type":"university","name":"University of West London","postcode":"W5 5RF","lat":51.4966,"lng":-0.3411,"address":""},
  {"id":"uni-10007165","type":"university","name":"University of Westminster","postcode":"W1B 2HW","lat":51.5169,"lng":-0.144,"address":""},
  {"id":"uni-10001478","type":"university","name":"City St George's, University of London","postcode":"EC1V 0HB","lat":51.5279,"lng":-0.1022,"address":""},
  {"id":"uni-10007760","type":"university","name":"Birkbeck, University of London","postcode":"WC1E 7HX","lat":51.5219,"lng":-0.1302,"address":""},
  {"id":"uni-10002718","type":"university","name":"Goldsmiths, University of London","postcode":"SE14 6NW","lat":51.4742,"lng":-0.0369,"address":""},
  {"id":"uni-10003270","type":"university","name":"Imperial College London","postcode":"SW7 2AZ","lat":51.4988,"lng":-0.1749,"address":""},
  {"id":"uni-10003645","type":"university","name":"King's College London","postcode":"WC2R 2LS","lat":51.5115,"lng":-0.116,"address":""},
  {"id":"uni-10007769","type":"university","name":"London Business School","postcode":"NW1 4SA","lat":51.5234,"lng":-0.1571,"address":""},
  {"id":"uni-10004063","type":"university","name":"London School of Economics and Political Science","postcode":"WC2A 2AE","lat":51.5144,"lng":-0.1165,"address":""},
  {"id":"uni-10007771","type":"university","name":"London School of Hygiene and Tropical Medicine","postcode":"WC1E 7HT","lat":51.5207,"lng":-0.1307,"address":""},
  {"id":"uni-10007775","type":"university","name":"Queen Mary University of London","postcode":"E1 4NS","lat":51.5238,"lng":-0.0402,"address":""},
  {"id":"uni-10007780","type":"university","name":"SOAS University of London","postcode":"WC1H 0XG","lat":51.5218,"lng":-0.1304,"address":""},
  {"id":"uni-10007784","type":"university","name":"University College London","postcode":"WC1E 6BT","lat":51.5246,"lng":-0.134,"address":""},
  {"id":"uni-10007797","type":"university","name":"University of London","postcode":"WC1E 7HU","lat":51.5223,"lng":-0.1299,"address":""},
  {"id":"uni-10003324","type":"university","name":"The Institute of Cancer Research","postcode":"SW7 3RP","lat":51.4884,"lng":-0.1724,"address":""},
  {"id":"uni-10007761","type":"university","name":"Courtauld Institute of Art","postcode":"WC2R 0RN","lat":51.511,"lng":-0.117,"address":""},
  {"id":"uni-10004048","type":"university","name":"London Metropolitan University","postcode":"N7 8DB","lat":51.5474,"lng":-0.0723,"address":""},
  {"id":"uni-10007825","type":"university","name":"Guildhall School of Music and Drama","postcode":"EC2Y 8DT","lat":51.5201,"lng":-0.0963,"address":""},
  {"id":"uni-10037544","type":"university","name":"BIMM University","postcode":"EC1V 9FR","lat":51.5278,"lng":-0.0998,"address":""},
  {"id":"uni-10004036","type":"university","name":"London Film School","postcode":"WC2H 9JN","lat":51.5137,"lng":-0.1283,"address":""},
  {"id":"uni-10048199","type":"university","name":"Northeastern University London","postcode":"EC2A 1NT","lat":51.5221,"lng":-0.0877,"address":""},
  {"id":"uni-10003758","type":"university","name":"London Academy of Music and Dramatic Art (LAMDA)","postcode":"W14 0RF","lat":51.492,"lng":-0.214,"address":""},
  {"id":"uni-10009292","type":"university","name":"Royal Academy of Dramatic Art (RADA)","postcode":"WC1E 6ED","lat":51.5228,"lng":-0.1321,"address":""},
  {"id":"uni-10004028","type":"university","name":"London Contemporary Dance School","postcode":"WC1H 9QU","lat":51.531,"lng":-0.1227,"address":""},
  {"id":"uni-10001444","type":"university","name":"National Centre for Circus Arts","postcode":"EC1R 4TN","lat":51.5275,"lng":-0.1045,"address":""},
  {"id":"uni-10001264","type":"university","name":"Central School of Ballet","postcode":"EC1R 1PX","lat":51.5275,"lng":-0.1045,"address":""},
  {"id":"uni-10088214","type":"university","name":"S P Jain London School of Management","postcode":"NW1 5LS","lat":51.5293,"lng":-0.1425,"address":""},
  {"id":"uni-10062810","type":"university","name":"The London School of Architecture","postcode":"N1 6AR","lat":51.537,"lng":-0.1073,"address":""},
  {"id":"uni-10019178","type":"university","name":"Point Blank Music School","postcode":"EC1V 8BR","lat":51.5278,"lng":-0.0998,"address":""},
  {"id":"uni-extra-Regents_University","type":"university","name":"Regent's University London","postcode":"NW1 4NS","lat":51.5256,"lng":-0.1517,"address":""},
  {"id":"uni-extra-Richmond_American","type":"university","name":"Richmond American University London","postcode":"TW10 6JP","lat":51.4454,"lng":-0.3036,"address":""},
  {"id":"uni-extra-Royal_Holloway","type":"university","name":"Royal Holloway, University of London","postcode":"TW20 0EX","lat":51.4256,"lng":-0.5651,"address":""},
  {"id":"uni-extra-The_University_of_La","type":"university","name":"The University of Law","postcode":"W1B 2HW","lat":51.5169,"lng":-0.144,"address":""},
  {"id":"uni-extra-Institute_of_Contemp","type":"university","name":"Institute of Contemporary Music Performance","postcode":"N7 8AR","lat":51.5474,"lng":-0.1135,"address":""},
  {"id":"uni-extra-Bloomsbury_Institute","type":"university","name":"Bloomsbury Institute","postcode":"WC1A 2RA","lat":51.5219,"lng":-0.1302,"address":""},
  {"id":"uni-extra-London_Interdisciplinary","type":"university","name":"London Interdisciplinary School","postcode":"E1 6RF","lat":51.5155,"lng":-0.0703,"address":""},
  {"id":"uni-extra-St_Mellitus_College","type":"university","name":"St Mellitus College","postcode":"N7 6AB","lat":51.5525,"lng":-0.1125,"address":""},
  {"id":"uni-extra-London_School_of_Jew","type":"university","name":"London School of Jewish Studies","postcode":"NW4 2EJ","lat":51.5971,"lng":-0.2116,"address":""},
  {"id":"uni-extra-Walbrook_Institute_L","type":"university","name":"Walbrook Institute London","postcode":"EC4N 8AF","lat":51.5123,"lng":-0.0912,"address":""},
  {"id":"uni-extra-Mont_Rose_College","type":"university","name":"Mont Rose College of Management and Sciences","postcode":"N16 8EJ","lat":51.5622,"lng":-0.0691,"address":""}
]
